[{"place_id":"43,97916035848750","geometry":{"type":"Point","coordinates":[11.780499548,43.979160358]},"display_name":"Comune di Premilcuore,from:IBC","category":"attractions","type":"HolderOfArchives","importance":0.0,"icon":"","visiting_time":0.0,"opening_hours":"ok","opening_days":"ok","rating":0,"photo_url":null,"description":null,"www":"http://www.comune.premilcuore.fc.it"},{"place_id":"44,0258598","geometry":{"type":"Point","coordinates":[11.7809771,44.0258598]},"display_name":"Comune di Portico e San Benedetto,from:IBC","category":"attractions","type":"HolderOfArchives","importance":0.0,"icon":"","visiting_time":0.0,"opening_hours":"ok","opening_days":"ok","rating":0,"photo_url":null,"description":null,"www":"http://comune.portico-e-san-benedetto.fc.it"},{"place_id":"44,0254284","geometry":{"type":"Point","coordinates":[11.7832166,44.0254284]},"display_name":"Biblioteca comunale,from:IBC","category":"attractions","type":"Library","importance":0.0,"icon":"","visiting_time":0.0,"opening_hours":"ok","opening_days":"ok","rating":0,"photo_url":null,"description":null,"www":"http://dati.emilia-romagna.it/id/ibc/condition/IT-FC0113_orari"},{"place_id":"43,98080657786750","geometry":{"type":"Point","coordinates":[11.784958667,43.980806578]},"display_name":"Biblioteca comunale,from:IBC","category":"attractions","type":"Library","importance":0.0,"icon":"","visiting_time":0.0,"opening_hours":"ok","opening_days":"ok","rating":0,"photo_url":null,"description":null,"www":"http://www.comune.premilcuore.fc.it"},{"place_id":"43,97920152862000","geometry":{"type":"Point","coordinates":[11.780843849,43.979201529]},"display_name":"Museo della Fauna del Crinale Romagnolo,from:IBC","category":"attractions","type":"Museum","importance":0.0,"icon":"","visiting_time":0.0,"opening_hours":"ok","opening_days":"ok","rating":0,"photo_url":null,"description":null,"www":"http://dati.emilia-romagna.it/id/ibc/condition/IT-ER-FC017"},{"place_id":"Un Leccio Portico e San Benedetto Portico di Romagna Via Castagneto 13","geometry":{"type":"Point","coordinates":[11.76176981,44.01747492]},"display_name":"Un Leccio Portico e San Benedetto Portico di Romagna Via Castagneto,from:IBC","category":"tree","type":"tree","importance":0.0,"icon":"","visiting_time":0.0,"opening_hours":"ok","opening_days":"ok","rating":0,"photo_url":"http://online.ibc.regione.emilia-romagna.it/mtrees/image/288.jpg","description":null,"www":null},{"place_id":"Una Roverella Premilcuore S. Eufemia (Montalto Vecchio) 274","geometry":{"type":"Point","coordinates":[11.8224,43.98720996]},"display_name":"Una Roverella Premilcuore S. Eufemia (Montalto Vecchio),from:IBC","category":"tree","type":"tree","importance":0.0,"icon":"","visiting_time":0.0,"opening_hours":"ok","opening_days":"ok","rating":0,"photo_url":"http://online.ibc.regione.emilia-romagna.it/mtrees/image/256.jpg","description":null,"www":null}]