[{"place_id":"13993","geometry":{"type":"Point","coordinates":[9.459782941,45.055353448]},"display_name":"Oratorio dell'Annunciazione a Maria,from:MIBACT","category":"attractions","type":"Oratorio","importance":0.7,"icon":"","visiting_time":0.0,"opening_hours":"ok","opening_days":"ok","rating":0,"photo_url":null,"description":null,"www":"http://vincoliinrete.beniculturali.it/VincoliInRete/vir/bene/dettagliobene318689"},{"place_id":"10141","geometry":{"type":"Point","coordinates":[9.434081524,45.058471587]},"display_name":"Palazzo Municipale,from:MIBACT","category":"attractions","type":"Scuola","importance":0.4,"icon":"","visiting_time":0.0,"opening_hours":"ok","opening_days":"ok","rating":0,"photo_url":null,"description":null,"www":"http://vincoliinrete.beniculturali.it/VincoliInRete/vir/bene/dettagliobene520994"},{"place_id":"10371","geometry":{"type":"Point","coordinates":[9.443816565,45.057859325]},"display_name":"Villa Albesani Braghieri,from:MIBACT","category":"attractions","type":"Villa","importance":0.7,"icon":"","visiting_time":0.0,"opening_hours":"ok","opening_days":"ok","rating":0,"photo_url":null,"description":null,"www":"http://vincoliinrete.beniculturali.it/VincoliInRete/vir/bene/dettagliobene265738"},{"place_id":"10056","geometry":{"type":"Point","coordinates":[9.43873932,45.05737962]},"display_name":"\"Oratorio di S. Maria della Torricella, casa canonica e pertinenze\",from:MIBACT","category":"attractions","type":"Oratorio","importance":0.7,"icon":"","visiting_time":0.0,"opening_hours":"ok","opening_days":"ok","rating":0,"photo_url":null,"description":null,"www":null},{"place_id":"11973","geometry":{"type":"Point","coordinates":[9.431167049,45.059374694]},"display_name":"Chiesa di San Rocco,from:MIBACT","category":"attractions","type":"Chiesa","importance":0.7,"icon":"","visiting_time":0.0,"opening_hours":"ok","opening_days":"ok","rating":0,"photo_url":null,"description":null,"www":"http://vincoliinrete.beniculturali.it/VincoliInRete/vir/bene/dettagliobene140447"},{"place_id":"10191","geometry":{"type":"Point","coordinates":[9.436266459,45.058308612]},"display_name":"Chiesa parrocchiale di Castel San Giovanni,from:MIBACT","category":"attractions","type":"Chiesa","importance":0.9,"icon":"","visiting_time":0.0,"opening_hours":"ok","opening_days":"ok","rating":0,"photo_url":null,"description":null,"www":"http://vincoliinrete.beniculturali.it/VincoliInRete/vir/bene/dettagliobene142321"}]