[{"place_id":"44,60353129989990","geometry":{"type":"Point","coordinates":[11.417264063,44.6035313]},"display_name":"Istituzione Villa Smeraldi Museo della civiltà contadina di San Marino di Bentivoglio,from:IBC","category":"attractions","type":"HolderOfArchives","importance":0.0,"icon":"","visiting_time":0.0,"opening_hours":"ok","opening_days":"ok","rating":0,"photo_url":null,"description":null,"www":"http://www.museociviltacontadina.provincia.bologna.it/"},{"place_id":"44,63519091054660","geometry":{"type":"Point","coordinates":[11.417878801,44.635190911]},"display_name":"Comune di Bentivoglio,from:IBC","category":"attractions","type":"HolderOfArchives","importance":0.0,"icon":"","visiting_time":0.0,"opening_hours":"ok","opening_days":"ok","rating":0,"photo_url":null,"description":null,"www":"http://www.comune.bentivoglio.bo.it"},{"place_id":"44,621394","geometry":{"type":"Point","coordinates":[11.4858813,44.621394]},"display_name":"Comune di Minerbio,from:IBC","category":"attractions","type":"HolderOfArchives","importance":0.0,"icon":"","visiting_time":0.0,"opening_hours":"ok","opening_days":"ok","rating":0,"photo_url":null,"description":null,"www":"http://www.comune.minerbio.bo.it"},{"place_id":"44,64773628168370","geometry":{"type":"Point","coordinates":[11.374078124,44.647736282]},"display_name":"Comune di San Giorgio di Piano,from:IBC","category":"attractions","type":"HolderOfArchives","importance":0.0,"icon":"","visiting_time":0.0,"opening_hours":"ok","opening_days":"ok","rating":0,"photo_url":null,"description":null,"www":"http://www.comune.san-giorgio-di-piano.bo.it"},{"place_id":"44,64643677287730","geometry":{"type":"Point","coordinates":[11.375401773,44.646436773]},"display_name":"Biblioteca comunale Luigi Arbizzani,from:IBC","category":"attractions","type":"Library","importance":0.0,"icon":"","visiting_time":0.0,"opening_hours":"ok","opening_days":"ok","rating":0,"photo_url":null,"description":null,"www":"http://www.comune.san-giorgio-di-piano.bo.it/Main/Main.asp?doc=049"},{"place_id":"44,64643677287730","geometry":{"type":"Point","coordinates":[11.375401773,44.646436773]},"display_name":"Biblioteca comunale Luigi Arbizzani,from:IBC","category":"attractions","type":"Library","importance":0.0,"icon":"","visiting_time":0.0,"opening_hours":"ok","opening_days":"ok","rating":0,"photo_url":null,"description":null,"www":"http://www.bibliotecheassociate.it/BiblioSchede/BA-sgiorgioinpiano-fr.html"},{"place_id":"44,60353129989990","geometry":{"type":"Point","coordinates":[11.417264063,44.6035313]},"display_name":"Biblioteca del Museo della civiltà contadina di San Marino di Bentivoglio,from:IBC","category":"attractions","type":"Library","importance":0.0,"icon":"","visiting_time":0.0,"opening_hours":"ok","opening_days":"ok","rating":0,"photo_url":null,"description":null,"www":"http://www.museociviltacontadina.provincia.bologna.it"},{"place_id":"44,63445146093380","geometry":{"type":"Point","coordinates":[11.420565001,44.634451461]},"display_name":"Biblioteca comunale Palazzo Rosso,from:IBC","category":"attractions","type":"Library","importance":0.0,"icon":"","visiting_time":0.0,"opening_hours":"ok","opening_days":"ok","rating":0,"photo_url":null,"description":null,"www":"http://www.bibliotecheassociate.it/BiblioSchede/BA-bentivoglio-fr.html"},{"place_id":"44,63445146093380","geometry":{"type":"Point","coordinates":[11.420565001,44.634451461]},"display_name":"Biblioteca comunale Palazzo Rosso,from:IBC","category":"attractions","type":"Library","importance":0.0,"icon":"","visiting_time":0.0,"opening_hours":"ok","opening_days":"ok","rating":0,"photo_url":null,"description":null,"www":"http://www.comune.bentivoglio.bo.it/servizi/menu/dinamica.aspx?ID=2136"},{"place_id":"44,60689092215020","geometry":{"type":"Point","coordinates":[11.368980032,44.606890922]},"display_name":"Ferruccio Lamborghini Museo,from:IBC","category":"attractions","type":"Museum","importance":0.0,"icon":"","visiting_time":0.0,"opening_hours":"ok","opening_days":"ok","rating":0,"photo_url":null,"description":null,"www":"http://www.museolamborghini.com"},{"place_id":"44,60161090414070","geometry":{"type":"Point","coordinates":[11.394048149,44.601610904]},"display_name":"Museo della Civiltà Contadina e della Canapa G. Romagnoli,from:IBC","category":"attractions","type":"Museum","importance":0.0,"icon":"","visiting_time":0.0,"opening_hours":"ok","opening_days":"ok","rating":0,"photo_url":null,"description":null,"www":"http://dati.emilia-romagna.it/id/ibc/condition/IT-ER-BO083"},{"place_id":"44,60353129989990","geometry":{"type":"Point","coordinates":[11.417264063,44.6035313]},"display_name":"Museo della Civiltà Contadina Istituzione Villa Smeraldi,from:IBC","category":"attractions","type":"Museum","importance":0.0,"icon":"","visiting_time":0.0,"opening_hours":"ok","opening_days":"ok","rating":0,"photo_url":null,"description":null,"www":"http://dati.emilia-romagna.it/id/ibc/condition/IT-ER-BO054"},{"place_id":"Un Pioppo nero Budrio Armarolo Via San Donato 180","geometry":{"type":"Point","coordinates":[11.47173186,44.5974966]},"display_name":"Un Pioppo nero Budrio Armarolo Via San Donato,from:IBC","category":"tree","type":"tree","importance":0.0,"icon":"","visiting_time":0.0,"opening_hours":"ok","opening_days":"ok","rating":0,"photo_url":"http://online.ibc.regione.emilia-romagna.it/mtrees/image/33.jpg","description":null,"www":null},{"place_id":"Un Platano comune San Giorgio di Piano Gherghenzano Via Gherghenzano 244","geometry":{"type":"Point","coordinates":[11.38282762,44.68117335]},"display_name":"Un Platano comune San Giorgio di Piano Gherghenzano Via Gherghenzano,from:IBC","category":"tree","type":"tree","importance":0.0,"icon":"","visiting_time":0.0,"opening_hours":"ok","opening_days":"ok","rating":0,"photo_url":"http://online.ibc.regione.emilia-romagna.it/mtrees/image/145.jpg","description":null,"www":null},{"place_id":"Due Farnie Budrio Armarolo Via Armarolo, 34 341","geometry":{"type":"Point","coordinates":[11.46383171,44.58974553]},"display_name":"Due Farnie Budrio Armarolo Via Armarolo, 34,from:IBC","category":"tree","type":"tree","importance":0.0,"icon":"","visiting_time":0.0,"opening_hours":"ok","opening_days":"ok","rating":0,"photo_url":"http://online.ibc.regione.emilia-romagna.it/mtrees/image/6704.12.06.pdf","description":null,"www":null}]