[{"place_id":"44,50639746134330","geometry":{"type":"Point","coordinates":[12.039116942,44.506397461]},"display_name":"Biblioteca comunale Pino Orioli di Alfonsine,from:IBC","category":"attractions","type":"HolderOfArchives","importance":0.0,"icon":"","visiting_time":0.0,"opening_hours":"ok","opening_days":"ok","rating":0,"photo_url":null,"description":null,"www":"http://www.comune.alfonsine.ra.it"},{"place_id":"44,46803416349450","geometry":{"type":"Point","coordinates":[11.959467445,44.468034163]},"display_name":"Comune di Fusignano,from:IBC","category":"attractions","type":"HolderOfArchives","importance":0.0,"icon":"","visiting_time":0.0,"opening_hours":"ok","opening_days":"ok","rating":0,"photo_url":null,"description":null,"www":"http://www.comune.fusignano.ra.it"},{"place_id":"44,46750781157140","geometry":{"type":"Point","coordinates":[11.95983993,44.467507812]},"display_name":"Biblioteca comunale Carlo Piancastelli,from:IBC","category":"attractions","type":"Library","importance":0.0,"icon":"","visiting_time":0.0,"opening_hours":"ok","opening_days":"ok","rating":0,"photo_url":null,"description":null,"www":"http://www.comune.fusignano.ra.it/contenuti/index.php?t=biblioteca&ref=3"},{"place_id":"44,50639746134330","geometry":{"type":"Point","coordinates":[12.039116942,44.506397461]},"display_name":"Biblioteca comunale Pino Orioli,from:IBC","category":"attractions","type":"Library","importance":0.0,"icon":"","visiting_time":0.0,"opening_hours":"ok","opening_days":"ok","rating":0,"photo_url":null,"description":null,"www":"http://www.comune.alfonsine.ra.it/Citta-e-territorio/Biblioteca-P.Orioli/"},{"place_id":"44,50639746134330","geometry":{"type":"Point","coordinates":[12.039116942,44.506397461]},"display_name":"Museo della Battaglia del Senio,from:IBC","category":"attractions","type":"Museum","importance":0.0,"icon":"","visiting_time":0.0,"opening_hours":"ok","opening_days":"ok","rating":0,"photo_url":null,"description":null,"www":"http://dati.emilia-romagna.it/id/ibc/condition/IT-ER-RA002"},{"place_id":"44,46878689201960","geometry":{"type":"Point","coordinates":[11.957069835,44.468786892]},"display_name":"Museo Civico San Rocco,from:IBC","category":"attractions","type":"Museum","importance":0.0,"icon":"","visiting_time":0.0,"opening_hours":"ok","opening_days":"ok","rating":0,"photo_url":null,"description":null,"www":"http://dati.emilia-romagna.it/id/ibc/condition/IT-ER-RA040"},{"place_id":"Un Pioppo bianco Fusignano Via Fiume di Sotto 417","geometry":{"type":"Point","coordinates":[12.02921106,44.49161588]},"display_name":"Un Pioppo bianco Fusignano Via Fiume di Sotto,from:IBC","category":"tree","type":"tree","importance":0.0,"icon":"","visiting_time":0.0,"opening_hours":"ok","opening_days":"ok","rating":0,"photo_url":"http://online.ibc.regione.emilia-romagna.it/mtrees/image/1225.jpg","description":null,"www":null}]