[{"place_id":"45,0585026","geometry":{"type":"Point","coordinates":[9.4340429,45.0585026]},"display_name":"Comune di Castel San Giovanni,from:IBC","category":"attractions","type":"HolderOfArchives","importance":0.0,"icon":"","visiting_time":0.0,"opening_hours":"ok","opening_days":"ok","rating":0,"photo_url":null,"description":null,"www":"http://www.comune.castelsangiovanni.pc.it"},{"place_id":"45,05891009583650","geometry":{"type":"Point","coordinates":[9.440385962,45.058910096]},"display_name":"Biblioteca comunale Villa Braghieri,from:IBC","category":"attractions","type":"Library","importance":0.0,"icon":"","visiting_time":0.0,"opening_hours":"ok","opening_days":"ok","rating":0,"photo_url":null,"description":null,"www":"http://dati.emilia-romagna.it/id/ibc/condition/IT-PC0009_orari"},{"place_id":"45,05661202083640","geometry":{"type":"Point","coordinates":[9.450705449,45.056612021]},"display_name":"Museo Etnografico della Val Tidone,from:IBC","category":"attractions","type":"Museum","importance":0.0,"icon":"","visiting_time":0.0,"opening_hours":"ok","opening_days":"ok","rating":0,"photo_url":null,"description":null,"www":"http://dati.emilia-romagna.it/id/ibc/condition/IT-ER-PC026"},{"place_id":"Una Quercia Castel San Giovanni Strada vicinale di Polesera 28","geometry":{"type":"Point","coordinates":[9.43530913,45.04092421]},"display_name":"Una Quercia Castel San Giovanni Strada vicinale di Polesera,from:IBC","category":"tree","type":"tree","importance":0.0,"icon":"","visiting_time":0.0,"opening_hours":"ok","opening_days":"ok","rating":0,"photo_url":"http://online.ibc.regione.emilia-romagna.it/mtrees/image/809.jpg","description":null,"www":null},{"place_id":"Frassino maggiore Borgonovo Val Tidone 709","geometry":{"type":"Point","coordinates":[9.46025139,45.02424508]},"display_name":"Frassino maggiore Borgonovo Val Tidone,from:IBC","category":"tree","type":"tree","importance":0.0,"icon":"","visiting_time":0.0,"opening_hours":"ok","opening_days":"ok","rating":0,"photo_url":"http://online.ibc.regione.emilia-romagna.it/mtrees/image/5521.jpg","description":null,"www":null}]