[{"place_id":"44,71546208582560","geometry":{"type":"Point","coordinates":[10.631352795,44.715462086]},"display_name":"Polo archivistico del Comune di Reggio Emilia,from:IBC","category":"attractions","type":"HolderOfArchives","importance":0.0,"icon":"","visiting_time":0.0,"opening_hours":"ok","opening_days":"ok","rating":0,"photo_url":null,"description":null,"www":"http://www.istoreco.re.it"},{"place_id":"44,71546208582560","geometry":{"type":"Point","coordinates":[10.631352795,44.715462086]},"display_name":"Polo archivistico del Comune di Reggio Emilia,from:IBC","category":"attractions","type":"HolderOfArchives","importance":0.0,"icon":"","visiting_time":0.0,"opening_hours":"ok","opening_days":"ok","rating":0,"photo_url":null,"description":null,"www":"http://archivi.comune.re.it/"},{"place_id":"44,67667670197560","geometry":{"type":"Point","coordinates":[10.652303609,44.676676702]},"display_name":"Archivio storico comunale di Reggio Emilia,from:IBC","category":"attractions","type":"HolderOfArchives","importance":0.0,"icon":"","visiting_time":0.0,"opening_hours":"ok","opening_days":"ok","rating":0,"photo_url":null,"description":null,"www":"http://www.comune.re.it"},{"place_id":"44,69917743113170","geometry":{"type":"Point","coordinates":[10.626814311,44.699177431]},"display_name":"Provincia di Reggio Emilia,from:IBC","category":"attractions","type":"HolderOfArchives","importance":0.0,"icon":"","visiting_time":0.0,"opening_hours":"ok","opening_days":"ok","rating":0,"photo_url":null,"description":null,"www":"http://www.provincia.re.it"},{"place_id":"44,76296447902070","geometry":{"type":"Point","coordinates":[10.594814961,44.762964479]},"display_name":"Comune di Cadelbosco di Sopra,from:IBC","category":"attractions","type":"HolderOfArchives","importance":0.0,"icon":"","visiting_time":0.0,"opening_hours":"ok","opening_days":"ok","rating":0,"photo_url":null,"description":null,"www":"http://www.cadelbosco.net"},{"place_id":"44,69657263157800","geometry":{"type":"Point","coordinates":[10.629310739,44.696572632]},"display_name":"Biblioteca comunale Antonio Panizzi di Reggio Emilia,from:IBC","category":"attractions","type":"HolderOfArchives","importance":0.0,"icon":"","visiting_time":0.0,"opening_hours":"ok","opening_days":"ok","rating":0,"photo_url":null,"description":null,"www":"http://www.bibliotecapanizzi.it"},{"place_id":"44,76282015237080","geometry":{"type":"Point","coordinates":[10.672750323,44.762820152]},"display_name":"Comune di Bagnolo in Piano,from:IBC","category":"attractions","type":"HolderOfArchives","importance":0.0,"icon":"","visiting_time":0.0,"opening_hours":"ok","opening_days":"ok","rating":0,"photo_url":null,"description":null,"www":"http://www.comune.bagnolo.re.it"},{"place_id":"44,69501717176300","geometry":{"type":"Point","coordinates":[10.526767262,44.695017172]},"display_name":"Comune di Cavriago,from:IBC","category":"attractions","type":"HolderOfArchives","importance":0.0,"icon":"","visiting_time":0.0,"opening_hours":"ok","opening_days":"ok","rating":0,"photo_url":null,"description":null,"www":"http://www.comune.cavriago.re.it"},{"place_id":"44,69388003107710","geometry":{"type":"Point","coordinates":[10.644571164,44.693880031]},"display_name":"Biblioteca comunale decentrata di Ospizio,from:IBC","category":"attractions","type":"Library","importance":0.0,"icon":"","visiting_time":0.0,"opening_hours":"ok","opening_days":"ok","rating":0,"photo_url":null,"description":null,"www":"http://www.bibliotecapanizzi.it/biblioteche/panizzi.nsf/e9c715c6691a6e19c1256e1b00379b21/df06cf3f5055112fc1256e8400504516?OpenDocument"},{"place_id":"44,68668492903810","geometry":{"type":"Point","coordinates":[10.665415619,44.686684929]},"display_name":"Biblioteca Scientifica Carlo Livi,from:IBC","category":"attractions","type":"Library","importance":0.0,"icon":"","visiting_time":0.0,"opening_hours":"ok","opening_days":"ok","rating":0,"photo_url":null,"description":null,"www":"http://www.ausl.re.it/biblioteca-scientifica-carlo-livi.html"},{"place_id":"44,69657263157800","geometry":{"type":"Point","coordinates":[10.629310739,44.696572632]},"display_name":"Biblioteca Antonio Panizzi,from:IBC","category":"attractions","type":"Library","importance":0.0,"icon":"","visiting_time":0.0,"opening_hours":"ok","opening_days":"ok","rating":0,"photo_url":null,"description":null,"www":"http://www.bibliotecapanizzi.it/"},{"place_id":"44,76288627326360","geometry":{"type":"Point","coordinates":[10.594642079,44.762886273]},"display_name":"Biblioteca comunale Arturo Panarari,from:IBC","category":"attractions","type":"Library","importance":0.0,"icon":"","visiting_time":0.0,"opening_hours":"ok","opening_days":"ok","rating":0,"photo_url":null,"description":null,"www":"http://biblioteche.provincia.re.it/cadelbosco"},{"place_id":"44,76404682272220","geometry":{"type":"Point","coordinates":[10.671997808,44.764046823]},"display_name":"Biblioteca comunale Centro Culturale Cà Rossa,from:IBC","category":"attractions","type":"Library","importance":0.0,"icon":"","visiting_time":0.0,"opening_hours":"ok","opening_days":"ok","rating":0,"photo_url":null,"description":null,"www":"http://biblioteche.provincia.re.it/Sezione.jsp?idSezione=28"},{"place_id":"44,68513888718880","geometry":{"type":"Point","coordinates":[10.627145668,44.685138887]},"display_name":"Biblioteca Medica Pietro Giuseppe Corradini - Centro di documentazione per il Governo Clinico delle Aziende Sanitarie della Provincia di Reggio Emilia,from:IBC","category":"attractions","type":"Library","importance":0.0,"icon":"","visiting_time":0.0,"opening_hours":"ok","opening_days":"ok","rating":0,"photo_url":null,"description":null,"www":"http://biblioteca.asmn.re.it"},{"place_id":"44,68631244572180","geometry":{"type":"Point","coordinates":[10.638615678,44.686312446]},"display_name":"Biblioteca comunale decentrata Domenico Manfredi di Rosta Nuova,from:IBC","category":"attractions","type":"Library","importance":0.0,"icon":"","visiting_time":0.0,"opening_hours":"ok","opening_days":"ok","rating":0,"photo_url":null,"description":null,"www":"http://www.bibliotecapanizzi.it/biblioteche/panizzi.nsf/e9c715c6691a6e19c1256e1b00379b21/c7ea1b741e87703cc1256e84005038ad?OpenDocument"},{"place_id":"44,69462243665080","geometry":{"type":"Point","coordinates":[10.530207742,44.694622437]},"display_name":"Multiplo - Centro Cultura Cavriago,from:IBC","category":"attractions","type":"Library","importance":0.0,"icon":"","visiting_time":0.0,"opening_hours":"ok","opening_days":"ok","rating":0,"photo_url":null,"description":null,"www":"https://www.facebook.com/MultiploCavriago"},{"place_id":"44,69462243665080","geometry":{"type":"Point","coordinates":[10.530207742,44.694622437]},"display_name":"Multiplo - Centro Cultura Cavriago,from:IBC","category":"attractions","type":"Library","importance":0.0,"icon":"","visiting_time":0.0,"opening_hours":"ok","opening_days":"ok","rating":0,"photo_url":null,"description":null,"www":"http://biblioteche.provincia.re.it/Sezione.jsp?idSezione=56"},{"place_id":"44,69462243665080","geometry":{"type":"Point","coordinates":[10.530207742,44.694622437]},"display_name":"Multiplo - Centro Cultura Cavriago,from:IBC","category":"attractions","type":"Library","importance":0.0,"icon":"","visiting_time":0.0,"opening_hours":"ok","opening_days":"ok","rating":0,"photo_url":null,"description":null,"www":"http://www.comune.cavriago.re.it/canali-tematici/multiplo/default.aspx"},{"place_id":"44,68310258059870","geometry":{"type":"Point","coordinates":[10.616629657,44.683102581]},"display_name":"Biblioteca comunale decentrata Marco Gerra di San Pellegrino,from:IBC","category":"attractions","type":"Library","importance":0.0,"icon":"","visiting_time":0.0,"opening_hours":"ok","opening_days":"ok","rating":0,"photo_url":null,"description":null,"www":"http://www.bibliotecapanizzi.it/biblioteche/panizzi.nsf/e9c715c6691a6e19c1256e1b00379b21/9840a140b561bb7fc1256e8400504d2e?OpenDocument"},{"place_id":"44,70399466783500","geometry":{"type":"Point","coordinates":[10.64994387,44.703994668]},"display_name":"Biblioteca comunale decentrata Santa Croce,from:IBC","category":"attractions","type":"Library","importance":0.0,"icon":"","visiting_time":0.0,"opening_hours":"ok","opening_days":"ok","rating":0,"photo_url":null,"description":null,"www":"http://www.bibliotecapanizzi.it/biblioteche/panizzi.nsf/e9c715c6691a6e19c1256e1b00379b21/b6ac4042b1bba6e0c1256e8400504fcc?OpenDocument"},{"place_id":"44,69162148906030","geometry":{"type":"Point","coordinates":[10.659934198,44.691621489]},"display_name":"Biblioteca del Servizio d'informazione e documentazione scientifica dell'Azienda speciale Farmacie Comunali Riunite,from:IBC","category":"attractions","type":"Library","importance":0.0,"icon":"","visiting_time":0.0,"opening_hours":"ok","opening_days":"ok","rating":0,"photo_url":null,"description":null,"www":"http://www.informazionisuifarmaci.it"},{"place_id":"44,69894821209870","geometry":{"type":"Point","coordinates":[10.637143144,44.698948212]},"display_name":"Biblioteca Armando Gentilucci,from:IBC","category":"attractions","type":"Library","importance":0.0,"icon":"","visiting_time":0.0,"opening_hours":"ok","opening_days":"ok","rating":0,"photo_url":null,"description":null,"www":"http://www.municipio.re.it/peri_biblioteca"},{"place_id":"44,69894821209870","geometry":{"type":"Point","coordinates":[10.637143144,44.698948212]},"display_name":"Biblioteca Armando Gentilucci,from:IBC","category":"attractions","type":"Library","importance":0.0,"icon":"","visiting_time":0.0,"opening_hours":"ok","opening_days":"ok","rating":0,"photo_url":null,"description":null,"www":"http://www.municipio.re.it/peri_biblioteca/paginenuove/regolamento.html"},{"place_id":"44,70043588229410","geometry":{"type":"Point","coordinates":[10.629070752,44.700435882]},"display_name":"Biblioteca delle Arti,from:IBC","category":"attractions","type":"Library","importance":0.0,"icon":"","visiting_time":0.0,"opening_hours":"ok","opening_days":"ok","rating":0,"photo_url":null,"description":null,"www":"http://www.musei.re.it/Museo/museire.nsf/Pagine/CA300E0F27835895C1256EB7004D0660?OpenDocument"},{"place_id":"44,70213013173910","geometry":{"type":"Point","coordinates":[10.633614939,44.702130132]},"display_name":"Biblioteca provinciale dei Frati minori Cappuccini,from:IBC","category":"attractions","type":"Library","importance":0.0,"icon":"","visiting_time":0.0,"opening_hours":"ok","opening_days":"ok","rating":0,"photo_url":null,"description":null,"www":"http://www.anagrafebbcc.chiesacattolica.it/anagraficaCEIBib"},{"place_id":"44,69985192497660","geometry":{"type":"Point","coordinates":[10.63109059,44.699851925]},"display_name":"Archivio Biblioteca Mediateca del Teatro Municipale Romolo Valli,from:IBC","category":"attractions","type":"Library","importance":0.0,"icon":"","visiting_time":0.0,"opening_hours":"ok","opening_days":"ok","rating":0,"photo_url":null,"description":null,"www":"http://www.iteatri.re.it"},{"place_id":"44,70157731442480","geometry":{"type":"Point","coordinates":[10.634631774,44.701577314]},"display_name":"Museo dei Cappuccini,from:IBC","category":"attractions","type":"Museum","importance":0.0,"icon":"","visiting_time":0.0,"opening_hours":"ok","opening_days":"ok","rating":0,"photo_url":null,"description":null,"www":"http://dati.emilia-romagna.it/id/ibc/condition/IT-ER-RE025"},{"place_id":"44,69741703623520","geometry":{"type":"Point","coordinates":[10.630199229,44.697417036]},"display_name":"Musei Civici - Museo del Tricolore,from:IBC","category":"attractions","type":"Museum","importance":0.0,"icon":"","visiting_time":0.0,"opening_hours":"ok","opening_days":"ok","rating":0,"photo_url":null,"description":null,"www":"http://dati.emilia-romagna.it/id/ibc/condition/IT-ER-RE003"},{"place_id":"44,70072670762060","geometry":{"type":"Point","coordinates":[10.628770178,44.700726708]},"display_name":"Musei Civici - Galleria Parmeggiani,from:IBC","category":"attractions","type":"Museum","importance":0.0,"icon":"","visiting_time":0.0,"opening_hours":"ok","opening_days":"ok","rating":0,"photo_url":null,"description":null,"www":"http://dati.emilia-romagna.it/id/ibc/condition/IT-ER-RE002"},{"place_id":"44,69928573700820","geometry":{"type":"Point","coordinates":[10.626455344,44.699285737]},"display_name":"Museo del Santuario della Beata Vergine della Ghiara,from:IBC","category":"attractions","type":"Museum","importance":0.0,"icon":"","visiting_time":0.0,"opening_hours":"ok","opening_days":"ok","rating":0,"photo_url":null,"description":null,"www":"http://dati.emilia-romagna.it/id/ibc/condition/IT-ER-RE026"},{"place_id":"44,69803712604330","geometry":{"type":"Point","coordinates":[10.631533288,44.698037126]},"display_name":"Museo Diocesano,from:IBC","category":"attractions","type":"Museum","importance":0.0,"icon":"","visiting_time":0.0,"opening_hours":"ok","opening_days":"ok","rating":0,"photo_url":null,"description":null,"www":"http://dati.emilia-romagna.it/id/ibc/condition/IT-ER-RE037"},{"place_id":"44,68668492903810","geometry":{"type":"Point","coordinates":[10.665415619,44.686684929]},"display_name":"Museo di Storia della Psichiatria,from:IBC","category":"attractions","type":"Museum","importance":0.0,"icon":"","visiting_time":0.0,"opening_hours":"ok","opening_days":"ok","rating":0,"photo_url":null,"description":null,"www":"http://dati.emilia-romagna.it/id/ibc/condition/IT-ER-RE017"},{"place_id":"44,68030802768300","geometry":{"type":"Point","coordinates":[10.684651297,44.680308028]},"display_name":"Mauriziano,from:IBC","category":"attractions","type":"Museum","importance":0.0,"icon":"","visiting_time":0.0,"opening_hours":"ok","opening_days":"ok","rating":0,"photo_url":null,"description":null,"www":"http://www.musei.re.it/sedi/mauriziano/"},{"place_id":"44,69985192497660","geometry":{"type":"Point","coordinates":[10.63109059,44.699851925]},"display_name":"Museo Archivio del Teatro,from:IBC","category":"attractions","type":"Museum","importance":0.0,"icon":"","visiting_time":0.0,"opening_hours":"ok","opening_days":"ok","rating":0,"photo_url":null,"description":null,"www":"http://www.iteatri.re.it/"},{"place_id":"44,69355662698890","geometry":{"type":"Point","coordinates":[10.631079393,44.693556627]},"display_name":"Casa dei Burattini di Otello Sarzi,from:IBC","category":"attractions","type":"Museum","importance":0.0,"icon":"","visiting_time":0.0,"opening_hours":"ok","opening_days":"ok","rating":0,"photo_url":null,"description":null,"www":"http://www.fondazionefamigliasarzi.it"},{"place_id":"44,70001107948970","geometry":{"type":"Point","coordinates":[10.63203252,44.700011079]},"display_name":"Musei Civici - Palazzo San Francesco,from:IBC","category":"attractions","type":"Museum","importance":0.0,"icon":"","visiting_time":0.0,"opening_hours":"ok","opening_days":"ok","rating":0,"photo_url":null,"description":null,"www":"http://dati.emilia-romagna.it/id/ibc/condition/IT-ER-RE001"},{"place_id":"Una Quercia Albinea Botteghe Via Chiesa, 58 41","geometry":{"type":"Point","coordinates":[10.59145481,44.62761714]},"display_name":"Una Quercia Albinea Botteghe Via Chiesa, 58,from:IBC","category":"tree","type":"tree","importance":0.0,"icon":"","visiting_time":0.0,"opening_hours":"ok","opening_days":"ok","rating":0,"photo_url":"http://online.ibc.regione.emilia-romagna.it/mtrees/image/2435.jpg","description":null,"www":null},{"place_id":"Una Farnia Reggio Emilia Via Tassoni 173","geometry":{"type":"Point","coordinates":[10.64471016,44.65954932]},"display_name":"Una Farnia Reggio Emilia Via Tassoni,from:IBC","category":"tree","type":"tree","importance":0.0,"icon":"","visiting_time":0.0,"opening_hours":"ok","opening_days":"ok","rating":0,"photo_url":"http://online.ibc.regione.emilia-romagna.it/mtrees/image/6652.12.06.pdf","description":null,"www":null},{"place_id":"Una Farnia Reggio Emilia Via Martiri di Cervarolo 185","geometry":{"type":"Point","coordinates":[10.63609467,44.68551825]},"display_name":"Una Farnia Reggio Emilia Via Martiri di Cervarolo,from:IBC","category":"tree","type":"tree","importance":0.0,"icon":"","visiting_time":0.0,"opening_hours":"ok","opening_days":"ok","rating":0,"photo_url":"http://online.ibc.regione.emilia-romagna.it/mtrees/image/6950.jpg","description":null,"www":null},{"place_id":"Due Platani Reggio Emilia Villa Cadè, S.S. n. 9 254","geometry":{"type":"Point","coordinates":[10.51919906,44.73728412]},"display_name":"Due Platani Reggio Emilia Villa Cadè, S.S. n. 9,from:IBC","category":"tree","type":"tree","importance":0.0,"icon":"","visiting_time":0.0,"opening_hours":"ok","opening_days":"ok","rating":0,"photo_url":"http://online.ibc.regione.emilia-romagna.it/mtrees/image/6479.jpg","description":null,"www":null},{"place_id":"Una Farnia Reggio Emilia Via Martiri di Cervarolo 333","geometry":{"type":"Point","coordinates":[10.63539232,44.68522224]},"display_name":"Una Farnia Reggio Emilia Via Martiri di Cervarolo,from:IBC","category":"tree","type":"tree","importance":0.0,"icon":"","visiting_time":0.0,"opening_hours":"ok","opening_days":"ok","rating":0,"photo_url":"http://online.ibc.regione.emilia-romagna.it/mtrees/image/2449.jpg","description":null,"www":null},{"place_id":"Una Quercia Quattro Castella Loc. Montecavolo 438","geometry":{"type":"Point","coordinates":[10.54750536,44.63883484]},"display_name":"Una Quercia Quattro Castella Loc. Montecavolo,from:IBC","category":"tree","type":"tree","importance":0.0,"icon":"","visiting_time":0.0,"opening_hours":"ok","opening_days":"ok","rating":0,"photo_url":"http://online.ibc.regione.emilia-romagna.it/mtrees/image/2493.jpg","description":null,"www":null},{"place_id":"Una Farnia Reggio Emilia Casa Cocchi Via A. Negri 734","geometry":{"type":"Point","coordinates":[10.62890531,44.66987635]},"display_name":"Una Farnia Reggio Emilia Casa Cocchi Via A. Negri,from:IBC","category":"tree","type":"tree","importance":0.0,"icon":"","visiting_time":0.0,"opening_hours":"ok","opening_days":"ok","rating":0,"photo_url":"http://online.ibc.regione.emilia-romagna.it/mtrees/image/2436.jpg","description":null,"www":null},{"place_id":"Un Cedro dell’Atlante Cavriago Via Repubblica, 3 786","geometry":{"type":"Point","coordinates":[10.52659206,44.69617205]},"display_name":"Un Cedro dell’Atlante Cavriago Via Repubblica, 3,from:IBC","category":"tree","type":"tree","importance":0.0,"icon":"","visiting_time":0.0,"opening_hours":"ok","opening_days":"ok","rating":0,"photo_url":"http://online.ibc.regione.emilia-romagna.it/mtrees/image/1906.jpg","description":null,"www":null},{"place_id":"Una Farnia Reggio Emilia Istituto Neuropsichiatrico San Lazzaro - Via Emilia 830","geometry":{"type":"Point","coordinates":[10.66722998,44.68658013]},"display_name":"Una Farnia Reggio Emilia Istituto Neuropsichiatrico San Lazzaro - Via Emilia,from:IBC","category":"tree","type":"tree","importance":0.0,"icon":"","visiting_time":0.0,"opening_hours":"ok","opening_days":"ok","rating":0,"photo_url":"http://online.ibc.regione.emilia-romagna.it/mtrees/image/2453.jpg","description":null,"www":null},{"place_id":"Un Pioppo nero Reggio Emilia Gavasseto Madonna della Neve 872","geometry":{"type":"Point","coordinates":[10.68334011,44.66378438]},"display_name":"Un Pioppo nero Reggio Emilia Gavasseto Madonna della Neve,from:IBC","category":"tree","type":"tree","importance":0.0,"icon":"","visiting_time":0.0,"opening_hours":"ok","opening_days":"ok","rating":0,"photo_url":"http://online.ibc.regione.emilia-romagna.it/mtrees/image/2451.jpg","description":null,"www":null},{"place_id":"Due Platani Reggio Emilia Villa Cadè, S.S. n. 9 937","geometry":{"type":"Point","coordinates":[10.51931174,44.73724661]},"display_name":"Due Platani Reggio Emilia Villa Cadè, S.S. n. 9,from:IBC","category":"tree","type":"tree","importance":0.0,"icon":"","visiting_time":0.0,"opening_hours":"ok","opening_days":"ok","rating":0,"photo_url":"http://online.ibc.regione.emilia-romagna.it/mtrees/image/6481.jpg","description":null,"www":null},{"place_id":"Una Rovere Reggio Emilia Casa Cocchi Via A. Negri 944","geometry":{"type":"Point","coordinates":[10.62915549,44.66980077]},"display_name":"Una Rovere Reggio Emilia Casa Cocchi Via A. Negri,from:IBC","category":"tree","type":"tree","importance":0.0,"icon":"","visiting_time":0.0,"opening_hours":"ok","opening_days":"ok","rating":0,"photo_url":"http://online.ibc.regione.emilia-romagna.it/mtrees/image/7032.12.06.pdf","description":null,"www":null},{"place_id":"Una Farnia Reggio Emilia Torremolino Via F.lli Bandiera 961","geometry":{"type":"Point","coordinates":[10.59408266,44.7009841]},"display_name":"Una Farnia Reggio Emilia Torremolino Via F.lli Bandiera,from:IBC","category":"tree","type":"tree","importance":0.0,"icon":"","visiting_time":0.0,"opening_hours":"ok","opening_days":"ok","rating":0,"photo_url":"http://online.ibc.regione.emilia-romagna.it/mtrees/image/2337.jpg","description":null,"www":null},{"place_id":"Una Farnia Reggio Emilia Due Maestà, S.S. 467 1051","geometry":{"type":"Point","coordinates":[10.64471016,44.65954932]},"display_name":"Una Farnia Reggio Emilia Due Maestà, S.S. 467,from:IBC","category":"tree","type":"tree","importance":0.0,"icon":"","visiting_time":0.0,"opening_hours":"ok","opening_days":"ok","rating":0,"photo_url":"http://online.ibc.regione.emilia-romagna.it/mtrees/image/2333.jpg","description":null,"www":null}]