[{"place_id":"44,48140754590820","geometry":{"type":"Point","coordinates":[11.282446074,44.481407546]},"display_name":"Comune di Casalecchio di Reno,from:IBC","category":"attractions","type":"HolderOfArchives","importance":0.0,"icon":"","visiting_time":0.0,"opening_hours":"ok","opening_days":"ok","rating":0,"photo_url":null,"description":null,"www":"http://www.comune.casalecchio.bo.it"},{"place_id":"44,49209236366220","geometry":{"type":"Point","coordinates":[11.343428113,44.492092364]},"display_name":"Biblioteca comunale dell'Archiginnasio di Bologna,from:IBC","category":"attractions","type":"HolderOfArchives","importance":0.0,"icon":"","visiting_time":0.0,"opening_hours":"ok","opening_days":"ok","rating":0,"photo_url":null,"description":null,"www":"http://www.archiginnasio.it"},{"place_id":"44,49358965794520","geometry":{"type":"Point","coordinates":[11.333938142,44.493589658]},"display_name":"Istituto per la storia e le memorie del Novecento Parri E-R,from:IBC","category":"attractions","type":"HolderOfArchives","importance":0.0,"icon":"","visiting_time":0.0,"opening_hours":"ok","opening_days":"ok","rating":0,"photo_url":null,"description":null,"www":"http://www.istitutoparri.eu/engine.aspx?o=doc&doc=197"},{"place_id":"44,49181337466520","geometry":{"type":"Point","coordinates":[11.338595563,44.491813375]},"display_name":"Sodalizio culturale petroniano La Famèja Bulgnèisa,from:IBC","category":"attractions","type":"HolderOfArchives","importance":0.0,"icon":"","visiting_time":0.0,"opening_hours":"ok","opening_days":"ok","rating":0,"photo_url":null,"description":null,"www":"http://www.lafamigliabolognese.it/"},{"place_id":"44,48644844831010","geometry":{"type":"Point","coordinates":[11.359390033,44.486448448]},"display_name":"Provincia di Cristo Re dei frati minori dell'Emilia Romagna,from:IBC","category":"attractions","type":"HolderOfArchives","importance":0.0,"icon":"","visiting_time":0.0,"opening_hours":"ok","opening_days":"ok","rating":0,"photo_url":null,"description":null,"www":"http://www.fratiminorier.it"},{"place_id":"44,50164149332900","geometry":{"type":"Point","coordinates":[11.361489623,44.501641493]},"display_name":"Archivio storico comunale di Bologna,from:IBC","category":"attractions","type":"HolderOfArchives","importance":0.0,"icon":"","visiting_time":0.0,"opening_hours":"ok","opening_days":"ok","rating":0,"photo_url":null,"description":null,"www":"http://informa.comune.bologna.it/storiaamministrativa/"},{"place_id":"44,50164149332900","geometry":{"type":"Point","coordinates":[11.361489623,44.501641493]},"display_name":"Archivio storico comunale di Bologna,from:IBC","category":"attractions","type":"HolderOfArchives","importance":0.0,"icon":"","visiting_time":0.0,"opening_hours":"ok","opening_days":"ok","rating":0,"photo_url":null,"description":null,"www":"http://www.comune.bologna.it/iperbole/asc"},{"place_id":"44,50348508509130","geometry":{"type":"Point","coordinates":[11.339786157,44.503485085]},"display_name":"Confederazione italiana sindacati lavoratori - Unione sindacale territoriale di Bologna,from:IBC","category":"attractions","type":"HolderOfArchives","importance":0.0,"icon":"","visiting_time":0.0,"opening_hours":"ok","opening_days":"ok","rating":0,"photo_url":null,"description":null,"www":"http://www.cislbologna.it/"},{"place_id":"44,49221407603370","geometry":{"type":"Point","coordinates":[11.33148961,44.492214076]},"display_name":"Archivio storico provinciale di Bologna,from:IBC","category":"attractions","type":"HolderOfArchives","importance":0.0,"icon":"","visiting_time":0.0,"opening_hours":"ok","opening_days":"ok","rating":0,"photo_url":null,"description":null,"www":"http://www.provincia.bologna.it/archiviostorico"},{"place_id":"44,49302193107780","geometry":{"type":"Point","coordinates":[11.344252695,44.493021931]},"display_name":"Museo Civico del Risorgimento di Bologna,from:IBC","category":"attractions","type":"HolderOfArchives","importance":0.0,"icon":"","visiting_time":0.0,"opening_hours":"ok","opening_days":"ok","rating":0,"photo_url":null,"description":null,"www":"http://www.comune.bologna.it/museorisorgimento"},{"place_id":"44,48824020373830","geometry":{"type":"Point","coordinates":[11.355568809,44.488240204]},"display_name":"Centro di documentazione, ricerca e iniziativa delle donne della città di Bologna,from:IBC","category":"attractions","type":"HolderOfArchives","importance":0.0,"icon":"","visiting_time":0.0,"opening_hours":"ok","opening_days":"ok","rating":0,"photo_url":null,"description":null,"www":"http://www.women.it/cms/"},{"place_id":"44,48947812087960","geometry":{"type":"Point","coordinates":[11.312150235,44.489478121]},"display_name":"Fondazione Casa Lyda Borelli per artisti e operatori dello spettacolo di Bologna,from:IBC","category":"attractions","type":"HolderOfArchives","importance":0.0,"icon":"","visiting_time":0.0,"opening_hours":"ok","opening_days":"ok","rating":0,"photo_url":null,"description":null,"www":"http://www.casalydaborelli.it"},{"place_id":"44,49177799389140","geometry":{"type":"Point","coordinates":[11.329544059,44.491777994]},"display_name":"Liceo scientifico Augusto Righi di Bologna,from:IBC","category":"attractions","type":"HolderOfArchives","importance":0.0,"icon":"","visiting_time":0.0,"opening_hours":"ok","opening_days":"ok","rating":0,"photo_url":null,"description":null,"www":"http://www.lsrighi.com"},{"place_id":"44,49848233166660","geometry":{"type":"Point","coordinates":[11.342288834,44.498482332]},"display_name":"Soprintendenza per i beni librari e documentari della Regione Emilia-Romagna,from:IBC","category":"attractions","type":"HolderOfArchives","importance":0.0,"icon":"","visiting_time":0.0,"opening_hours":"ok","opening_days":"ok","rating":0,"photo_url":null,"description":null,"www":"http://www.ibc.regione.emilia-romagna.it"},{"place_id":"44,49754905164960","geometry":{"type":"Point","coordinates":[11.347350034,44.497549052]},"display_name":"Fondazione Gramsci Emilia-Romagna,from:IBC","category":"attractions","type":"HolderOfArchives","importance":0.0,"icon":"","visiting_time":0.0,"opening_hours":"ok","opening_days":"ok","rating":0,"photo_url":null,"description":null,"www":"http://www.iger.org"},{"place_id":"44,49658079653200","geometry":{"type":"Point","coordinates":[11.334977613,44.496580797]},"display_name":"Associazione nazionale partigiani d'Italia - Comitato provinciale di Bologna,from:IBC","category":"attractions","type":"HolderOfArchives","importance":0.0,"icon":"","visiting_time":0.0,"opening_hours":"ok","opening_days":"ok","rating":0,"photo_url":null,"description":null,"www":"http://www.anpi-anppia-bo.it/"},{"place_id":"44,48924766050300","geometry":{"type":"Point","coordinates":[11.347458233,44.489247661]},"display_name":"Liceo ginnasio statale Luigi Galvani di Bologna,from:IBC","category":"attractions","type":"HolderOfArchives","importance":0.0,"icon":"","visiting_time":0.0,"opening_hours":"ok","opening_days":"ok","rating":0,"photo_url":null,"description":null,"www":"http://www.liceogalvani.it/index.php"},{"place_id":"44,47216150955870","geometry":{"type":"Point","coordinates":[11.36480824,44.47216151]},"display_name":"Biblioteca Renzo Renzi della Fondazione Cineteca di Bologna,from:IBC","category":"attractions","type":"HolderOfArchives","importance":0.0,"icon":"","visiting_time":0.0,"opening_hours":"ok","opening_days":"ok","rating":0,"photo_url":null,"description":null,"www":"http://www.cinetecadibologna.it/biblioteca"},{"place_id":"44,50782172516700","geometry":{"type":"Point","coordinates":[11.364867252,44.507821725]},"display_name":"Polo archivistico regionale dell'Emilia-Romagna,from:IBC","category":"attractions","type":"HolderOfArchives","importance":0.0,"icon":"","visiting_time":0.0,"opening_hours":"ok","opening_days":"ok","rating":0,"photo_url":null,"description":null,"www":"http://parer.ibc.regione.emilia-romagna.it"},{"place_id":"44,50782172516700","geometry":{"type":"Point","coordinates":[11.364867252,44.507821725]},"display_name":"Polo archivistico regionale dell'Emilia-Romagna,from:IBC","category":"attractions","type":"HolderOfArchives","importance":0.0,"icon":"","visiting_time":0.0,"opening_hours":"ok","opening_days":"ok","rating":0,"photo_url":null,"description":null,"www":"http://www.regione.emilia-romagna.it/entra-in-regione/polo-archivistico-regionale"},{"place_id":"44,47043046844200","geometry":{"type":"Point","coordinates":[11.408123516,44.470430468]},"display_name":"Archivio storico comunale Carlo Berti Pichat di San Lazzaro di Savena,from:IBC","category":"attractions","type":"HolderOfArchives","importance":0.0,"icon":"","visiting_time":0.0,"opening_hours":"ok","opening_days":"ok","rating":0,"photo_url":null,"description":null,"www":"http://www.comune.sanlazzaro.bo.it"},{"place_id":"44,48644844831010","geometry":{"type":"Point","coordinates":[11.359390033,44.486448448]},"display_name":"Antoniano dei frati minori di Bologna,from:IBC","category":"attractions","type":"HolderOfArchives","importance":0.0,"icon":"","visiting_time":0.0,"opening_hours":"ok","opening_days":"ok","rating":0,"photo_url":null,"description":null,"www":"http://www.antoniano.it"},{"place_id":"44,52170135382510","geometry":{"type":"Point","coordinates":[11.34593673,44.521701354]},"display_name":"Istituto di Istruzione Superiore Aldini-Valeriani-Sirani di Bologna,from:IBC","category":"attractions","type":"HolderOfArchives","importance":0.0,"icon":"","visiting_time":0.0,"opening_hours":"ok","opening_days":"ok","rating":0,"photo_url":null,"description":null,"www":"http://www.iav.it/home/home.htm"},{"place_id":"44,52170135382510","geometry":{"type":"Point","coordinates":[11.34593673,44.521701354]},"display_name":"Istituto di Istruzione Superiore Aldini-Valeriani-Sirani di Bologna,from:IBC","category":"attractions","type":"HolderOfArchives","importance":0.0,"icon":"","visiting_time":0.0,"opening_hours":"ok","opening_days":"ok","rating":0,"photo_url":null,"description":null,"www":"http://www.iav.it/flex/cm/pages/ServeBLOB.php/L/IT/IDPagina/114"},{"place_id":"44,49830622387170","geometry":{"type":"Point","coordinates":[11.343955307,44.498306224]},"display_name":"Società Artigiana di Bologna,from:IBC","category":"attractions","type":"HolderOfArchives","importance":0.0,"icon":"","visiting_time":0.0,"opening_hours":"ok","opening_days":"ok","rating":0,"photo_url":null,"description":null,"www":"http://www.societartigiana.it"},{"place_id":"44,49754905164960","geometry":{"type":"Point","coordinates":[11.347350034,44.497549052]},"display_name":"Centro italiano di documentazione sulla cooperazione e l'economia sociale,from:IBC","category":"attractions","type":"HolderOfArchives","importance":0.0,"icon":"","visiting_time":0.0,"opening_hours":"ok","opening_days":"ok","rating":0,"photo_url":null,"description":null,"www":"http://www.cooperazione.net"},{"place_id":"44,49209236366220","geometry":{"type":"Point","coordinates":[11.343428113,44.492092364]},"display_name":"Biblioteca comunale dell'Archiginnasio,from:IBC","category":"attractions","type":"Library","importance":0.0,"icon":"","visiting_time":0.0,"opening_hours":"ok","opening_days":"ok","rating":0,"photo_url":null,"description":null,"www":"http://www.archiginnasio.it/form_richiesta_bibl.html"},{"place_id":"44,49209236366220","geometry":{"type":"Point","coordinates":[11.343428113,44.492092364]},"display_name":"Biblioteca comunale dell'Archiginnasio,from:IBC","category":"attractions","type":"Library","importance":0.0,"icon":"","visiting_time":0.0,"opening_hours":"ok","opening_days":"ok","rating":0,"photo_url":null,"description":null,"www":"http://prestito.iccu.sbn.it/ILLWeb/servlets/ILL"},{"place_id":"44,49209236366220","geometry":{"type":"Point","coordinates":[11.343428113,44.492092364]},"display_name":"Biblioteca comunale dell'Archiginnasio,from:IBC","category":"attractions","type":"Library","importance":0.0,"icon":"","visiting_time":0.0,"opening_hours":"ok","opening_days":"ok","rating":0,"photo_url":null,"description":null,"www":"http://www.archiginnasio.it"},{"place_id":"44,49463908914300","geometry":{"type":"Point","coordinates":[11.342392036,44.494639089]},"display_name":"Biblioteca Salaborsa,from:IBC","category":"attractions","type":"Library","importance":0.0,"icon":"","visiting_time":0.0,"opening_hours":"ok","opening_days":"ok","rating":0,"photo_url":null,"description":null,"www":"http://www.bibliotecasalaborsa.it/home.php"},{"place_id":"44,49679215319750","geometry":{"type":"Point","coordinates":[11.383290253,44.496792153]},"display_name":"Biblioteca Scandellara,from:IBC","category":"attractions","type":"Library","importance":0.0,"icon":"","visiting_time":0.0,"opening_hours":"ok","opening_days":"ok","rating":0,"photo_url":null,"description":null,"www":"http://www.bibliotechebologna.it//luoghi/62013/id/55862"},{"place_id":"44,48714794874540","geometry":{"type":"Point","coordinates":[11.315054971,44.487147949]},"display_name":"Biblioteca Oriano Tassinari Clò,from:IBC","category":"attractions","type":"Library","importance":0.0,"icon":"","visiting_time":0.0,"opening_hours":"ok","opening_days":"ok","rating":0,"photo_url":null,"description":null,"www":"http://www.bibliotechebologna.it//luoghi/62013/id/51658"},{"place_id":"44,48824020373830","geometry":{"type":"Point","coordinates":[11.355568809,44.488240204]},"display_name":"Biblioteca Italiana delle Donne - Centro delle Donne Città di Bologna,from:IBC","category":"attractions","type":"Library","importance":0.0,"icon":"","visiting_time":0.0,"opening_hours":"ok","opening_days":"ok","rating":0,"photo_url":null,"description":null,"www":"http://www.women.it/bibliotecadelledonne/"},{"place_id":"44,50267906915080","geometry":{"type":"Point","coordinates":[11.336797034,44.502679069]},"display_name":"Biblioteca-Emeroteca MAMbo - Museo d'Arte Moderna di Bologna,from:IBC","category":"attractions","type":"Library","importance":0.0,"icon":"","visiting_time":0.0,"opening_hours":"ok","opening_days":"ok","rating":0,"photo_url":null,"description":null,"www":"http://www.mambo-bologna.org/biblioteca"},{"place_id":"44,44019782575790","geometry":{"type":"Point","coordinates":[11.357904049,44.440197826]},"display_name":"Biblioteca Don Lorenzo Milani di Rastignano,from:IBC","category":"attractions","type":"Library","importance":0.0,"icon":"","visiting_time":0.0,"opening_hours":"ok","opening_days":"ok","rating":0,"photo_url":null,"description":null,"www":"http://www.comune.pianoro.bo.it/servizi/cultura/BibliotecheCulturali"},{"place_id":"44,49287832139780","geometry":{"type":"Point","coordinates":[11.350208199,44.492878321]},"display_name":"Museo internazionale e biblioteca della musica,from:IBC","category":"attractions","type":"Library","importance":0.0,"icon":"","visiting_time":0.0,"opening_hours":"ok","opening_days":"ok","rating":0,"photo_url":null,"description":null,"www":"http://www.museomusicabologna.it"},{"place_id":"44,49754905164960","geometry":{"type":"Point","coordinates":[11.347350034,44.497549052]},"display_name":"Biblioteca-Archivio del Centro italiano di documentazione sulla cooperazione e l'economia sociale,from:IBC","category":"attractions","type":"Library","importance":0.0,"icon":"","visiting_time":0.0,"opening_hours":"ok","opening_days":"ok","rating":0,"photo_url":null,"description":null,"www":"http://www.cooperazione.net/"},{"place_id":"44,52201915608110","geometry":{"type":"Point","coordinates":[11.334336315,44.522019156]},"display_name":"Biblioteca del Museo del Patrimonio Industriale,from:IBC","category":"attractions","type":"Library","importance":0.0,"icon":"","visiting_time":0.0,"opening_hours":"ok","opening_days":"ok","rating":0,"photo_url":null,"description":null,"www":"http://www.comune.bologna.it/patrimonioindustriale/sito/it/documentazioni/biblioteca.htm"},{"place_id":"44,50445850493360","geometry":{"type":"Point","coordinates":[11.315658272,44.504458505]},"display_name":"Biblioteca Gino Laschi dell'Ospedale Maggiore,from:IBC","category":"attractions","type":"Library","importance":0.0,"icon":"","visiting_time":0.0,"opening_hours":"ok","opening_days":"ok","rating":0,"photo_url":null,"description":null,"www":"http://www.ausl.bologna.it/professionisti/biblioteca-medico-sicentifica-on-line"},{"place_id":"44,49531248485740","geometry":{"type":"Point","coordinates":[11.348363434,44.495312485]},"display_name":"Biblioteca giuridica della Provincia di Bologna,from:IBC","category":"attractions","type":"Library","importance":0.0,"icon":"","visiting_time":0.0,"opening_hours":"ok","opening_days":"ok","rating":0,"photo_url":null,"description":null,"www":"http://dati.emilia-romagna.it/id/ibc/condition/IT-BO0281_orari"},{"place_id":"44,50853466874250","geometry":{"type":"Point","coordinates":[11.363438089,44.508534669]},"display_name":"Biblioteca giuridica della Giunta regionale dell'Emilia-Romagna,from:IBC","category":"attractions","type":"Library","importance":0.0,"icon":"","visiting_time":0.0,"opening_hours":"ok","opening_days":"ok","rating":0,"photo_url":null,"description":null,"www":"http://dati.emilia-romagna.it/id/ibc/condition/IT-BO0575_orari"},{"place_id":"44,49026749899070","geometry":{"type":"Point","coordinates":[11.363851605,44.490267499]},"display_name":"Biblioteca Centralizzata,from:IBC","category":"attractions","type":"Library","importance":0.0,"icon":"","visiting_time":0.0,"opening_hours":"ok","opening_days":"ok","rating":0,"photo_url":null,"description":null,"www":"http://www.aosp.bo.it//biblio/homepage.htm"},{"place_id":"44,49645949430750","geometry":{"type":"Point","coordinates":[11.342156643,44.496459494]},"display_name":"Biblioteca dei Musei Civici di Arte Antica,from:IBC","category":"attractions","type":"Library","importance":0.0,"icon":"","visiting_time":0.0,"opening_hours":"ok","opening_days":"ok","rating":0,"photo_url":null,"description":null,"www":"http://informa.comune.bologna.it/iperbole/cultura/luoghi/38938/ricerca/biblioteca%252Bmusei%252Bcivici%252Bd%252527arte%252Bantica/tipo/2845/offset/0/id/36077"},{"place_id":"44,50286851013170","geometry":{"type":"Point","coordinates":[11.335162799,44.50286851]},"display_name":"Centro di Documentazione Arcigay “Il Cassero”,from:IBC","category":"attractions","type":"Library","importance":0.0,"icon":"","visiting_time":0.0,"opening_hours":"ok","opening_days":"ok","rating":0,"photo_url":null,"description":null,"www":"http://www.cassero.it/documentazione"},{"place_id":"44,50244210564210","geometry":{"type":"Point","coordinates":[11.328276408,44.502442106]},"display_name":"Biblioteca Jorge Luis Borges nel quartiere Porto,from:IBC","category":"attractions","type":"Library","importance":0.0,"icon":"","visiting_time":0.0,"opening_hours":"ok","opening_days":"ok","rating":0,"photo_url":null,"description":null,"www":"http://www.bibliotechebologna.it//luoghi/62013/id/51656"},{"place_id":"44,48937639195950","geometry":{"type":"Point","coordinates":[11.325813494,44.489376392]},"display_name":"Biblioteca provinciale dei Frati minori Cappuccini,from:IBC","category":"attractions","type":"Library","importance":0.0,"icon":"","visiting_time":0.0,"opening_hours":"ok","opening_days":"ok","rating":0,"photo_url":null,"description":null,"www":"http://www.anagrafebbcc.chiesacattolica.it/anagraficaCEIBib"},{"place_id":"44,48937639195950","geometry":{"type":"Point","coordinates":[11.325813494,44.489376392]},"display_name":"Biblioteca provinciale dei Frati minori Cappuccini,from:IBC","category":"attractions","type":"Library","importance":0.0,"icon":"","visiting_time":0.0,"opening_hours":"ok","opening_days":"ok","rating":0,"photo_url":null,"description":null,"www":"http://www.museocappuccini.it/bologna/home-biblioteca-bologna.html"},{"place_id":"44,49302193107780","geometry":{"type":"Point","coordinates":[11.344252695,44.493021931]},"display_name":"Biblioteca del Museo Civico del Risorgimento,from:IBC","category":"attractions","type":"Library","importance":0.0,"icon":"","visiting_time":0.0,"opening_hours":"ok","opening_days":"ok","rating":0,"photo_url":null,"description":null,"www":"http://www.comune.bologna.it/museorisorgimento"},{"place_id":"44,54607108566700","geometry":{"type":"Point","coordinates":[11.359799652,44.546071086]},"display_name":"Biblioteca Corticella nel quartiere Navile,from:IBC","category":"attractions","type":"Library","importance":0.0,"icon":"","visiting_time":0.0,"opening_hours":"ok","opening_days":"ok","rating":0,"photo_url":null,"description":null,"www":"http://www.bibliotechebologna.it//luoghi/62013/id/51651"},{"place_id":"44,48631272145750","geometry":{"type":"Point","coordinates":[11.348157194,44.486312721]},"display_name":"Biblioteca dell’Istituto dei ciechi “Francesco Cavazza”,from:IBC","category":"attractions","type":"Library","importance":0.0,"icon":"","visiting_time":0.0,"opening_hours":"ok","opening_days":"ok","rating":0,"photo_url":null,"description":null,"www":"http://www.cavazza.it"},{"place_id":"44,52005544729870","geometry":{"type":"Point","coordinates":[11.347613953,44.520055447]},"display_name":"Biblioteca Casa di Khaoula,from:IBC","category":"attractions","type":"Library","importance":0.0,"icon":"","visiting_time":0.0,"opening_hours":"ok","opening_days":"ok","rating":0,"photo_url":null,"description":null,"www":"http://www.bibliotechebologna.it//luoghi/52056/id/51650"},{"place_id":"44,49680494981250","geometry":{"type":"Point","coordinates":[11.347126997,44.49680495]},"display_name":"Biblioteca Giuseppe Guglielmi dell'Istituto per i Beni Artistici, Culturali e Naturali della Regione Emilia-Romagna,from:IBC","category":"attractions","type":"Library","importance":0.0,"icon":"","visiting_time":0.0,"opening_hours":"ok","opening_days":"ok","rating":0,"photo_url":null,"description":null,"www":"http://ibc.regione.emilia-romagna.it/istituto/chi-siamo/biblioteca-guglielmi"},{"place_id":"44,49658079653200","geometry":{"type":"Point","coordinates":[11.334977613,44.496580797]},"display_name":"Biblioteca dell'Ufficio Istituti Culturali della Provincia di Bologna,from:IBC","category":"attractions","type":"Library","importance":0.0,"icon":"","visiting_time":0.0,"opening_hours":"ok","opening_days":"ok","rating":0,"photo_url":null,"description":null,"www":"http://dati.emilia-romagna.it/id/ibc/condition/IT-BO0609_orari"},{"place_id":"44,52295986379560","geometry":{"type":"Point","coordinates":[11.265433393,44.522959864]},"display_name":"Biblioteca Borgo Panigale,from:IBC","category":"attractions","type":"Library","importance":0.0,"icon":"","visiting_time":0.0,"opening_hours":"ok","opening_days":"ok","rating":0,"photo_url":null,"description":null,"www":"http://www.comune.bologna.it/quartiereborgopanigale/uffici/biblioteche.php"},{"place_id":"44,47247433733920","geometry":{"type":"Point","coordinates":[11.412708462,44.472474337]},"display_name":"Mediateca,from:IBC","category":"attractions","type":"Library","importance":0.0,"icon":"","visiting_time":0.0,"opening_hours":"ok","opening_days":"ok","rating":0,"photo_url":null,"description":null,"www":"http://www.mediatecadisanlazzaro.it/"},{"place_id":"44,49463908914300","geometry":{"type":"Point","coordinates":[11.342392036,44.494639089]},"display_name":"Biblioteca Sala Borsa Ragazzi,from:IBC","category":"attractions","type":"Library","importance":0.0,"icon":"","visiting_time":0.0,"opening_hours":"ok","opening_days":"ok","rating":0,"photo_url":null,"description":null,"www":"http://www.bibliotecasalaborsa.it/ragazzi"},{"place_id":"44,49415225773140","geometry":{"type":"Point","coordinates":[11.355661072,44.494152258]},"display_name":"Biblioteca Giuseppe Dossetti,from:IBC","category":"attractions","type":"Library","importance":0.0,"icon":"","visiting_time":0.0,"opening_hours":"ok","opening_days":"ok","rating":0,"photo_url":null,"description":null,"www":"http://biblioteca.fscire.it/"},{"place_id":"44,50204756997870","geometry":{"type":"Point","coordinates":[11.296900435,44.50204757]},"display_name":"Biblioteca Orlando Pezzoli nel quartiere Reno,from:IBC","category":"attractions","type":"Library","importance":0.0,"icon":"","visiting_time":0.0,"opening_hours":"ok","opening_days":"ok","rating":0,"photo_url":null,"description":null,"www":"http://dati.emilia-romagna.it/id/ibc/condition/IT-BO0537_orari"},{"place_id":"44,49237771711080","geometry":{"type":"Point","coordinates":[11.333867528,44.492377717]},"display_name":"Biblioteca del Centro RiESco (Centro Documentazione e Intercultura),from:IBC","category":"attractions","type":"Library","importance":0.0,"icon":"","visiting_time":0.0,"opening_hours":"ok","opening_days":"ok","rating":0,"photo_url":null,"description":null,"www":"http://www.comune.bologna.it/cdlei"},{"place_id":"44,47231689074110","geometry":{"type":"Point","coordinates":[11.272256621,44.472316891]},"display_name":"Biblioteca comunale Cesare Pavese,from:IBC","category":"attractions","type":"Library","importance":0.0,"icon":"","visiting_time":0.0,"opening_hours":"ok","opening_days":"ok","rating":0,"photo_url":null,"description":null,"www":"http://www.comune.casalecchio.bo.it/servizi/Menu/dinamica.aspx?idArea=13908&idCat=13914&ID=13920&TipoElemento=Categoria"},{"place_id":"44,49203547747340","geometry":{"type":"Point","coordinates":[11.351092681,44.492035477]},"display_name":"Biblioteca del Mulino,from:IBC","category":"attractions","type":"Library","importance":0.0,"icon":"","visiting_time":0.0,"opening_hours":"ok","opening_days":"ok","rating":0,"photo_url":null,"description":null,"www":"http://www.mulino.it/biblioteca/emero.htm"},{"place_id":"44,47408851709620","geometry":{"type":"Point","coordinates":[11.391819838,44.474088517]},"display_name":"Biblioteca Natalia Ginzburg nel quartiere Savena,from:IBC","category":"attractions","type":"Library","importance":0.0,"icon":"","visiting_time":0.0,"opening_hours":"ok","opening_days":"ok","rating":0,"photo_url":null,"description":null,"www":"http://informa.comune.bologna.it/iperbole/istituzionebiblioteche/luoghi/62013/id/51653/"},{"place_id":"44,48817406189680","geometry":{"type":"Point","coordinates":[11.357218395,44.488174062]},"display_name":"Biblioteca di Casa Carducci,from:IBC","category":"attractions","type":"Library","importance":0.0,"icon":"","visiting_time":0.0,"opening_hours":"ok","opening_days":"ok","rating":0,"photo_url":null,"description":null,"www":"http://www.casacarducci.it"},{"place_id":"44,49302193107780","geometry":{"type":"Point","coordinates":[11.344252695,44.493021931]},"display_name":"Biblioteca del Museo Civico Archeologico,from:IBC","category":"attractions","type":"Library","importance":0.0,"icon":"","visiting_time":0.0,"opening_hours":"ok","opening_days":"ok","rating":0,"photo_url":null,"description":null,"www":"http://www.comune.bologna.it/museoarcheologico"},{"place_id":"44,51109847981490","geometry":{"type":"Point","coordinates":[11.394593334,44.51109848]},"display_name":"Biblioteca Luigi Spina nel quartiere San Donato,from:IBC","category":"attractions","type":"Library","importance":0.0,"icon":"","visiting_time":0.0,"opening_hours":"ok","opening_days":"ok","rating":0,"photo_url":null,"description":null,"www":"http://www.bibliotechebologna.it//luoghi/62013/id/51655"},{"place_id":"44,49365791607450","geometry":{"type":"Point","coordinates":[11.354334295,44.493657916]},"display_name":"Biblioteca Multimediale Roberto Ruffilli,from:IBC","category":"attractions","type":"Library","importance":0.0,"icon":"","visiting_time":0.0,"opening_hours":"ok","opening_days":"ok","rating":0,"photo_url":null,"description":null,"www":"http://www.bibliotechebologna.it//luoghi/62013/id/51657"},{"place_id":"44,51849179737840","geometry":{"type":"Point","coordinates":[11.329719088,44.518491797]},"display_name":"Biblioteca Lame nel quartiere Navile,from:IBC","category":"attractions","type":"Library","importance":0.0,"icon":"","visiting_time":0.0,"opening_hours":"ok","opening_days":"ok","rating":0,"photo_url":null,"description":null,"www":"http://informa.comune.bologna.it/iperbole/istituzionebiblioteche/luoghi/62013/id/51652"},{"place_id":"44,48418223948370","geometry":{"type":"Point","coordinates":[11.339261319,44.484182239]},"display_name":"Biblioteca Amilcar Cabral,from:IBC","category":"attractions","type":"Library","importance":0.0,"icon":"","visiting_time":0.0,"opening_hours":"ok","opening_days":"ok","rating":0,"photo_url":null,"description":null,"www":"http://www.centrocabral.com"},{"place_id":"44,50832037605510","geometry":{"type":"Point","coordinates":[11.365761114,44.508320376]},"display_name":"Biblioteca dell'Assemblea legislativa della Regione Emilia-Romagna,from:IBC","category":"attractions","type":"Library","importance":0.0,"icon":"","visiting_time":0.0,"opening_hours":"ok","opening_days":"ok","rating":0,"photo_url":null,"description":null,"www":"http://www.assemblea.emr.it/biblioteca"},{"place_id":"44,49754905164960","geometry":{"type":"Point","coordinates":[11.347350034,44.497549052]},"display_name":"Biblioteca della Fondazione Gramsci Emilia-Romagna,from:IBC","category":"attractions","type":"Library","importance":0.0,"icon":"","visiting_time":0.0,"opening_hours":"ok","opening_days":"ok","rating":0,"photo_url":null,"description":null,"www":"http://www.iger.org/biblioteca/"},{"place_id":"44,49421941569520","geometry":{"type":"Point","coordinates":[11.330497199,44.494219416]},"display_name":"Biblioteca della salute mentale e delle scienze umane. Servizio bibliotecario integrato Gian Franco Minguzzi - Carlo Gentili,from:IBC","category":"attractions","type":"Library","importance":0.0,"icon":"","visiting_time":0.0,"opening_hours":"ok","opening_days":"ok","rating":0,"photo_url":null,"description":null,"www":"http://www.minguzzi.provincia.bologna.it"},{"place_id":"44,48947812087960","geometry":{"type":"Point","coordinates":[11.312150235,44.489478121]},"display_name":"Biblioteca e Archivio storico di Casa Lyda Borelli,from:IBC","category":"attractions","type":"Library","importance":0.0,"icon":"","visiting_time":0.0,"opening_hours":"ok","opening_days":"ok","rating":0,"photo_url":null,"description":null,"www":"http://www.casalydaborelli.it/Biblioteca.html"},{"place_id":"44,51005753307580","geometry":{"type":"Point","coordinates":[11.35910221,44.510057533]},"display_name":"Biblioteca dell'Agenzia sanitaria e sociale regionale,from:IBC","category":"attractions","type":"Library","importance":0.0,"icon":"","visiting_time":0.0,"opening_hours":"ok","opening_days":"ok","rating":0,"photo_url":null,"description":null,"www":"http://assr.regione.emilia-romagna.it/it/servizi/biblioteca"},{"place_id":"44,48644844831010","geometry":{"type":"Point","coordinates":[11.359390033,44.486448448]},"display_name":"Biblioteca provinciale dei Frati Minori dell'Emilia,from:IBC","category":"attractions","type":"Library","importance":0.0,"icon":"","visiting_time":0.0,"opening_hours":"ok","opening_days":"ok","rating":0,"photo_url":null,"description":null,"www":"http://www.anagrafebbcc.chiesacattolica.it/anagraficaCEIBib/public/VisualizzaScheda.do"},{"place_id":"44,48644844831010","geometry":{"type":"Point","coordinates":[11.359390033,44.486448448]},"display_name":"Biblioteca provinciale dei Frati Minori dell'Emilia,from:IBC","category":"attractions","type":"Library","importance":0.0,"icon":"","visiting_time":0.0,"opening_hours":"ok","opening_days":"ok","rating":0,"photo_url":null,"description":null,"www":"http://www.fratiminorier.it/attivita.php?id=4&attiva=2#biblioteca"},{"place_id":"44,47216150955870","geometry":{"type":"Point","coordinates":[11.36480824,44.47216151]},"display_name":"Biblioteca Renzo Renzi Cinema e Fotografia,from:IBC","category":"attractions","type":"Library","importance":0.0,"icon":"","visiting_time":0.0,"opening_hours":"ok","opening_days":"ok","rating":0,"photo_url":null,"description":null,"www":"http://www.cinetecadibologna.it/biblioteca"},{"place_id":"44,50077521552100","geometry":{"type":"Point","coordinates":[11.320061503,44.500775216]},"display_name":"Museo della Comunicazione e del Multimediale G. Pelagalli. Mille voci...mille suoni,from:IBC","category":"attractions","type":"Museum","importance":0.0,"icon":"","visiting_time":0.0,"opening_hours":"ok","opening_days":"ok","rating":0,"photo_url":null,"description":null,"www":"http://www.museopelagalli.com"},{"place_id":"44,51194446137990","geometry":{"type":"Point","coordinates":[11.356884684,44.511944461]},"display_name":"CUBO - Centro Unipol Bologna,from:IBC","category":"attractions","type":"Museum","importance":0.0,"icon":"","visiting_time":0.0,"opening_hours":"ok","opening_days":"ok","rating":0,"photo_url":null,"description":null,"www":"http://www.cubounipol.it"},{"place_id":"44,52201915608110","geometry":{"type":"Point","coordinates":[11.334336315,44.522019156]},"display_name":"Museo del Patrimonio Industriale,from:IBC","category":"attractions","type":"Museum","importance":0.0,"icon":"","visiting_time":0.0,"opening_hours":"ok","opening_days":"ok","rating":0,"photo_url":null,"description":null,"www":"http://www.comune.bologna.it/patrimonioindustriale"},{"place_id":"44,49559730388570","geometry":{"type":"Point","coordinates":[11.348674235,44.495597304]},"display_name":"Collezione d'Arte Antica, Moderna e Contemporanea Unicredit,from:IBC","category":"attractions","type":"Museum","importance":0.0,"icon":"","visiting_time":0.0,"opening_hours":"ok","opening_days":"ok","rating":0,"photo_url":null,"description":null,"www":"http://dati.emilia-romagna.it/id/ibc/condition/IT-ER-BO098"},{"place_id":"44,49613723761350","geometry":{"type":"Point","coordinates":[11.354302652,44.496137238]},"display_name":"Museo di Antropologia,from:IBC","category":"attractions","type":"Museum","importance":0.0,"icon":"","visiting_time":0.0,"opening_hours":"ok","opening_days":"ok","rating":0,"photo_url":null,"description":null,"www":"http://www.sma.unibo.it/antropologia/index.html"},{"place_id":"44,49613723761350","geometry":{"type":"Point","coordinates":[11.354302652,44.496137238]},"display_name":"Museo di Zoologia,from:IBC","category":"attractions","type":"Museum","importance":0.0,"icon":"","visiting_time":0.0,"opening_hours":"ok","opening_days":"ok","rating":0,"photo_url":null,"description":null,"www":"http://www.sma.unibo.it/zoologia/index.html"},{"place_id":"44,49850272366060","geometry":{"type":"Point","coordinates":[11.356043455,44.498502724]},"display_name":"Museo storico di Fisiologia,from:IBC","category":"attractions","type":"Museum","importance":0.0,"icon":"","visiting_time":0.0,"opening_hours":"ok","opening_days":"ok","rating":0,"photo_url":null,"description":null,"www":"http://www.dibinem.unibo.it/it/biblioteca/musei"},{"place_id":"44,50267906915080","geometry":{"type":"Point","coordinates":[11.336797034,44.502679069]},"display_name":"Museo Morandi,from:IBC","category":"attractions","type":"Museum","importance":0.0,"icon":"","visiting_time":0.0,"opening_hours":"ok","opening_days":"ok","rating":0,"photo_url":null,"description":null,"www":"http://www.museomorandi.it"},{"place_id":"44,48937639195950","geometry":{"type":"Point","coordinates":[11.325813494,44.489376392]},"display_name":"Museo di San Giuseppe,from:IBC","category":"attractions","type":"Museum","importance":0.0,"icon":"","visiting_time":0.0,"opening_hours":"ok","opening_days":"ok","rating":0,"photo_url":null,"description":null,"www":"http://dati.emilia-romagna.it/id/ibc/condition/IT-ER-BO073"},{"place_id":"44,52990277956090","geometry":{"type":"Point","coordinates":[11.364537684,44.52990278]},"display_name":"Museo Memoriale della Libertà,from:IBC","category":"attractions","type":"Museum","importance":0.0,"icon":"","visiting_time":0.0,"opening_hours":"ok","opening_days":"ok","rating":0,"photo_url":null,"description":null,"www":"http://www.museomemoriale.com"},{"place_id":"44,49645949430750","geometry":{"type":"Point","coordinates":[11.342156643,44.496459494]},"display_name":"Musei Civici d'Arte Antica: Museo Civico Medievale,from:IBC","category":"attractions","type":"Museum","importance":0.0,"icon":"","visiting_time":0.0,"opening_hours":"ok","opening_days":"ok","rating":0,"photo_url":null,"description":null,"www":"http://www.comune.bologna.it/iperbole/MuseiCivici/"},{"place_id":"44,49333184076640","geometry":{"type":"Point","coordinates":[11.344421203,44.493331841]},"display_name":"Museo della Sanità e dell'Assistenza,from:IBC","category":"attractions","type":"Museum","importance":0.0,"icon":"","visiting_time":0.0,"opening_hours":"ok","opening_days":"ok","rating":0,"photo_url":null,"description":null,"www":"http://dati.emilia-romagna.it/id/ibc/condition/IT-ER-BO019"},{"place_id":"44,48631272145750","geometry":{"type":"Point","coordinates":[11.348157194,44.486312721]},"display_name":"Museo Tattile di Pittura Antica e Moderna Anteros,from:IBC","category":"attractions","type":"Museum","importance":0.0,"icon":"","visiting_time":0.0,"opening_hours":"ok","opening_days":"ok","rating":0,"photo_url":null,"description":null,"www":"http://www.cavazza.it/?q=node/315"},{"place_id":"44,50529031543290","geometry":{"type":"Point","coordinates":[11.296100259,44.505290315]},"display_name":"MAST - Manifattura di Arti, Sperimentazione e Tecnologia,from:IBC","category":"attractions","type":"Museum","importance":0.0,"icon":"","visiting_time":0.0,"opening_hours":"ok","opening_days":"ok","rating":0,"photo_url":null,"description":null,"www":"http://dati.emilia-romagna.it/id/ibc/condition/IT-ER-BO148"},{"place_id":"44,49588391148300","geometry":{"type":"Point","coordinates":[11.348199395,44.495883911]},"display_name":"Museo Ebraico,from:IBC","category":"attractions","type":"Museum","importance":0.0,"icon":"","visiting_time":0.0,"opening_hours":"ok","opening_days":"ok","rating":0,"photo_url":null,"description":null,"www":"http://www.museoebraicobo.it/"},{"place_id":"44,49866458440060","geometry":{"type":"Point","coordinates":[11.337546403,44.498664584]},"display_name":"Galleria d'Arte Moderna Raccolta Lercaro,from:IBC","category":"attractions","type":"Museum","importance":0.0,"icon":"","visiting_time":0.0,"opening_hours":"ok","opening_days":"ok","rating":0,"photo_url":null,"description":null,"www":"http://www.fondazionelercaro.it"},{"place_id":"44,49393809344810","geometry":{"type":"Point","coordinates":[11.342395042,44.493938093]},"display_name":"Musei Civici d'Arte Antica: Collezioni Comunali d'Arte,from:IBC","category":"attractions","type":"Museum","importance":0.0,"icon":"","visiting_time":0.0,"opening_hours":"ok","opening_days":"ok","rating":0,"photo_url":null,"description":null,"www":"http://www.comune.bologna.it/iperbole/MuseiCivici"},{"place_id":"44,46966191435470","geometry":{"type":"Point","coordinates":[11.369982701,44.469661914]},"display_name":"Museo Nazionale del Soldatino M. Massaccesi,from:IBC","category":"attractions","type":"Museum","importance":0.0,"icon":"","visiting_time":0.0,"opening_hours":"ok","opening_days":"ok","rating":0,"photo_url":null,"description":null,"www":"http://dati.emilia-romagna.it/id/ibc/condition/IT-ER-BO041"},{"place_id":"44,49688408304220","geometry":{"type":"Point","coordinates":[11.352406224,44.496884083]},"display_name":"Museo di Palazzo Poggi,from:IBC","category":"attractions","type":"Museum","importance":0.0,"icon":"","visiting_time":0.0,"opening_hours":"ok","opening_days":"ok","rating":0,"photo_url":null,"description":null,"www":"http://dati.emilia-romagna.it/id/ibc/condition/IT-ER-BO057"},{"place_id":"44,50267906915080","geometry":{"type":"Point","coordinates":[11.336797034,44.502679069]},"display_name":"MAMbo - Museo d'Arte Moderna di Bologna,from:IBC","category":"attractions","type":"Museum","importance":0.0,"icon":"","visiting_time":0.0,"opening_hours":"ok","opening_days":"ok","rating":0,"photo_url":null,"description":null,"www":"http://dati.emilia-romagna.it/id/ibc/condition/IT-ER-BO128"},{"place_id":"44,51629586641460","geometry":{"type":"Point","coordinates":[11.268601914,44.516295866]},"display_name":"Museo Ducati,from:IBC","category":"attractions","type":"Museum","importance":0.0,"icon":"","visiting_time":0.0,"opening_hours":"ok","opening_days":"ok","rating":0,"photo_url":null,"description":null,"www":"http://www.ducati.com"},{"place_id":"44,46985222831540","geometry":{"type":"Point","coordinates":[11.400327972,44.469852228]},"display_name":"Museo della Preistoria Luigi Donini,from:IBC","category":"attractions","type":"Museum","importance":0.0,"icon":"","visiting_time":0.0,"opening_hours":"ok","opening_days":"ok","rating":0,"photo_url":null,"description":null,"www":"http://dati.emilia-romagna.it/id/ibc/condition/IT-ER-BO029"},{"place_id":"44,49902747295440","geometry":{"type":"Point","coordinates":[11.354931672,44.499027473]},"display_name":"Museo delle Cere Anatomiche L. Cattaneo,from:IBC","category":"attractions","type":"Museum","importance":0.0,"icon":"","visiting_time":0.0,"opening_hours":"ok","opening_days":"ok","rating":0,"photo_url":null,"description":null,"www":"http://www.museocereanatomiche.it"},{"place_id":"44,49613723761350","geometry":{"type":"Point","coordinates":[11.354302652,44.496137238]},"display_name":"Museo di Anatomia Comparata E. Giacomini,from:IBC","category":"attractions","type":"Museum","importance":0.0,"icon":"","visiting_time":0.0,"opening_hours":"ok","opening_days":"ok","rating":0,"photo_url":null,"description":null,"www":"http://www.sma.unibo.it/anatomiacomparata/index.html"},{"place_id":"44,48089606188850","geometry":{"type":"Point","coordinates":[11.342059954,44.480896062]},"display_name":"Donazione Putti - Istituto Ortopedico Rizzoli,from:IBC","category":"attractions","type":"Museum","importance":0.0,"icon":"","visiting_time":0.0,"opening_hours":"ok","opening_days":"ok","rating":0,"photo_url":null,"description":null,"www":"http://www.ior.it/Sito/frmRicerca_BibliotecaPutti.aspx?IDItem=75&IDCont=72"},{"place_id":"44,50740754576790","geometry":{"type":"Point","coordinates":[11.350739632,44.507407546]},"display_name":"Collezione Storica ATC Bologna,from:IBC","category":"attractions","type":"Museum","importance":0.0,"icon":"","visiting_time":0.0,"opening_hours":"ok","opening_days":"ok","rating":0,"photo_url":null,"description":null,"www":"http://www.atc.bo.it/azienda/collezione_storica_intro.asp"},{"place_id":"44,47630776018290","geometry":{"type":"Point","coordinates":[11.340998855,44.47630776]},"display_name":"Museo dell'Assistenza Infermieristica,from:IBC","category":"attractions","type":"Museum","importance":0.0,"icon":"","visiting_time":0.0,"opening_hours":"ok","opening_days":"ok","rating":0,"photo_url":null,"description":null,"www":"http://www.ior.it/Sito/frmRizzoli_MuseoInfermiere.aspx?IDItem=11&IDCont=26"},{"place_id":"44,50229344449530","geometry":{"type":"Point","coordinates":[11.333264611,44.502293444]},"display_name":"Museo Speleologico L. Fantini,from:IBC","category":"attractions","type":"Museum","importance":0.0,"icon":"","visiting_time":0.0,"opening_hours":"ok","opening_days":"ok","rating":0,"photo_url":null,"description":null,"www":"http://www.gsb-usb.it/"},{"place_id":"44,49227975951250","geometry":{"type":"Point","coordinates":[11.346416476,44.49227976]},"display_name":"Museo della Storia di Bologna,from:IBC","category":"attractions","type":"Museum","importance":0.0,"icon":"","visiting_time":0.0,"opening_hours":"ok","opening_days":"ok","rating":0,"photo_url":null,"description":null,"www":"http://dati.emilia-romagna.it/id/ibc/condition/IT-ER-BO143"},{"place_id":"44,49040028195980","geometry":{"type":"Point","coordinates":[11.336598366,44.490400282]},"display_name":"Museo degli strumenti scientifici Crescenzi - Pacinotti,from:IBC","category":"attractions","type":"Museum","importance":0.0,"icon":"","visiting_time":0.0,"opening_hours":"ok","opening_days":"ok","rating":0,"photo_url":null,"description":null,"www":"http://www.museocrescenzipacinotti.it/"},{"place_id":"44,48817406189680","geometry":{"type":"Point","coordinates":[11.357218395,44.488174062]},"display_name":"Casa Carducci,from:IBC","category":"attractions","type":"Museum","importance":0.0,"icon":"","visiting_time":0.0,"opening_hours":"ok","opening_days":"ok","rating":0,"photo_url":null,"description":null,"www":"http://www.casacarducci.it"},{"place_id":"44,49973964430920","geometry":{"type":"Point","coordinates":[11.353056103,44.499739644]},"display_name":"Erbario e Museo Botanico,from:IBC","category":"attractions","type":"Museum","importance":0.0,"icon":"","visiting_time":0.0,"opening_hours":"ok","opening_days":"ok","rating":0,"photo_url":null,"description":null,"www":"http://www.sma.unibo.it/erbario/"},{"place_id":"44,49820845950620","geometry":{"type":"Point","coordinates":[11.355436395,44.49820846]},"display_name":"Museo di Mineralogia L. Bombicci,from:IBC","category":"attractions","type":"Museum","importance":0.0,"icon":"","visiting_time":0.0,"opening_hours":"ok","opening_days":"ok","rating":0,"photo_url":null,"description":null,"www":"http://www.sma.unibo.it/mineralogia/"},{"place_id":"44,49287832139780","geometry":{"type":"Point","coordinates":[11.350208199,44.492878321]},"display_name":"Museo Internazionale e Biblioteca della Musica,from:IBC","category":"attractions","type":"Museum","importance":0.0,"icon":"","visiting_time":0.0,"opening_hours":"ok","opening_days":"ok","rating":0,"photo_url":null,"description":null,"www":"http://www.museomusicabologna.it"},{"place_id":"44,49583569651870","geometry":{"type":"Point","coordinates":[11.343750574,44.495835697]},"display_name":"Museo di San Pietro: Tesoro della Cattedrale,from:IBC","category":"attractions","type":"Museum","importance":0.0,"icon":"","visiting_time":0.0,"opening_hours":"ok","opening_days":"ok","rating":0,"photo_url":null,"description":null,"www":"http://www.bologna.chiesacattolica.it/cattedrale"},{"place_id":"44,48949205728190","geometry":{"type":"Point","coordinates":[11.343943635,44.489492057]},"display_name":"Museo della Basilica di San Domenico,from:IBC","category":"attractions","type":"Museum","importance":0.0,"icon":"","visiting_time":0.0,"opening_hours":"ok","opening_days":"ok","rating":0,"photo_url":null,"description":null,"www":"http://dati.emilia-romagna.it/id/ibc/condition/IT-ER-BO074"},{"place_id":"44,43146023607770","geometry":{"type":"Point","coordinates":[11.26760868,44.431460236]},"display_name":"Museo Marconi,from:IBC","category":"attractions","type":"Museum","importance":0.0,"icon":"","visiting_time":0.0,"opening_hours":"ok","opening_days":"ok","rating":0,"photo_url":null,"description":null,"www":"http://www.fgm.it"},{"place_id":"44,49785472560260","geometry":{"type":"Point","coordinates":[11.35525913,44.497854726]},"display_name":"Museo Geologico G. Capellini,from:IBC","category":"attractions","type":"Museum","importance":0.0,"icon":"","visiting_time":0.0,"opening_hours":"ok","opening_days":"ok","rating":0,"photo_url":null,"description":null,"www":"http://www.museocapellini.it"},{"place_id":"44,48924766050300","geometry":{"type":"Point","coordinates":[11.347458233,44.489247661]},"display_name":"Museo della Strumentazione Storica del Liceo Galvani,from:IBC","category":"attractions","type":"Museum","importance":0.0,"icon":"","visiting_time":0.0,"opening_hours":"ok","opening_days":"ok","rating":0,"photo_url":null,"description":null,"www":"http://dati.emilia-romagna.it/id/ibc/condition/IT-ER-BO014"},{"place_id":"44,49084769091460","geometry":{"type":"Point","coordinates":[11.348421267,44.490847691]},"display_name":"Museo di San Giovanni in Monte,from:IBC","category":"attractions","type":"Museum","importance":0.0,"icon":"","visiting_time":0.0,"opening_hours":"ok","opening_days":"ok","rating":0,"photo_url":null,"description":null,"www":"http://dati.emilia-romagna.it/id/ibc/condition/IT-ER-BO081"},{"place_id":"44,49746455175930","geometry":{"type":"Point","coordinates":[11.344300295,44.497464552]},"display_name":"Quadreria dei Poveri Vergognosi,from:IBC","category":"attractions","type":"Museum","importance":0.0,"icon":"","visiting_time":0.0,"opening_hours":"ok","opening_days":"ok","rating":0,"photo_url":null,"description":null,"www":"http://www.poverivergognosi.it/quadreria.php"},{"place_id":"44,49927860748350","geometry":{"type":"Point","coordinates":[11.353851493,44.499278607]},"display_name":"Museo di Fisica,from:IBC","category":"attractions","type":"Museum","importance":0.0,"icon":"","visiting_time":0.0,"opening_hours":"ok","opening_days":"ok","rating":0,"photo_url":null,"description":null,"www":"http://www.fisica-astronomia.unibo.it/it/biblioteche-e-musei/museo-di-fisica/index.html"},{"place_id":"44,48095783071960","geometry":{"type":"Point","coordinates":[11.325857375,44.480957831]},"display_name":"Museo Missionario d'Arte Cinese e Museo dell'Osservanza,from:IBC","category":"attractions","type":"Museum","importance":0.0,"icon":"","visiting_time":0.0,"opening_hours":"ok","opening_days":"ok","rating":0,"photo_url":null,"description":null,"www":"http://dati.emilia-romagna.it/id/ibc/condition/IT-ER-BO089"},{"place_id":"44,49973964430920","geometry":{"type":"Point","coordinates":[11.353056103,44.499739644]},"display_name":"Orto Botanico,from:IBC","category":"attractions","type":"Museum","importance":0.0,"icon":"","visiting_time":0.0,"opening_hours":"ok","opening_days":"ok","rating":0,"photo_url":null,"description":null,"www":"http://www.sma.unibo.it/ortobotanico/index.html"},{"place_id":"44,48996737294230","geometry":{"type":"Point","coordinates":[11.339947255,44.489967373]},"display_name":"Museo della Santa,from:IBC","category":"attractions","type":"Museum","importance":0.0,"icon":"","visiting_time":0.0,"opening_hours":"ok","opening_days":"ok","rating":0,"photo_url":null,"description":null,"www":"http://dati.emilia-romagna.it/id/ibc/condition/IT-ER-BO008"},{"place_id":"44,52397421571900","geometry":{"type":"Point","coordinates":[11.351589192,44.523974216]},"display_name":"Museo Apistico,from:IBC","category":"attractions","type":"Museum","importance":0.0,"icon":"","visiting_time":0.0,"opening_hours":"ok","opening_days":"ok","rating":0,"photo_url":null,"description":null,"www":"http://dati.emilia-romagna.it/id/ibc/condition/IT-ER-BO058"},{"place_id":"44,49289103572790","geometry":{"type":"Point","coordinates":[11.343643749,44.492891036]},"display_name":"Museo Civico Archeologico,from:IBC","category":"attractions","type":"Museum","importance":0.0,"icon":"","visiting_time":0.0,"opening_hours":"ok","opening_days":"ok","rating":0,"photo_url":null,"description":null,"www":"http://www.comune.bologna.it/museoarcheologico"},{"place_id":"44,49115251393030","geometry":{"type":"Point","coordinates":[11.351097549,44.491152514]},"display_name":"Museo dell'Accademia Filarmonica,from:IBC","category":"attractions","type":"Museum","importance":0.0,"icon":"","visiting_time":0.0,"opening_hours":"ok","opening_days":"ok","rating":0,"photo_url":null,"description":null,"www":"http://www.accademiafilarmonica.it"},{"place_id":"44,48788254707210","geometry":{"type":"Point","coordinates":[11.315316482,44.487882547]},"display_name":"Museo della Tappezzeria Vittorio Zironi,from:IBC","category":"attractions","type":"Museum","importance":0.0,"icon":"","visiting_time":0.0,"opening_hours":"ok","opening_days":"ok","rating":0,"photo_url":null,"description":null,"www":"http://www.museotappezzeria.it"},{"place_id":"44,49622679509680","geometry":{"type":"Point","coordinates":[11.353969288,44.496226795]},"display_name":"Raccolta museale G. Ciamician,from:IBC","category":"attractions","type":"Museum","importance":0.0,"icon":"","visiting_time":0.0,"opening_hours":"ok","opening_days":"ok","rating":0,"photo_url":null,"description":null,"www":"http://www.chimica.unibo.it/it/servizi-e-strutture/museo"},{"place_id":"44,49362696596210","geometry":{"type":"Point","coordinates":[11.333733869,44.493626966]},"display_name":"Museo della Resistenza di Bologna,from:IBC","category":"attractions","type":"Museum","importance":0.0,"icon":"","visiting_time":0.0,"opening_hours":"ok","opening_days":"ok","rating":0,"photo_url":null,"description":null,"www":"http://dati.emilia-romagna.it/id/ibc/condition/IT-ER-BO123"},{"place_id":"44,49688408304220","geometry":{"type":"Point","coordinates":[11.352406224,44.496884083]},"display_name":"Museo Europeo degli Studenti,from:IBC","category":"attractions","type":"Museum","importance":0.0,"icon":"","visiting_time":0.0,"opening_hours":"ok","opening_days":"ok","rating":0,"photo_url":null,"description":null,"www":"http://dati.emilia-romagna.it/id/ibc/condition/IT-ER-BO102"},{"place_id":"44,49175001635250","geometry":{"type":"Point","coordinates":[11.348718213,44.491750016]},"display_name":"Museo di Santo Stefano,from:IBC","category":"attractions","type":"Museum","importance":0.0,"icon":"","visiting_time":0.0,"opening_hours":"ok","opening_days":"ok","rating":0,"photo_url":null,"description":null,"www":"http://dati.emilia-romagna.it/id/ibc/condition/IT-ER-BO009"},{"place_id":"44,49059073655720","geometry":{"type":"Point","coordinates":[11.329796457,44.490590737]},"display_name":"Museo della Beata Vergine di San Luca,from:IBC","category":"attractions","type":"Museum","importance":0.0,"icon":"","visiting_time":0.0,"opening_hours":"ok","opening_days":"ok","rating":0,"photo_url":null,"description":null,"www":"http://www.museomadonnasanluca.it"},{"place_id":"44,49679088308440","geometry":{"type":"Point","coordinates":[11.340722785,44.496790883]},"display_name":"San Colombano - Collezione Tagliavini,from:IBC","category":"attractions","type":"Museum","importance":0.0,"icon":"","visiting_time":0.0,"opening_hours":"ok","opening_days":"ok","rating":0,"photo_url":null,"description":null,"www":"http://www.genusbononiae.it/index.php"},{"place_id":"44,51332415242350","geometry":{"type":"Point","coordinates":[11.350043318,44.513324152]},"display_name":"Museo per la memoria di Ustica,from:IBC","category":"attractions","type":"Museum","importance":0.0,"icon":"","visiting_time":0.0,"opening_hours":"ok","opening_days":"ok","rating":0,"photo_url":null,"description":null,"www":"http://www.museomemoriaustica.it/museo.htm"},{"place_id":"44,49357489047690","geometry":{"type":"Point","coordinates":[11.342778282,44.49357489]},"display_name":"Museo di San Petronio,from:IBC","category":"attractions","type":"Museum","importance":0.0,"icon":"","visiting_time":0.0,"opening_hours":"ok","opening_days":"ok","rating":0,"photo_url":null,"description":null,"www":"http://dati.emilia-romagna.it/id/ibc/condition/IT-ER-BO077"},{"place_id":"44,48817406189680","geometry":{"type":"Point","coordinates":[11.357218395,44.488174062]},"display_name":"Museo Civico del Risorgimento,from:IBC","category":"attractions","type":"Museum","importance":0.0,"icon":"","visiting_time":0.0,"opening_hours":"ok","opening_days":"ok","rating":0,"photo_url":null,"description":null,"www":"http://www.comune.bologna.it/museorisorgimento"},{"place_id":"44,49225015074480","geometry":{"type":"Point","coordinates":[11.35188781,44.492250151]},"display_name":"Musei Civici d'Arte Antica: Museo d'Arte Industriale Davia Bargellini,from:IBC","category":"attractions","type":"Museum","importance":0.0,"icon":"","visiting_time":0.0,"opening_hours":"ok","opening_days":"ok","rating":0,"photo_url":null,"description":null,"www":"http://www.comune.bologna.it/iperbole/MuseiCivici"},{"place_id":"44,50811901093600","geometry":{"type":"Point","coordinates":[11.367435628,44.508119011]},"display_name":"Museo Giardino Geologico Sandra Forni,from:IBC","category":"attractions","type":"Museum","importance":0.0,"icon":"","visiting_time":0.0,"opening_hours":"ok","opening_days":"ok","rating":0,"photo_url":null,"description":null,"www":"http://ambiente.regione.emilia-romagna.it/geologia/divulgazione/museo-giardino-geologico"},{"place_id":"44,48790447162560","geometry":{"type":"Point","coordinates":[11.328849835,44.487904472]},"display_name":"Raccolta di Strumenti di Topografia e Geodesia,from:IBC","category":"attractions","type":"Museum","importance":0.0,"icon":"","visiting_time":0.0,"opening_hours":"ok","opening_days":"ok","rating":0,"photo_url":null,"description":null,"www":"http://dati.emilia-romagna.it/id/ibc/condition/IT-ER-BO093"},{"place_id":"Un Cedro dell’Atlante Pianoro Rastignano Via Buozzi, 6 87","geometry":{"type":"Point","coordinates":[11.36039726,44.44418629]},"display_name":"Un Cedro dell’Atlante Pianoro Rastignano Via Buozzi, 6,from:IBC","category":"tree","type":"tree","importance":0.0,"icon":"","visiting_time":0.0,"opening_hours":"ok","opening_days":"ok","rating":0,"photo_url":"http://online.ibc.regione.emilia-romagna.it/mtrees/image/130.jpg","description":null,"www":null},{"place_id":"Un boschetto planiziale con tre esemplari monumentali di Farnia, Frassino e Pioppo bianco Bologna S. Ruffillo Via La Bastia, 2 112","geometry":{"type":"Point","coordinates":[11.36800623,44.45055536]},"display_name":"Un boschetto planiziale con tre esemplari monumentali di Farnia, Frassino e Pioppo bianco Bologna S. Ruffillo Via La Bastia, 2,from:IBC","category":"tree","type":"tree","importance":0.0,"icon":"","visiting_time":0.0,"opening_hours":"ok","opening_days":"ok","rating":0,"photo_url":"http://online.ibc.regione.emilia-romagna.it/mtrees/image/8067.jpg","description":null,"www":null},{"place_id":"Una Roverella Sasso Marconi Cà Grande (Nugareto) 130","geometry":{"type":"Point","coordinates":[11.23184425,44.44427129]},"display_name":"Una Roverella Sasso Marconi Cà Grande (Nugareto),from:IBC","category":"tree","type":"tree","importance":0.0,"icon":"","visiting_time":0.0,"opening_hours":"ok","opening_days":"ok","rating":0,"photo_url":"http://online.ibc.regione.emilia-romagna.it/mtrees/image/150.jpg","description":null,"www":null},{"place_id":"Farnia Granarolo dell'Emilia Via Calabria Vecchia 277","geometry":{"type":"Point","coordinates":[11.42162541,44.54205505]},"display_name":"Farnia Granarolo dell'Emilia Via Calabria Vecchia,from:IBC","category":"tree","type":"tree","importance":0.0,"icon":"","visiting_time":0.0,"opening_hours":"ok","opening_days":"ok","rating":0,"photo_url":"http://online.ibc.regione.emilia-romagna.it/mtrees/image/70.jpg","description":null,"www":null},{"place_id":"Platano Granarolo dell'Emilia Via Cadriano, 50 424","geometry":{"type":"Point","coordinates":[11.40602413,44.55353003]},"display_name":"Platano Granarolo dell'Emilia Via Cadriano, 50,from:IBC","category":"tree","type":"tree","importance":0.0,"icon":"","visiting_time":0.0,"opening_hours":"ok","opening_days":"ok","rating":0,"photo_url":"http://online.ibc.regione.emilia-romagna.it/mtrees/image/68.jpg","description":null,"www":null},{"place_id":"Un boschetto planiziale con tre esemplari monumentali di Farnia, Frassino e Pioppo bianco Bologna S. Ruffillo Via La Bastia, 2 498","geometry":{"type":"Point","coordinates":[11.36780713,44.4506045]},"display_name":"Un boschetto planiziale con tre esemplari monumentali di Farnia, Frassino e Pioppo bianco Bologna S. Ruffillo Via La Bastia, 2,from:IBC","category":"tree","type":"tree","importance":0.0,"icon":"","visiting_time":0.0,"opening_hours":"ok","opening_days":"ok","rating":0,"photo_url":"http://online.ibc.regione.emilia-romagna.it/mtrees/image/8073.jpg","description":null,"www":null},{"place_id":"Un boschetto planiziale con tre esemplari monumentali di Farnia, Frassino e Pioppo bianco Bologna S. Ruffillo Via La Bastia, 2 819","geometry":{"type":"Point","coordinates":[11.36753904,44.45112321]},"display_name":"Un boschetto planiziale con tre esemplari monumentali di Farnia, Frassino e Pioppo bianco Bologna S. Ruffillo Via La Bastia, 2,from:IBC","category":"tree","type":"tree","importance":0.0,"icon":"","visiting_time":0.0,"opening_hours":"ok","opening_days":"ok","rating":0,"photo_url":null,"description":null,"www":null},{"place_id":"Platano Bologna Via Cavalieri Ducati 962","geometry":{"type":"Point","coordinates":[11.25537795,44.51494529]},"display_name":"Platano Bologna Via Cavalieri Ducati,from:IBC","category":"tree","type":"tree","importance":0.0,"icon":"","visiting_time":0.0,"opening_hours":"ok","opening_days":"ok","rating":0,"photo_url":"http://online.ibc.regione.emilia-romagna.it/mtrees/image/8083.jpg","description":null,"www":null},{"place_id":"Farnia Bologna Via del Bordone, 1/2 974","geometry":{"type":"Point","coordinates":[11.3862065,44.53565363]},"display_name":"Farnia Bologna Via del Bordone, 1/2,from:IBC","category":"tree","type":"tree","importance":0.0,"icon":"","visiting_time":0.0,"opening_hours":"ok","opening_days":"ok","rating":0,"photo_url":"http://online.ibc.regione.emilia-romagna.it/mtrees/image/5529.jpg","description":null,"www":null}]