[{"place_id":"16524","geometry":{"type":"Point","coordinates":[12.202109893,44.411185273]},"display_name":"Oratorio di San Rocco,from:MIBACT","category":"attractions","type":"Oratorio","importance":0.0,"icon":"","visiting_time":0.0,"opening_hours":"ok","opening_days":"ok","rating":0,"photo_url":null,"description":null,"www":null},{"place_id":"16459","geometry":{"type":"Point","coordinates":[12.20033642,44.412548226]},"display_name":"Nido d'infanzia Augusta Rasponi,from:MIBACT","category":"attractions","type":"Scuola","importance":0.0,"icon":"","visiting_time":0.0,"opening_hours":"ok","opening_days":"ok","rating":0,"photo_url":null,"description":null,"www":null},{"place_id":"16457","geometry":{"type":"Point","coordinates":[12.200320517,44.412720863]},"display_name":"Palazzo Baccarini,from:MIBACT","category":"attractions","type":"Palazzo","importance":0.0,"icon":"","visiting_time":0.0,"opening_hours":"ok","opening_days":"ok","rating":0,"photo_url":null,"description":null,"www":null},{"place_id":"16450","geometry":{"type":"Point","coordinates":[12.197294902,44.415766548]},"display_name":"Edificio in via Battistero,from:MIBACT","category":"attractions","type":"Palazzo","importance":0.0,"icon":"","visiting_time":0.0,"opening_hours":"ok","opening_days":"ok","rating":0,"photo_url":null,"description":null,"www":null},{"place_id":"16237","geometry":{"type":"Point","coordinates":[12.202160079,44.421707863]},"display_name":"\"Ex Caserma Carabinieri \"\"P. Ragni\"\"\",from:MIBACT","category":"attractions","type":"Caserma","importance":0.0,"icon":"","visiting_time":0.0,"opening_hours":"ok","opening_days":"ok","rating":0,"photo_url":null,"description":null,"www":null},{"place_id":"8879","geometry":{"type":"Point","coordinates":[12.04030832,44.222152708]},"display_name":"Casa Francia già Pettini,from:MIBACT","category":"attractions","type":"Palazzo","importance":0.7,"icon":"","visiting_time":0.0,"opening_hours":"ok","opening_days":"ok","rating":0,"photo_url":null,"description":null,"www":"\"http://vincoliinrete.beniculturali.it/VincoliInRete/vir/bene/dettagliobene88853,http://vincoliinrete.beniculturali.it/VincoliInRete/vir/bene/dettagliobene156476\""},{"place_id":"9034","geometry":{"type":"Point","coordinates":[12.246533048,44.476623559]},"display_name":"Ex Capanno di Garibaldi,from:MIBACT","category":"attractions","type":"Casa","importance":0.9,"icon":"","visiting_time":0.0,"opening_hours":"ok","opening_days":"ok","rating":0,"photo_url":null,"description":null,"www":"\"http://vincoliinrete.beniculturali.it/VincoliInRete/vir/bene/dettagliobene91690,http://vincoliinrete.beniculturali.it/VincoliInRete/vir/bene/dettagliobene318502\""},{"place_id":"9136","geometry":{"type":"Point","coordinates":[12.200384899,44.417718429]},"display_name":"Palazzo del Governo e Palazzo delle Poste e dei Telegrafi,from:MIBACT","category":"attractions","type":"Palazzo","importance":0.7,"icon":"","visiting_time":0.0,"opening_hours":"ok","opening_days":"ok","rating":0,"photo_url":null,"description":null,"www":"http://vincoliinrete.beniculturali.it/VincoliInRete/vir/bene/dettagliobene339708"},{"place_id":"9131","geometry":{"type":"Point","coordinates":[12.0395314,44.219564009]},"display_name":"Ex Oratorio di S. Antonio Vecchio,from:MIBACT","category":"attractions","type":"Oratorio","importance":0.7,"icon":"","visiting_time":0.0,"opening_hours":"ok","opening_days":"ok","rating":0,"photo_url":null,"description":null,"www":"\"http://vincoliinrete.beniculturali.it/VincoliInRete/vir/bene/dettagliobene89041,http://vincoliinrete.beniculturali.it/VincoliInRete/vir/bene/dettagliobene227538\""},{"place_id":"17705","geometry":{"type":"Point","coordinates":[12.037548853,44.224916069]},"display_name":"Casa del Mutilato,from:MIBACT","category":"attractions","type":"Palazzo","importance":0.7,"icon":"","visiting_time":0.0,"opening_hours":"ok","opening_days":"ok","rating":0,"photo_url":null,"description":null,"www":null},{"place_id":"17294","geometry":{"type":"Point","coordinates":[12.245483451,44.402647874]},"display_name":"Santa Maria in Porto Fuori,from:MIBACT","category":"attractions","type":"Chiesa","importance":0.9,"icon":"","visiting_time":0.0,"opening_hours":"ok","opening_days":"ok","rating":0,"photo_url":null,"description":null,"www":"\"http://vincoliinrete.beniculturali.it/VincoliInRete/vir/bene/dettagliobene155527,http://vincoliinrete.beniculturali.it/VincoliInRete/vir/bene/dettagliobene89905\""},{"place_id":"17293","geometry":{"type":"Point","coordinates":[12.231932021,44.434476196]},"display_name":"Cimitero Monumentale,from:MIBACT","category":"attractions","type":"Cimitero","importance":0.9,"icon":"","visiting_time":0.0,"opening_hours":"ok","opening_days":"ok","rating":0,"photo_url":null,"description":null,"www":"\"http://vincoliinrete.beniculturali.it/VincoliInRete/vir/bene/dettagliobene89799,http://vincoliinrete.beniculturali.it/VincoliInRete/vir/bene/dettagliobene230852\""},{"place_id":"16526","geometry":{"type":"Point","coordinates":[12.209733263,44.421899103]},"display_name":"\"Caserma \"\"Tullo Masi\"\"\",from:MIBACT","category":"attractions","type":"Caserma","importance":0.0,"icon":"","visiting_time":0.0,"opening_hours":"ok","opening_days":"ok","rating":0,"photo_url":null,"description":null,"www":null},{"place_id":"16521","geometry":{"type":"Point","coordinates":[12.202532736,44.411347731]},"display_name":"Chiesa di San Rocco,from:MIBACT","category":"attractions","type":"Chiesa","importance":0.0,"icon":"","visiting_time":0.0,"opening_hours":"ok","opening_days":"ok","rating":0,"photo_url":null,"description":null,"www":"\"http://vincoliinrete.beniculturali.it/VincoliInRete/vir/bene/dettagliobene155346,http://vincoliinrete.beniculturali.it/VincoliInRete/vir/bene/dettagliobene89797,http://vincoliinrete.beniculturali.it/VincoliInRete/vir/bene/dettagliobene140193\""},{"place_id":"16515","geometry":{"type":"Point","coordinates":[12.207945955,44.413246473]},"display_name":"Giardini Pubblici,from:MIBACT","category":"parks","type":"Parco","importance":0.0,"icon":"","visiting_time":0.0,"opening_hours":"ok","opening_days":"ok","rating":0,"photo_url":null,"description":null,"www":null},{"place_id":"16469","geometry":{"type":"Point","coordinates":[12.206828397,44.416192092]},"display_name":"Ex Caserma 'Italo Balbo',from:MIBACT","category":"attractions","type":"Caserma","importance":0.0,"icon":"","visiting_time":0.0,"opening_hours":"ok","opening_days":"ok","rating":0,"photo_url":null,"description":null,"www":null},{"place_id":"16467","geometry":{"type":"Point","coordinates":[12.205832904,44.415139289]},"display_name":"Casa Protetta per anziani Garibali e Zarabbini,from:MIBACT","category":"attractions","type":"Ospedale","importance":0.0,"icon":"","visiting_time":0.0,"opening_hours":"ok","opening_days":"ok","rating":0,"photo_url":null,"description":null,"www":null},{"place_id":"16463","geometry":{"type":"Point","coordinates":[12.205154055,44.415086028]},"display_name":"\"Istituto Musicale di Studi Superiori \"\"Giuseppe Verdi\"\"\",from:MIBACT","category":"attractions","type":"Scuola","importance":0.0,"icon":"","visiting_time":0.0,"opening_hours":"ok","opening_days":"ok","rating":0,"photo_url":null,"description":null,"www":null},{"place_id":"16453","geometry":{"type":"Point","coordinates":[12.192645655,44.41436138]},"display_name":"Casa Circondariale,from:MIBACT","category":"attractions","type":"Carcere","importance":0.0,"icon":"","visiting_time":0.0,"opening_hours":"ok","opening_days":"ok","rating":0,"photo_url":null,"description":null,"www":null},{"place_id":"16452","geometry":{"type":"Point","coordinates":[12.200755609,44.416087531]},"display_name":"Quadrarco di Braccioforte,from:MIBACT","category":"attractions","type":"Elemento","importance":0.7,"icon":"","visiting_time":0.0,"opening_hours":"ok","opening_days":"ok","rating":0,"photo_url":null,"description":null,"www":"http://vincoliinrete.beniculturali.it/VincoliInRete/vir/bene/dettagliobene91926"},{"place_id":"16448","geometry":{"type":"Point","coordinates":[12.204347666,44.418324706]},"display_name":"Monumento ad Anita Garibaldi,from:MIBACT","category":"attractions","type":"Elemento","importance":0.7,"icon":"","visiting_time":0.0,"opening_hours":"ok","opening_days":"ok","rating":0,"photo_url":null,"description":null,"www":null},{"place_id":"16433","geometry":{"type":"Point","coordinates":[12.200686835,44.417396966]},"display_name":"Monumento a Giuseppe Garibaldi,from:MIBACT","category":"attractions","type":"Elemento","importance":0.0,"icon":"","visiting_time":0.0,"opening_hours":"ok","opening_days":"ok","rating":0,"photo_url":null,"description":null,"www":null},{"place_id":"16428","geometry":{"type":"Point","coordinates":[12.204383086,44.418161549]},"display_name":"Liceo Classico Dante Alighieri,from:MIBACT","category":"attractions","type":"Scuola","importance":0.0,"icon":"","visiting_time":0.0,"opening_hours":"ok","opening_days":"ok","rating":0,"photo_url":null,"description":null,"www":null},{"place_id":"16426","geometry":{"type":"Point","coordinates":[12.203808137,44.417208783]},"display_name":"Istituto Galletti Abbiosi,from:MIBACT","category":"attractions","type":"Palazzo","importance":0.0,"icon":"","visiting_time":0.0,"opening_hours":"ok","opening_days":"ok","rating":0,"photo_url":null,"description":null,"www":"http://vincoliinrete.beniculturali.it/VincoliInRete/vir/bene/dettagliobene89883"},{"place_id":"16417","geometry":{"type":"Point","coordinates":[12.197936054,44.41823877]},"display_name":"Ex convento di San Domenico,from:MIBACT","category":"attractions","type":"Convento","importance":0.0,"icon":"","visiting_time":0.0,"opening_hours":"ok","opening_days":"ok","rating":0,"photo_url":null,"description":null,"www":null},{"place_id":"16229","geometry":{"type":"Point","coordinates":[12.198666719,44.4212391]},"display_name":"Monastero Clarisse Cappuccine di Ravenna,from:MIBACT","category":"attractions","type":"Convento","importance":0.0,"icon":"","visiting_time":0.0,"opening_hours":"ok","opening_days":"ok","rating":0,"photo_url":null,"description":null,"www":"\"http://vincoliinrete.beniculturali.it/VincoliInRete/vir/bene/dettagliobene91626,http://vincoliinrete.beniculturali.it/VincoliInRete/vir/bene/dettagliobene91640,http://vincoliinrete.beniculturali.it/VincoliInRete/vir/bene/dettagliobene143710\""},{"place_id":"16218","geometry":{"type":"Point","coordinates":[12.192890594,44.420950085]},"display_name":"Chiesa di San Biagio,from:MIBACT","category":"attractions","type":"Chiesa","importance":0.0,"icon":"","visiting_time":0.0,"opening_hours":"ok","opening_days":"ok","rating":0,"photo_url":null,"description":null,"www":"http://vincoliinrete.beniculturali.it/VincoliInRete/vir/bene/dettagliobene89801"},{"place_id":"16133","geometry":{"type":"Point","coordinates":[12.051533128,44.218017253]},"display_name":"Ex Collegio Aeronautico,from:MIBACT","category":"attractions","type":"Palazzo","importance":0.7,"icon":"","visiting_time":0.0,"opening_hours":"ok","opening_days":"ok","rating":0,"photo_url":null,"description":null,"www":"http://vincoliinrete.beniculturali.it/VincoliInRete/vir/bene/dettagliobene229323"},{"place_id":"16128","geometry":{"type":"Point","coordinates":[12.050026355,44.218145822]},"display_name":"Monumento ai caduti,from:MIBACT","category":"attractions","type":"Elemento","importance":0.7,"icon":"","visiting_time":0.0,"opening_hours":"ok","opening_days":"ok","rating":0,"photo_url":null,"description":null,"www":"http://vincoliinrete.beniculturali.it/VincoliInRete/vir/bene/dettagliobene18980"},{"place_id":"16120","geometry":{"type":"Point","coordinates":[12.057215294,44.232840826]},"display_name":"Cimitero Monumentale,from:MIBACT","category":"attractions","type":"Cimitero","importance":0.9,"icon":"","visiting_time":0.0,"opening_hours":"ok","opening_days":"ok","rating":0,"photo_url":null,"description":null,"www":"\"http://vincoliinrete.beniculturali.it/VincoliInRete/vir/bene/dettagliobene230874,http://vincoliinrete.beniculturali.it/VincoliInRete/vir/bene/dettagliobene90607\""},{"place_id":"16090","geometry":{"type":"Point","coordinates":[12.200699573,44.415694295]},"display_name":"Palazzo della Provincia,from:MIBACT","category":"attractions","type":"Palazzo","importance":0.7,"icon":"","visiting_time":0.0,"opening_hours":"ok","opening_days":"ok","rating":0,"photo_url":null,"description":null,"www":"\"http://vincoliinrete.beniculturali.it/VincoliInRete/vir/bene/dettagliobene339722,http://vincoliinrete.beniculturali.it/VincoliInRete/vir/bene/dettagliobene339719\""},{"place_id":"15939","geometry":{"type":"Point","coordinates":[12.205693238,44.415603639]},"display_name":"Teatro Luigi Rasi,from:MIBACT","category":"attractions","type":"Chiesa","importance":0.7,"icon":"","visiting_time":0.0,"opening_hours":"ok","opening_days":"ok","rating":0,"photo_url":null,"description":null,"www":"http://vincoliinrete.beniculturali.it/VincoliInRete/vir/bene/dettagliobene139956"},{"place_id":"15765","geometry":{"type":"Point","coordinates":[12.200983538,44.417165948]},"display_name":"Teatro Alighieri,from:MIBACT","category":"attractions","type":"Teatro","importance":0.7,"icon":"","visiting_time":0.0,"opening_hours":"ok","opening_days":"ok","rating":0,"photo_url":null,"description":null,"www":"http://vincoliinrete.beniculturali.it/VincoliInRete/vir/bene/dettagliobene231800"},{"place_id":"7757","geometry":{"type":"Point","coordinates":[12.040528588,44.222057332]},"display_name":"Palazzo Talenti-Tramonti,from:MIBACT","category":"attractions","type":"Palazzo","importance":0.7,"icon":"","visiting_time":0.0,"opening_hours":"ok","opening_days":"ok","rating":0,"photo_url":null,"description":null,"www":"http://vincoliinrete.beniculturali.it/VincoliInRete/vir/bene/dettagliobene89089"},{"place_id":"7930","geometry":{"type":"Point","coordinates":[12.041827712,44.223258459]},"display_name":"Palazzo delle Poste e dei Telegrafi,from:MIBACT","category":"attractions","type":"Palazzo","importance":0.4,"icon":"","visiting_time":0.0,"opening_hours":"ok","opening_days":"ok","rating":0,"photo_url":null,"description":null,"www":"http://vincoliinrete.beniculturali.it/VincoliInRete/vir/bene/dettagliobene346030"},{"place_id":"8112","geometry":{"type":"Point","coordinates":[12.145207189,44.302188298]},"display_name":"\"Chiesa di San Lorenzo, canonica e pertinenze\",from:MIBACT","category":"attractions","type":"Chiesa","importance":0.7,"icon":"","visiting_time":0.0,"opening_hours":"ok","opening_days":"ok","rating":0,"photo_url":null,"description":null,"www":"\"http://vincoliinrete.beniculturali.it/VincoliInRete/vir/bene/dettagliobene155528,http://vincoliinrete.beniculturali.it/VincoliInRete/vir/bene/dettagliobene18167,http://vincoliinrete.beniculturali.it/VincoliInRete/vir/bene/dettagliobene230212,http://vincoliinrete.beniculturali.it/VincoliInRete/vir/bene/dettagliobene418564,http://vincoliinrete.beniculturali.it/VincoliInRete/vir/bene/dettagliobene143714\""},{"place_id":"8170","geometry":{"type":"Point","coordinates":[12.200317014,44.415956159]},"display_name":"Casa Montanari,from:MIBACT","category":"attractions","type":"Casa","importance":0.7,"icon":"","visiting_time":0.0,"opening_hours":"ok","opening_days":"ok","rating":0,"photo_url":null,"description":null,"www":"\"http://vincoliinrete.beniculturali.it/VincoliInRete/vir/bene/dettagliobene328363,http://vincoliinrete.beniculturali.it/VincoliInRete/vir/bene/dettagliobene329612\""},{"place_id":"8457","geometry":{"type":"Point","coordinates":[12.03284357,44.515128869]},"display_name":"Casa natale del poeta Vincenzo Monti,from:MIBACT","category":"attractions","type":"Casa","importance":0.7,"icon":"","visiting_time":0.0,"opening_hours":"ok","opening_days":"ok","rating":0,"photo_url":null,"description":null,"www":"\"http://vincoliinrete.beniculturali.it/VincoliInRete/vir/bene/dettagliobene328391,http://vincoliinrete.beniculturali.it/VincoliInRete/vir/bene/dettagliobene92185\""},{"place_id":"9409","geometry":{"type":"Point","coordinates":[12.038028956,44.226422966]},"display_name":"Palazzo Benzi,from:MIBACT","category":"attractions","type":"Palazzo","importance":0.7,"icon":"","visiting_time":0.0,"opening_hours":"ok","opening_days":"ok","rating":0,"photo_url":null,"description":null,"www":"\"http://vincoliinrete.beniculturali.it/VincoliInRete/vir/bene/dettagliobene90874,http://vincoliinrete.beniculturali.it/VincoliInRete/vir/bene/dettagliobene346192\""},{"place_id":"9398","geometry":{"type":"Point","coordinates":[12.044260506,44.220457932]},"display_name":"Palazzo dell'Ospedale,from:MIBACT","category":"attractions","type":"Palazzo","importance":0.7,"icon":"","visiting_time":0.0,"opening_hours":"ok","opening_days":"ok","rating":0,"photo_url":null,"description":null,"www":"\"http://vincoliinrete.beniculturali.it/VincoliInRete/vir/bene/dettagliobene341478,http://vincoliinrete.beniculturali.it/VincoliInRete/vir/bene/dettagliobene89093\""},{"place_id":"8602","geometry":{"type":"Point","coordinates":[12.03925736,44.225368448]},"display_name":"Mercato Coperto Cavour,from:MIBACT","category":"attractions","type":"Mercato","importance":0.4,"icon":"","visiting_time":0.0,"opening_hours":"ok","opening_days":"ok","rating":0,"photo_url":null,"description":null,"www":null},{"place_id":"9320","geometry":{"type":"Point","coordinates":[12.040271756,44.222653721]},"display_name":"Palazzo Comunale,from:MIBACT","category":"attractions","type":"Palazzo","importance":0.9,"icon":"","visiting_time":0.0,"opening_hours":"ok","opening_days":"ok","rating":0,"photo_url":null,"description":null,"www":"http://vincoliinrete.beniculturali.it/VincoliInRete/vir/bene/dettagliobene89095"},{"place_id":"8752","geometry":{"type":"Point","coordinates":[12.199057835,44.418607654]},"display_name":"Palazzo sede della Casa Matha,from:MIBACT","category":"attractions","type":"Palazzo","importance":0.7,"icon":"","visiting_time":0.0,"opening_hours":"ok","opening_days":"ok","rating":0,"photo_url":null,"description":null,"www":"http://vincoliinrete.beniculturali.it/VincoliInRete/vir/bene/dettagliobene329128"},{"place_id":"7823","geometry":{"type":"Point","coordinates":[12.205325661,44.419470985]},"display_name":"Complesso di Santo Stefano degli Ulivi,from:MIBACT","category":"attractions","type":"Chiesa","importance":0.7,"icon":"","visiting_time":0.0,"opening_hours":"ok","opening_days":"ok","rating":0,"photo_url":null,"description":null,"www":"\"http://vincoliinrete.beniculturali.it/VincoliInRete/vir/bene/dettagliobene137705,http://vincoliinrete.beniculturali.it/VincoliInRete/vir/bene/dettagliobene89855\""},{"place_id":"7872","geometry":{"type":"Point","coordinates":[12.197704354,44.41785885]},"display_name":"Palazzo Pasolini Dall'Onda,from:MIBACT","category":"attractions","type":"Palazzo","importance":0.7,"icon":"","visiting_time":0.0,"opening_hours":"ok","opening_days":"ok","rating":0,"photo_url":null,"description":null,"www":"\"http://vincoliinrete.beniculturali.it/VincoliInRete/vir/bene/dettagliobene345496,http://vincoliinrete.beniculturali.it/VincoliInRete/vir/bene/dettagliobene92155\""},{"place_id":"7894","geometry":{"type":"Point","coordinates":[12.034410297,44.223997992]},"display_name":"Casa Acconci ora Reggiani,from:MIBACT","category":"attractions","type":"Palazzo","importance":0.7,"icon":"","visiting_time":0.0,"opening_hours":"ok","opening_days":"ok","rating":0,"photo_url":null,"description":null,"www":"http://vincoliinrete.beniculturali.it/VincoliInRete/vir/bene/dettagliobene89061"},{"place_id":"7955","geometry":{"type":"Point","coordinates":[12.041580286,44.22441697]},"display_name":"Palazzo Numai ora Foschi,from:MIBACT","category":"attractions","type":"Palazzo","importance":0.7,"icon":"","visiting_time":0.0,"opening_hours":"ok","opening_days":"ok","rating":0,"photo_url":null,"description":null,"www":"\"http://vincoliinrete.beniculturali.it/VincoliInRete/vir/bene/dettagliobene89083,http://vincoliinrete.beniculturali.it/VincoliInRete/vir/bene/dettagliobene341487\""},{"place_id":"7965","geometry":{"type":"Point","coordinates":[12.199941553,44.418001492]},"display_name":"Palazzo Rasponi del Sale,from:MIBACT","category":"attractions","type":"Palazzo","importance":0.7,"icon":"","visiting_time":0.0,"opening_hours":"ok","opening_days":"ok","rating":0,"photo_url":null,"description":null,"www":"\"http://vincoliinrete.beniculturali.it/VincoliInRete/vir/bene/dettagliobene343127,http://vincoliinrete.beniculturali.it/VincoliInRete/vir/bene/dettagliobene92153,http://vincoliinrete.beniculturali.it/VincoliInRete/vir/bene/dettagliobene339644\""},{"place_id":"7987","geometry":{"type":"Point","coordinates":[12.250312405,44.256111987]},"display_name":"Palazzo Negrotto Cambiaso già Lovatelli poi Doria,from:MIBACT","category":"attractions","type":"Villa","importance":0.7,"icon":"","visiting_time":0.0,"opening_hours":"ok","opening_days":"ok","rating":0,"photo_url":null,"description":null,"www":"\"http://vincoliinrete.beniculturali.it/VincoliInRete/vir/bene/dettagliobene343447,http://vincoliinrete.beniculturali.it/VincoliInRete/vir/bene/dettagliobene92173\""},{"place_id":"8037","geometry":{"type":"Point","coordinates":[12.109721092,44.300769736]},"display_name":"Villa e parco Pasolini Dall'Onda,from:MIBACT","category":"attractions","type":"Villa","importance":0.7,"icon":"","visiting_time":0.0,"opening_hours":"ok","opening_days":"ok","rating":0,"photo_url":null,"description":null,"www":"\"http://vincoliinrete.beniculturali.it/VincoliInRete/vir/bene/dettagliobene132846,http://vincoliinrete.beniculturali.it/VincoliInRete/vir/bene/dettagliobene92169\""},{"place_id":"8183","geometry":{"type":"Point","coordinates":[12.125225572,44.336420112]},"display_name":"Villa Archi Corbucci,from:MIBACT","category":"attractions","type":"Villa","importance":0.7,"icon":"","visiting_time":0.0,"opening_hours":"ok","opening_days":"ok","rating":0,"photo_url":null,"description":null,"www":"\"http://vincoliinrete.beniculturali.it/VincoliInRete/vir/bene/dettagliobene166946,http://vincoliinrete.beniculturali.it/VincoliInRete/vir/bene/dettagliobene240416,http://vincoliinrete.beniculturali.it/VincoliInRete/vir/bene/dettagliobene92161\""},{"place_id":"8313","geometry":{"type":"Point","coordinates":[12.039291161,44.221343246]},"display_name":"Palazzo Orsi Mangelli,from:MIBACT","category":"attractions","type":"Palazzo","importance":0.7,"icon":"","visiting_time":0.0,"opening_hours":"ok","opening_days":"ok","rating":0,"photo_url":null,"description":null,"www":"\"http://vincoliinrete.beniculturali.it/VincoliInRete/vir/bene/dettagliobene89037,http://vincoliinrete.beniculturali.it/VincoliInRete/vir/bene/dettagliobene346084\""},{"place_id":"8327","geometry":{"type":"Point","coordinates":[12.035782534,44.220911248]},"display_name":"Ex Chiesa e convento di S.Domenico,from:MIBACT","category":"attractions","type":"Chiesa","importance":0.4,"icon":"","visiting_time":0.0,"opening_hours":"ok","opening_days":"ok","rating":0,"photo_url":null,"description":null,"www":"http://vincoliinrete.beniculturali.it/VincoliInRete/vir/bene/dettagliobene138713"},{"place_id":"8419","geometry":{"type":"Point","coordinates":[12.176071192,44.288057038]},"display_name":"Villa Ghezzo con parco e pertinenze,from:MIBACT","category":"attractions","type":"Villa","importance":0.7,"icon":"","visiting_time":0.0,"opening_hours":"ok","opening_days":"ok","rating":0,"photo_url":null,"description":null,"www":"http://vincoliinrete.beniculturali.it/VincoliInRete/vir/bene/dettagliobene264342"},{"place_id":"8557","geometry":{"type":"Point","coordinates":[12.04928809,44.227167253]},"display_name":"Chiesa di Santa Maria del Fiore ed Ex Convento dei Cappuccini,from:MIBACT","category":"attractions","type":"Chiesa","importance":0.7,"icon":"","visiting_time":0.0,"opening_hours":"ok","opening_days":"ok","rating":0,"photo_url":null,"description":null,"www":"\"http://vincoliinrete.beniculturali.it/VincoliInRete/vir/bene/dettagliobene225041,http://vincoliinrete.beniculturali.it/VincoliInRete/vir/bene/dettagliobene225042,http://vincoliinrete.beniculturali.it/VincoliInRete/vir/bene/dettagliobene138715\""},{"place_id":"8589","geometry":{"type":"Point","coordinates":[12.200496156,44.418117553]},"display_name":"Chiesa di Santa Maria del Suffragio,from:MIBACT","category":"attractions","type":"Chiesa","importance":0.7,"icon":"","visiting_time":0.0,"opening_hours":"ok","opening_days":"ok","rating":0,"photo_url":null,"description":null,"www":"\"http://vincoliinrete.beniculturali.it/VincoliInRete/vir/bene/dettagliobene137694,http://vincoliinrete.beniculturali.it/VincoliInRete/vir/bene/dettagliobene91769\""},{"place_id":"8603","geometry":{"type":"Point","coordinates":[12.331189337,44.247407651]},"display_name":"Ex Chiesa della Madonna della Neve,from:MIBACT","category":"attractions","type":"Chiesa","importance":0.7,"icon":"","visiting_time":0.0,"opening_hours":"ok","opening_days":"ok","rating":0,"photo_url":null,"description":null,"www":"\"http://vincoliinrete.beniculturali.it/VincoliInRete/vir/bene/dettagliobene88244,http://vincoliinrete.beniculturali.it/VincoliInRete/vir/bene/dettagliobene140179\""},{"place_id":"8609","geometry":{"type":"Point","coordinates":[12.038877675,44.224657193]},"display_name":"Palazzo Paolucci-Piazza o della Prefettura,from:MIBACT","category":"attractions","type":"Palazzo","importance":0.9,"icon":"","visiting_time":0.0,"opening_hours":"ok","opening_days":"ok","rating":0,"photo_url":null,"description":null,"www":"\"http://vincoliinrete.beniculturali.it/VincoliInRete/vir/bene/dettagliobene346154,http://vincoliinrete.beniculturali.it/VincoliInRete/vir/bene/dettagliobene90803\""},{"place_id":"8645","geometry":{"type":"Point","coordinates":[12.03544846,44.224486262]},"display_name":"Palazzo Gaddi-Pepoli,from:MIBACT","category":"attractions","type":"Palazzo","importance":0.9,"icon":"","visiting_time":0.0,"opening_hours":"ok","opening_days":"ok","rating":0,"photo_url":null,"description":null,"www":"http://www.giornatefai.it/luoghi/90499"},{"place_id":"8981","geometry":{"type":"Point","coordinates":[12.151632772,44.544229777]},"display_name":"\"Immobile in via Bartolo Nigrisoli, 62-64\",from:MIBACT","category":"attractions","type":"Palazzo","importance":0.7,"icon":"","visiting_time":0.0,"opening_hours":"ok","opening_days":"ok","rating":0,"photo_url":null,"description":null,"www":"\"http://vincoliinrete.beniculturali.it/VincoliInRete/vir/bene/dettagliobene344634,http://vincoliinrete.beniculturali.it/VincoliInRete/vir/bene/dettagliobene91676\""},{"place_id":"8982","geometry":{"type":"Point","coordinates":[12.195309707,44.420355327]},"display_name":"Ex Convento di San Vitale,from:MIBACT","category":"attractions","type":"Convento","importance":1.0,"icon":"","visiting_time":0.0,"opening_hours":"ok","opening_days":"ok","rating":0,"photo_url":null,"description":null,"www":"\"http://vincoliinrete.beniculturali.it/VincoliInRete/vir/bene/dettagliobene91932,http://vincoliinrete.beniculturali.it/VincoliInRete/vir/bene/dettagliobene218779,http://vincoliinrete.beniculturali.it/VincoliInRete/vir/bene/dettagliobene116198,http://vincoliinrete.beniculturali.it/VincoliInRete/vir/bene/dettagliobene213900,http://vincoliinrete.beniculturali.it/VincoliInRete/vir/bene/dettagliobene195918,http://vincoliinrete.beniculturali.it/VincoliInRete/vir/bene/dettagliobene91651\""},{"place_id":"9010","geometry":{"type":"Point","coordinates":[12.200326002,44.41788128]},"display_name":"Palazzo del Pubblico Orologio,from:MIBACT","category":"attractions","type":"Palazzo","importance":0.7,"icon":"","visiting_time":0.0,"opening_hours":"ok","opening_days":"ok","rating":0,"photo_url":null,"description":null,"www":"\"http://vincoliinrete.beniculturali.it/VincoliInRete/vir/bene/dettagliobene386720,http://vincoliinrete.beniculturali.it/VincoliInRete/vir/bene/dettagliobene91656\""},{"place_id":"9011","geometry":{"type":"Point","coordinates":[12.190486939,44.295623513]},"display_name":"Villa Ginanni Corradini,from:MIBACT","category":"attractions","type":"Villa","importance":0.7,"icon":"","visiting_time":0.0,"opening_hours":"ok","opening_days":"ok","rating":0,"photo_url":null,"description":null,"www":"\"http://vincoliinrete.beniculturali.it/VincoliInRete/vir/bene/dettagliobene265234,http://vincoliinrete.beniculturali.it/VincoliInRete/vir/bene/dettagliobene92157\""},{"place_id":"9022","geometry":{"type":"Point","coordinates":[12.036118645,44.22449294]},"display_name":"Palazzo Guarini - Torelli,from:MIBACT","category":"attractions","type":"Palazzo","importance":0.7,"icon":"","visiting_time":0.0,"opening_hours":"ok","opening_days":"ok","rating":0,"photo_url":null,"description":null,"www":"\"http://vincoliinrete.beniculturali.it/VincoliInRete/vir/bene/dettagliobene89049,http://vincoliinrete.beniculturali.it/VincoliInRete/vir/bene/dettagliobene346193\""},{"place_id":"9038","geometry":{"type":"Point","coordinates":[12.196480141,44.416895713]},"display_name":"Palazzo Rasponi già Balbi,from:MIBACT","category":"attractions","type":"Palazzo","importance":0.7,"icon":"","visiting_time":0.0,"opening_hours":"ok","opening_days":"ok","rating":0,"photo_url":null,"description":null,"www":"\"http://vincoliinrete.beniculturali.it/VincoliInRete/vir/bene/dettagliobene344723,http://vincoliinrete.beniculturali.it/VincoliInRete/vir/bene/dettagliobene91713\""},{"place_id":"9095","geometry":{"type":"Point","coordinates":[12.040695183,44.22162394]},"display_name":"Chiesa di Santa Maria del Suffragio,from:MIBACT","category":"attractions","type":"Chiesa","importance":0.7,"icon":"","visiting_time":0.0,"opening_hours":"ok","opening_days":"ok","rating":0,"photo_url":null,"description":null,"www":"\"http://vincoliinrete.beniculturali.it/VincoliInRete/vir/bene/dettagliobene141115,http://vincoliinrete.beniculturali.it/VincoliInRete/vir/bene/dettagliobene90840\""},{"place_id":"9218","geometry":{"type":"Point","coordinates":[12.033785039,44.22430948]},"display_name":"Caserma G. Garibaldi,from:MIBACT","category":"attractions","type":"Palazzo","importance":0.7,"icon":"","visiting_time":0.0,"opening_hours":"ok","opening_days":"ok","rating":0,"photo_url":null,"description":null,"www":"\"http://vincoliinrete.beniculturali.it/VincoliInRete/vir/bene/dettagliobene346135,http://vincoliinrete.beniculturali.it/VincoliInRete/vir/bene/dettagliobene90886\""},{"place_id":"9337","geometry":{"type":"Point","coordinates":[12.196843456,44.417139518]},"display_name":"Palazzo Rasponi Dalle Teste,from:MIBACT","category":"attractions","type":"Palazzo","importance":0.9,"icon":"","visiting_time":0.0,"opening_hours":"ok","opening_days":"ok","rating":0,"photo_url":null,"description":null,"www":"\"http://vincoliinrete.beniculturali.it/VincoliInRete/vir/bene/dettagliobene92050,http://vincoliinrete.beniculturali.it/VincoliInRete/vir/bene/dettagliobene343136\""},{"place_id":"9366","geometry":{"type":"Point","coordinates":[12.197742514,44.416374571]},"display_name":"Palazzo Rasponi Murat,from:MIBACT","category":"attractions","type":"Palazzo","importance":0.7,"icon":"","visiting_time":0.0,"opening_hours":"ok","opening_days":"ok","rating":0,"photo_url":null,"description":null,"www":"\"http://vincoliinrete.beniculturali.it/VincoliInRete/vir/bene/dettagliobene91754,http://vincoliinrete.beniculturali.it/VincoliInRete/vir/bene/dettagliobene343132\""},{"place_id":"13049","geometry":{"type":"Point","coordinates":[12.200468991,44.419143233]},"display_name":"Palazzo Spreti (ora Casa del Popolo),from:MIBACT","category":"attractions","type":"Palazzo","importance":0.7,"icon":"","visiting_time":0.0,"opening_hours":"ok","opening_days":"ok","rating":0,"photo_url":null,"description":null,"www":"\"http://vincoliinrete.beniculturali.it/VincoliInRete/vir/bene/dettagliobene91704,http://vincoliinrete.beniculturali.it/VincoliInRete/vir/bene/dettagliobene345240\""},{"place_id":"15767","geometry":{"type":"Point","coordinates":[12.199147219,44.417422606]},"display_name":"Palazzo comunale,from:MIBACT","category":"attractions","type":"Palazzo","importance":0.9,"icon":"","visiting_time":0.0,"opening_hours":"ok","opening_days":"ok","rating":0,"photo_url":null,"description":null,"www":"\"http://vincoliinrete.beniculturali.it/VincoliInRete/vir/bene/dettagliobene91659,http://vincoliinrete.beniculturali.it/VincoliInRete/vir/bene/dettagliobene91633,http://vincoliinrete.beniculturali.it/VincoliInRete/vir/bene/dettagliobene86787,http://vincoliinrete.beniculturali.it/VincoliInRete/vir/bene/dettagliobene382076,http://vincoliinrete.beniculturali.it/VincoliInRete/vir/bene/dettagliobene339815,http://vincoliinrete.beniculturali.it/VincoliInRete/vir/bene/dettagliobene218814\""},{"place_id":"15770","geometry":{"type":"Point","coordinates":[12.197106468,44.415325238]},"display_name":"Chiesa della Resurrezione,from:MIBACT","category":"attractions","type":"Chiesa","importance":0.9,"icon":"","visiting_time":0.0,"opening_hours":"ok","opening_days":"ok","rating":0,"photo_url":null,"description":null,"www":"\"http://vincoliinrete.beniculturali.it/VincoliInRete/vir/bene/dettagliobene153748,http://vincoliinrete.beniculturali.it/VincoliInRete/vir/bene/dettagliobene274213,http://vincoliinrete.beniculturali.it/VincoliInRete/vir/bene/dettagliobene274212\""},{"place_id":"15772","geometry":{"type":"Point","coordinates":[12.201244486,44.420610095]},"display_name":"Chiesa di San Giovanni Battista,from:MIBACT","category":"attractions","type":"Chiesa","importance":0.9,"icon":"","visiting_time":0.0,"opening_hours":"ok","opening_days":"ok","rating":0,"photo_url":null,"description":null,"www":"\"http://vincoliinrete.beniculturali.it/VincoliInRete/vir/bene/dettagliobene86855,http://vincoliinrete.beniculturali.it/VincoliInRete/vir/bene/dettagliobene142547,http://vincoliinrete.beniculturali.it/VincoliInRete/vir/bene/dettagliobene139162,http://vincoliinrete.beniculturali.it/VincoliInRete/vir/bene/dettagliobene155340\""},{"place_id":"15849","geometry":{"type":"Point","coordinates":[12.035505509,44.223949263]},"display_name":"Casa detta del Palmezzano,from:MIBACT","category":"attractions","type":"Palazzo","importance":0.7,"icon":"","visiting_time":0.0,"opening_hours":"ok","opening_days":"ok","rating":0,"photo_url":null,"description":null,"www":"\"http://vincoliinrete.beniculturali.it/VincoliInRete/vir/bene/dettagliobene330274,http://vincoliinrete.beniculturali.it/VincoliInRete/vir/bene/dettagliobene89055\""},{"place_id":"15947","geometry":{"type":"Point","coordinates":[12.206292975,44.412357156]},"display_name":"Porta Garibaldi,from:MIBACT","category":"attractions","type":"Porta","importance":0.7,"icon":"","visiting_time":0.0,"opening_hours":"ok","opening_days":"ok","rating":0,"photo_url":null,"description":null,"www":"\"http://vincoliinrete.beniculturali.it/VincoliInRete/vir/bene/dettagliobene20400,http://vincoliinrete.beniculturali.it/VincoliInRete/vir/bene/dettagliobene287922\""},{"place_id":"15954","geometry":{"type":"Point","coordinates":[12.200929134,44.416149734]},"display_name":"Tomba di Dante,from:MIBACT","category":"attractions","type":"Monumento","importance":0.9,"icon":"","visiting_time":0.0,"opening_hours":"ok","opening_days":"ok","rating":0,"photo_url":null,"description":null,"www":"\"http://vincoliinrete.beniculturali.it/VincoliInRete/vir/bene/dettagliobene227809,http://vincoliinrete.beniculturali.it/VincoliInRete/vir/bene/dettagliobene89807\""},{"place_id":"16122","geometry":{"type":"Point","coordinates":[12.028733804,44.226415004]},"display_name":"Porta Schiavonia,from:MIBACT","category":"attractions","type":"Porta","importance":0.7,"icon":"","visiting_time":0.0,"opening_hours":"ok","opening_days":"ok","rating":0,"photo_url":null,"description":null,"www":"\"http://vincoliinrete.beniculturali.it/VincoliInRete/vir/bene/dettagliobene288012,http://vincoliinrete.beniculturali.it/VincoliInRete/vir/bene/dettagliobene90934\""},{"place_id":"16220","geometry":{"type":"Point","coordinates":[12.197143459,44.420447083]},"display_name":"Chiesa di Santa Maria Maggiore,from:MIBACT","category":"attractions","type":"Chiesa","importance":0.7,"icon":"","visiting_time":0.0,"opening_hours":"ok","opening_days":"ok","rating":0,"photo_url":null,"description":null,"www":"\"http://vincoliinrete.beniculturali.it/VincoliInRete/vir/bene/dettagliobene143715,http://vincoliinrete.beniculturali.it/VincoliInRete/vir/bene/dettagliobene155575,http://vincoliinrete.beniculturali.it/VincoliInRete/vir/bene/dettagliobene153746,http://vincoliinrete.beniculturali.it/VincoliInRete/vir/bene/dettagliobene140188,http://vincoliinrete.beniculturali.it/VincoliInRete/vir/bene/dettagliobene89861,http://vincoliinrete.beniculturali.it/VincoliInRete/vir/bene/dettagliobene89853,http://vincoliinrete.beniculturali.it/VincoliInRete/vir/bene/dettagliobene89863\""},{"place_id":"16412","geometry":{"type":"Point","coordinates":[12.194926925,44.418817266]},"display_name":"Chiesa di Santa Eufemia,from:MIBACT","category":"attractions","type":"Chiesa","importance":0.7,"icon":"","visiting_time":0.0,"opening_hours":"ok","opening_days":"ok","rating":0,"photo_url":null,"description":null,"www":"\"http://vincoliinrete.beniculturali.it/VincoliInRete/vir/bene/dettagliobene158406,http://vincoliinrete.beniculturali.it/VincoliInRete/vir/bene/dettagliobene137704,http://vincoliinrete.beniculturali.it/VincoliInRete/vir/bene/dettagliobene89795\""},{"place_id":"16414","geometry":{"type":"Point","coordinates":[12.193583541,44.418310343]},"display_name":"Chiesa dei Santi Giovanni e Paolo,from:MIBACT","category":"attractions","type":"Chiesa","importance":0.7,"icon":"","visiting_time":0.0,"opening_hours":"ok","opening_days":"ok","rating":0,"photo_url":null,"description":null,"www":"\"http://vincoliinrete.beniculturali.it/VincoliInRete/vir/bene/dettagliobene89803,http://vincoliinrete.beniculturali.it/VincoliInRete/vir/bene/dettagliobene89783,http://vincoliinrete.beniculturali.it/VincoliInRete/vir/bene/dettagliobene89805\""},{"place_id":"16415","geometry":{"type":"Point","coordinates":[12.198323052,44.418693702]},"display_name":"Chiesa di San Domenico,from:MIBACT","category":"attractions","type":"Chiesa","importance":0.7,"icon":"","visiting_time":0.0,"opening_hours":"ok","opening_days":"ok","rating":0,"photo_url":null,"description":null,"www":"\"http://vincoliinrete.beniculturali.it/VincoliInRete/vir/bene/dettagliobene139960,http://vincoliinrete.beniculturali.it/VincoliInRete/vir/bene/dettagliobene89793\""},{"place_id":"16430","geometry":{"type":"Point","coordinates":[12.20277121,44.415819418]},"display_name":"Monastero delle Monache Carmelitane,from:MIBACT","category":"attractions","type":"Convento","importance":0.0,"icon":"","visiting_time":0.0,"opening_hours":"ok","opening_days":"ok","rating":0,"photo_url":null,"description":null,"www":"\"http://vincoliinrete.beniculturali.it/VincoliInRete/vir/bene/dettagliobene86073,http://vincoliinrete.beniculturali.it/VincoliInRete/vir/bene/dettagliobene86071,http://vincoliinrete.beniculturali.it/VincoliInRete/vir/bene/dettagliobene86075\""},{"place_id":"16432","geometry":{"type":"Point","coordinates":[12.196254578,44.415767659]},"display_name":"Colonna della Vergine,from:MIBACT","category":"attractions","type":"Elemento","importance":0.7,"icon":"","visiting_time":0.0,"opening_hours":"ok","opening_days":"ok","rating":0,"photo_url":null,"description":null,"www":null},{"place_id":"16449","geometry":{"type":"Point","coordinates":[12.198646173,44.417560933]},"display_name":"Colonna dell'aquila,from:MIBACT","category":"attractions","type":"Elemento","importance":0.4,"icon":"","visiting_time":0.0,"opening_hours":"ok","opening_days":"ok","rating":0,"photo_url":null,"description":null,"www":null},{"place_id":"16462","geometry":{"type":"Point","coordinates":[12.201410418,44.414974595]},"display_name":"Ex Ospedale di Santa Maria delle Croci,from:MIBACT","category":"attractions","type":"Ospedale","importance":0.4,"icon":"","visiting_time":0.0,"opening_hours":"ok","opening_days":"ok","rating":0,"photo_url":null,"description":null,"www":null},{"place_id":"16471","geometry":{"type":"Point","coordinates":[12.044194139,44.224362369]},"display_name":"Chiesa del Carmine ed ex Convento dei Carmelitani,from:MIBACT","category":"attractions","type":"Chiesa","importance":0.9,"icon":"","visiting_time":0.0,"opening_hours":"ok","opening_days":"ok","rating":0,"photo_url":null,"description":null,"www":"\"http://vincoliinrete.beniculturali.it/VincoliInRete/vir/bene/dettagliobene141061,http://vincoliinrete.beniculturali.it/VincoliInRete/vir/bene/dettagliobene155601,http://vincoliinrete.beniculturali.it/VincoliInRete/vir/bene/dettagliobene141056,http://vincoliinrete.beniculturali.it/VincoliInRete/vir/bene/dettagliobene90882\""},{"place_id":"16472","geometry":{"type":"Point","coordinates":[12.04208328,44.219801409]},"display_name":"Chiesa di Santa Maria dei Servi - San Pellegrino Laziosi,from:MIBACT","category":"attractions","type":"Chiesa","importance":0.9,"icon":"","visiting_time":0.0,"opening_hours":"ok","opening_days":"ok","rating":0,"photo_url":null,"description":null,"www":"\"http://vincoliinrete.beniculturali.it/VincoliInRete/vir/bene/dettagliobene90852,http://vincoliinrete.beniculturali.it/VincoliInRete/vir/bene/dettagliobene90860,http://vincoliinrete.beniculturali.it/VincoliInRete/vir/bene/dettagliobene90866\""},{"place_id":"16518","geometry":{"type":"Point","coordinates":[12.202240493,44.415186779]},"display_name":"Chiesa di San Carlino,from:MIBACT","category":"attractions","type":"Chiesa","importance":0.0,"icon":"","visiting_time":0.0,"opening_hours":"ok","opening_days":"ok","rating":0,"photo_url":null,"description":null,"www":"\"http://vincoliinrete.beniculturali.it/VincoliInRete/vir/bene/dettagliobene89813,http://vincoliinrete.beniculturali.it/VincoliInRete/vir/bene/dettagliobene137770,http://vincoliinrete.beniculturali.it/VincoliInRete/vir/bene/dettagliobene89811,http://vincoliinrete.beniculturali.it/VincoliInRete/vir/bene/dettagliobene155545,http://vincoliinrete.beniculturali.it/VincoliInRete/vir/bene/dettagliobene89785\""},{"place_id":"17185","geometry":{"type":"Point","coordinates":[12.197609427,44.415209003]},"display_name":"Museo e cappella arcivescovile,from:MIBACT","category":"attractions","type":"Palazzo","importance":1.0,"icon":"","visiting_time":0.0,"opening_hours":"ok","opening_days":"ok","rating":0,"photo_url":null,"description":null,"www":null},{"place_id":"17261","geometry":{"type":"Point","coordinates":[12.199858332,44.416455542]},"display_name":"Chiesa di Santa Maria Maddalena,from:MIBACT","category":"attractions","type":"Chiesa","importance":0.0,"icon":"","visiting_time":0.0,"opening_hours":"ok","opening_days":"ok","rating":0,"photo_url":null,"description":null,"www":"http://vincoliinrete.beniculturali.it/VincoliInRete/vir/bene/dettagliobene89873"},{"place_id":"18631","geometry":{"type":"Point","coordinates":[12.041674606,44.220353274]},"display_name":"Palazzo dei Signori della Missione,from:MIBACT","category":"attractions","type":"Palazzo","importance":0.7,"icon":"","visiting_time":0.0,"opening_hours":"ok","opening_days":"ok","rating":0,"photo_url":null,"description":null,"www":null},{"place_id":"16461","geometry":{"type":"Point","coordinates":[12.201090437,44.415360341]},"display_name":"Ex Chiesa di Santa Maria delle Croci,from:MIBACT","category":"attractions","type":"Chiesa","importance":0.7,"icon":"","visiting_time":0.0,"opening_hours":"ok","opening_days":"ok","rating":0,"photo_url":null,"description":null,"www":"\"http://vincoliinrete.beniculturali.it/VincoliInRete/vir/bene/dettagliobene137688,http://vincoliinrete.beniculturali.it/VincoliInRete/vir/bene/dettagliobene89839\""},{"place_id":"9053","geometry":{"type":"Point","coordinates":[12.039987641,44.222281202]},"display_name":"Palazzo del Podestà,from:MIBACT","category":"attractions","type":"Palazzo","importance":0.9,"icon":"","visiting_time":0.0,"opening_hours":"ok","opening_days":"ok","rating":0,"photo_url":null,"description":null,"www":"http://vincoliinrete.beniculturali.it/VincoliInRete/vir/bene/dettagliobene89097"},{"place_id":"9007","geometry":{"type":"Point","coordinates":[12.034987616,44.223986486]},"display_name":"Palazzo Acconci ora Galletti,from:MIBACT","category":"attractions","type":"Palazzo","importance":0.7,"icon":"","visiting_time":0.0,"opening_hours":"ok","opening_days":"ok","rating":0,"photo_url":null,"description":null,"www":"\"http://vincoliinrete.beniculturali.it/VincoliInRete/vir/bene/dettagliobene330325,http://vincoliinrete.beniculturali.it/VincoliInRete/vir/bene/dettagliobene89059,http://vincoliinrete.beniculturali.it/VincoliInRete/vir/bene/dettagliobene341483\""},{"place_id":"8955","geometry":{"type":"Point","coordinates":[12.205428072,44.422032729]},"display_name":"Rocca Brancaleone,from:MIBACT","category":"attractions","type":"Rocca","importance":0.9,"icon":"","visiting_time":0.0,"opening_hours":"ok","opening_days":"ok","rating":0,"photo_url":null,"description":null,"www":"\"http://vincoliinrete.beniculturali.it/VincoliInRete/vir/bene/dettagliobene279512,http://vincoliinrete.beniculturali.it/VincoliInRete/vir/bene/dettagliobene92096,http://vincoliinrete.beniculturali.it/VincoliInRete/vir/bene/dettagliobene278741\""},{"place_id":"8914","geometry":{"type":"Point","coordinates":[12.038427902,44.222544568]},"display_name":"Palazzo del Monte di Pietà,from:MIBACT","category":"attractions","type":"Palazzo","importance":0.7,"icon":"","visiting_time":0.0,"opening_hours":"ok","opening_days":"ok","rating":0,"photo_url":null,"description":null,"www":"\"http://vincoliinrete.beniculturali.it/VincoliInRete/vir/bene/dettagliobene341375,http://vincoliinrete.beniculturali.it/VincoliInRete/vir/bene/dettagliobene89045\""},{"place_id":"8910","geometry":{"type":"Point","coordinates":[12.035357326,44.223001168]},"display_name":"Casa natale di Aurelio Saffi,from:MIBACT","category":"attractions","type":"Palazzo","importance":0.7,"icon":"","visiting_time":0.0,"opening_hours":"ok","opening_days":"ok","rating":0,"photo_url":null,"description":null,"www":"\"http://vincoliinrete.beniculturali.it/VincoliInRete/vir/bene/dettagliobene330324,http://vincoliinrete.beniculturali.it/VincoliInRete/vir/bene/dettagliobene330288,http://vincoliinrete.beniculturali.it/VincoliInRete/vir/bene/dettagliobene89033\""},{"place_id":"8847","geometry":{"type":"Point","coordinates":[12.034019792,44.225044364]},"display_name":"Palazzo Manzoni,from:MIBACT","category":"attractions","type":"Palazzo","importance":0.7,"icon":"","visiting_time":0.0,"opening_hours":"ok","opening_days":"ok","rating":0,"photo_url":null,"description":null,"www":"\"http://vincoliinrete.beniculturali.it/VincoliInRete/vir/bene/dettagliobene89053,http://vincoliinrete.beniculturali.it/VincoliInRete/vir/bene/dettagliobene386905\""},{"place_id":"9322","geometry":{"type":"Point","coordinates":[12.037027741,44.224070939]},"display_name":"Palazzo Albicini,from:MIBACT","category":"attractions","type":"Palazzo","importance":0.7,"icon":"","visiting_time":0.0,"opening_hours":"ok","opening_days":"ok","rating":0,"photo_url":null,"description":null,"www":"\"http://vincoliinrete.beniculturali.it/VincoliInRete/vir/bene/dettagliobene89047,http://vincoliinrete.beniculturali.it/VincoliInRete/vir/bene/dettagliobene346139\""},{"place_id":"17199","geometry":{"type":"Point","coordinates":[12.324333668,44.272988474]},"display_name":"Santuario della Madonna del Pino,from:MIBACT","category":"attractions","type":"Chiesa","importance":0.7,"icon":"","visiting_time":0.0,"opening_hours":"ok","opening_days":"ok","rating":0,"photo_url":null,"description":null,"www":null},{"place_id":"8453","geometry":{"type":"Point","coordinates":[12.199509094,44.418769828]},"display_name":"Casa Minzoni (facciata del secolo XV),from:MIBACT","category":"attractions","type":"Palazzo","importance":0.7,"icon":"","visiting_time":0.0,"opening_hours":"ok","opening_days":"ok","rating":0,"photo_url":null,"description":null,"www":"\"http://vincoliinrete.beniculturali.it/VincoliInRete/vir/bene/dettagliobene339830,http://vincoliinrete.beniculturali.it/VincoliInRete/vir/bene/dettagliobene328272,http://vincoliinrete.beniculturali.it/VincoliInRete/vir/bene/dettagliobene91885\""},{"place_id":"8401","geometry":{"type":"Point","coordinates":[12.20114856,44.416326063]},"display_name":"Chiostri Francescani,from:MIBACT","category":"attractions","type":"Convento","importance":0.7,"icon":"","visiting_time":0.0,"opening_hours":"ok","opening_days":"ok","rating":0,"photo_url":null,"description":null,"www":"\"http://vincoliinrete.beniculturali.it/VincoliInRete/vir/bene/dettagliobene224683,http://vincoliinrete.beniculturali.it/VincoliInRete/vir/bene/dettagliobene91666,http://vincoliinrete.beniculturali.it/VincoliInRete/vir/bene/dettagliobene221916,http://vincoliinrete.beniculturali.it/VincoliInRete/vir/bene/dettagliobene219588,http://vincoliinrete.beniculturali.it/VincoliInRete/vir/bene/dettagliobene489712\""},{"place_id":"8365","geometry":{"type":"Point","coordinates":[12.037015574,44.2215146]},"display_name":"Ex Chiesa di San Sebastiano,from:MIBACT","category":"attractions","type":"Chiesa","importance":0.9,"icon":"","visiting_time":0.0,"opening_hours":"ok","opening_days":"ok","rating":0,"photo_url":null,"description":null,"www":"\"http://vincoliinrete.beniculturali.it/VincoliInRete/vir/bene/dettagliobene89063,http://vincoliinrete.beniculturali.it/VincoliInRete/vir/bene/dettagliobene141058\""},{"place_id":"8340","geometry":{"type":"Point","coordinates":[12.257774261,44.261234195]},"display_name":"Castello Rasponi,from:MIBACT","category":"attractions","type":"Palazzo","importance":0.7,"icon":"","visiting_time":0.0,"opening_hours":"ok","opening_days":"ok","rating":0,"photo_url":null,"description":null,"www":"\"http://vincoliinrete.beniculturali.it/VincoliInRete/vir/bene/dettagliobene344740,http://vincoliinrete.beniculturali.it/VincoliInRete/vir/bene/dettagliobene91674\""},{"place_id":"8284","geometry":{"type":"Point","coordinates":[12.199380454,44.416941655]},"display_name":"Casa Minzoni,from:MIBACT","category":"attractions","type":"Casa","importance":0.7,"icon":"","visiting_time":0.0,"opening_hours":"ok","opening_days":"ok","rating":0,"photo_url":null,"description":null,"www":"\"http://vincoliinrete.beniculturali.it/VincoliInRete/vir/bene/dettagliobene91668,http://vincoliinrete.beniculturali.it/VincoliInRete/vir/bene/dettagliobene328339\""},{"place_id":"8174","geometry":{"type":"Point","coordinates":[12.205759563,44.414451058]},"display_name":"Basilica di Santa Maria in Porto,from:MIBACT","category":"attractions","type":"Chiesa","importance":0.9,"icon":"","visiting_time":0.0,"opening_hours":"ok","opening_days":"ok","rating":0,"photo_url":null,"description":null,"www":"\"http://vincoliinrete.beniculturali.it/VincoliInRete/vir/bene/dettagliobene140300,http://vincoliinrete.beniculturali.it/VincoliInRete/vir/bene/dettagliobene92122\""},{"place_id":"7893","geometry":{"type":"Point","coordinates":[12.201149365,44.419133979]},"display_name":"Casa Maioli Stanghellini,from:MIBACT","category":"attractions","type":"Casa","importance":0.7,"icon":"","visiting_time":0.0,"opening_hours":"ok","opening_days":"ok","rating":0,"photo_url":null,"description":null,"www":"\"http://vincoliinrete.beniculturali.it/VincoliInRete/vir/bene/dettagliobene330017,http://vincoliinrete.beniculturali.it/VincoliInRete/vir/bene/dettagliobene91709\""},{"place_id":"7824","geometry":{"type":"Point","coordinates":[12.036447091,44.216547686]},"display_name":"Rocca di Ravaldino,from:MIBACT","category":"attractions","type":"Rocca","importance":0.9,"icon":"","visiting_time":0.0,"opening_hours":"ok","opening_days":"ok","rating":0,"photo_url":null,"description":null,"www":"\"http://vincoliinrete.beniculturali.it/VincoliInRete/vir/bene/dettagliobene417606,http://vincoliinrete.beniculturali.it/VincoliInRete/vir/bene/dettagliobene279676,http://vincoliinrete.beniculturali.it/VincoliInRete/vir/bene/dettagliobene90938,http://vincoliinrete.beniculturali.it/VincoliInRete/vir/bene/dettagliobene279687\""},{"place_id":"13141","geometry":{"type":"Point","coordinates":[12.079448093,44.301111741]},"display_name":"Torre Albicini,from:MIBACT","category":"attractions","type":"Torre","importance":0.7,"icon":"","visiting_time":0.0,"opening_hours":"ok","opening_days":"ok","rating":0,"photo_url":null,"description":null,"www":"\"http://vincoliinrete.beniculturali.it/VincoliInRete/vir/bene/dettagliobene273073,http://vincoliinrete.beniculturali.it/VincoliInRete/vir/bene/dettagliobene91682\""},{"place_id":"13727","geometry":{"type":"Point","coordinates":[12.199997137,44.414285482]},"display_name":"\"Ex Chiesa di San Romualdo e monastero camaldolese, poi Biblioteca Classense\",from:MIBACT","category":"attractions","type":"Convento","importance":0.7,"icon":"","visiting_time":0.0,"opening_hours":"ok","opening_days":"ok","rating":0,"photo_url":null,"description":null,"www":"http://www.giornatefai.it/luoghi/88990"},{"place_id":"15681","geometry":{"type":"Point","coordinates":[12.202880254,44.418826471]},"display_name":"Basilica dello Spirito Santo,from:MIBACT","category":"attractions","type":"Chiesa","importance":0.9,"icon":"","visiting_time":0.0,"opening_hours":"ok","opening_days":"ok","rating":0,"photo_url":null,"description":null,"www":"\"http://vincoliinrete.beniculturali.it/VincoliInRete/vir/bene/dettagliobene89779,http://vincoliinrete.beniculturali.it/VincoliInRete/vir/bene/dettagliobene139246\""},{"place_id":"15768","geometry":{"type":"Point","coordinates":[12.199212075,44.41769824]},"display_name":"Colonne di piazza del Popolo,from:MIBACT","category":"attractions","type":"Elemento","importance":0.7,"icon":"","visiting_time":0.0,"opening_hours":"ok","opening_days":"ok","rating":0,"photo_url":null,"description":null,"www":null},{"place_id":"15771","geometry":{"type":"Point","coordinates":[12.19992289,44.419010566]},"display_name":"Casa Melandri,from:MIBACT","category":"attractions","type":"Casa","importance":0.7,"icon":"","visiting_time":0.0,"opening_hours":"ok","opening_days":"ok","rating":0,"photo_url":null,"description":null,"www":"http://vincoliinrete.beniculturali.it/VincoliInRete/vir/bene/dettagliobene89869"},{"place_id":"15773","geometry":{"type":"Point","coordinates":[12.201669429,44.422536883]},"display_name":"Porta Serrata,from:MIBACT","category":"attractions","type":"Porta","importance":0.7,"icon":"","visiting_time":0.0,"opening_hours":"ok","opening_days":"ok","rating":0,"photo_url":null,"description":null,"www":"\"http://vincoliinrete.beniculturali.it/VincoliInRete/vir/bene/dettagliobene89885,http://vincoliinrete.beniculturali.it/VincoliInRete/vir/bene/dettagliobene170741\""},{"place_id":"15944","geometry":{"type":"Point","coordinates":[12.194197041,44.419628122]},"display_name":"Bastioni di Porta Adriana,from:MIBACT","category":"attractions","type":"Porta","importance":0.9,"icon":"","visiting_time":0.0,"opening_hours":"ok","opening_days":"ok","rating":0,"photo_url":null,"description":null,"www":"http://vincoliinrete.beniculturali.it/VincoliInRete/vir/bene/dettagliobene221250"},{"place_id":"16075","geometry":{"type":"Point","coordinates":[12.19349699,44.382188653]},"display_name":"Colonna dei Francesi,from:MIBACT","category":"attractions","type":"Elemento","importance":0.7,"icon":"","visiting_time":0.0,"opening_hours":"ok","opening_days":"ok","rating":0,"photo_url":null,"description":null,"www":"\"http://vincoliinrete.beniculturali.it/VincoliInRete/vir/bene/dettagliobene277771,http://vincoliinrete.beniculturali.it/VincoliInRete/vir/bene/dettagliobene89756\""},{"place_id":"16076","geometry":{"type":"Point","coordinates":[12.206262302,44.413758384]},"display_name":"Loggetta Lombardesca - Museo d'Arte della Città di Ravenna,from:MIBACT","category":"attractions","type":"Convento","importance":1.0,"icon":"","visiting_time":0.0,"opening_hours":"ok","opening_days":"ok","rating":0,"photo_url":null,"description":null,"www":"http://vincoliinrete.beniculturali.it/VincoliInRete/vir/bene/dettagliobene225584"},{"place_id":"16226","geometry":{"type":"Point","coordinates":[12.197210636,44.421132893]},"display_name":"Chiesa di Santa Croce,from:MIBACT","category":"attractions","type":"Chiesa","importance":0.7,"icon":"","visiting_time":0.0,"opening_hours":"ok","opening_days":"ok","rating":0,"photo_url":null,"description":null,"www":"http://vincoliinrete.beniculturali.it/VincoliInRete/vir/bene/dettagliobene143737"},{"place_id":"18644","geometry":{"type":"Point","coordinates":[12.273920762,44.242423006]},"display_name":"Chiesa di Santo Stefano di Pisignano e pertinenze,from:MIBACT","category":"attractions","type":"Chiesa","importance":0.7,"icon":"","visiting_time":0.0,"opening_hours":"ok","opening_days":"ok","rating":0,"photo_url":null,"description":null,"www":null},{"place_id":"15086","geometry":{"type":"Point","coordinates":[12.19992289,44.419010566]},"display_name":"Torre Civica,from:MIBACT","category":"attractions","type":"Torre","importance":0.7,"icon":"","visiting_time":0.0,"opening_hours":"ok","opening_days":"ok","rating":0,"photo_url":null,"description":null,"www":"http://vincoliinrete.beniculturali.it/VincoliInRete/vir/bene/dettagliobene272666"},{"place_id":"7728","geometry":{"type":"Point","coordinates":[12.202649431,44.418705065]},"display_name":"\"Casa di Drogdone (avanzi, croci marmoree secolo VI)\",from:MIBACT","category":"attractions","type":"Elemento","importance":0.7,"icon":"","visiting_time":0.0,"opening_hours":"ok","opening_days":"ok","rating":0,"photo_url":null,"description":null,"www":"\"http://vincoliinrete.beniculturali.it/VincoliInRete/vir/bene/dettagliobene91848,http://vincoliinrete.beniculturali.it/VincoliInRete/vir/bene/dettagliobene328305\""},{"place_id":"15967","geometry":{"type":"Point","coordinates":[12.042274778,44.222529908]},"display_name":"Basilica di San Mercuriale,from:MIBACT","category":"attractions","type":"Chiesa","importance":0.9,"icon":"","visiting_time":0.0,"opening_hours":"ok","opening_days":"ok","rating":0,"photo_url":null,"description":null,"www":"\"http://vincoliinrete.beniculturali.it/VincoliInRete/vir/bene/dettagliobene146726,http://vincoliinrete.beniculturali.it/VincoliInRete/vir/bene/dettagliobene276938,http://vincoliinrete.beniculturali.it/VincoliInRete/vir/bene/dettagliobene90832,http://vincoliinrete.beniculturali.it/VincoliInRete/vir/bene/dettagliobene90793,http://vincoliinrete.beniculturali.it/VincoliInRete/vir/bene/dettagliobene90834,http://vincoliinrete.beniculturali.it/VincoliInRete/vir/bene/dettagliobene155452,http://vincoliinrete.beniculturali.it/VincoliInRete/vir/bene/dettagliobene90821,http://vincoliinrete.beniculturali.it/VincoliInRete/vir/bene/dettagliobene90811\""},{"place_id":"8233","geometry":{"type":"Point","coordinates":[12.092650648,44.24940842]},"display_name":"\"Pieve di Santa Maria in Acquedotto, canonica e pertinenze\",from:MIBACT","category":"attractions","type":"Chiesa","importance":0.9,"icon":"","visiting_time":0.0,"opening_hours":"ok","opening_days":"ok","rating":0,"photo_url":null,"description":null,"www":"http://vincoliinrete.beniculturali.it/VincoliInRete/vir/bene/dettagliobene230247"},{"place_id":"8186","geometry":{"type":"Point","coordinates":[12.041357752,44.224612215]},"display_name":"Torre Numai,from:MIBACT","category":"attractions","type":"Torre","importance":0.4,"icon":"","visiting_time":0.0,"opening_hours":"ok","opening_days":"ok","rating":0,"photo_url":null,"description":null,"www":"\"http://vincoliinrete.beniculturali.it/VincoliInRete/vir/bene/dettagliobene273331,http://vincoliinrete.beniculturali.it/VincoliInRete/vir/bene/dettagliobene89087\""},{"place_id":"19825","geometry":{"type":"Point","coordinates":[12.151809199,44.355737133]},"display_name":"Chiesa di Sant'Apollinare in Longana,from:MIBACT","category":"attractions","type":"Chiesa","importance":0.7,"icon":"","visiting_time":0.0,"opening_hours":"ok","opening_days":"ok","rating":0,"photo_url":null,"description":null,"www":"http://vincoliinrete.beniculturali.it/VincoliInRete/vir/bene/dettagliobene230237"},{"place_id":"8725","geometry":{"type":"Point","coordinates":[12.197001296,44.419625793]},"display_name":"Casa Traversari,from:MIBACT","category":"attractions","type":"Casa","importance":0.7,"icon":"","visiting_time":0.0,"opening_hours":"ok","opening_days":"ok","rating":0,"photo_url":null,"description":null,"www":"\"http://vincoliinrete.beniculturali.it/VincoliInRete/vir/bene/dettagliobene92143,http://vincoliinrete.beniculturali.it/VincoliInRete/vir/bene/dettagliobene330014\""},{"place_id":"8710","geometry":{"type":"Point","coordinates":[12.204676613,44.416147563]},"display_name":"C.d. Palazzo di Teodorico,from:MIBACT","category":"attractions","type":"Chiesa","importance":0.9,"icon":"","visiting_time":0.0,"opening_hours":"ok","opening_days":"ok","rating":0,"photo_url":null,"description":null,"www":"\"http://vincoliinrete.beniculturali.it/VincoliInRete/vir/bene/dettagliobene343459,http://vincoliinrete.beniculturali.it/VincoliInRete/vir/bene/dettagliobene92120\""},{"place_id":"7956","geometry":{"type":"Point","coordinates":[12.199936993,44.413801027]},"display_name":"Ex Chiesa di San Nicolò,from:MIBACT","category":"attractions","type":"Chiesa","importance":0.4,"icon":"","visiting_time":0.0,"opening_hours":"ok","opening_days":"ok","rating":0,"photo_url":null,"description":null,"www":"\"http://vincoliinrete.beniculturali.it/VincoliInRete/vir/bene/dettagliobene137779,http://vincoliinrete.beniculturali.it/VincoliInRete/vir/bene/dettagliobene92137\""},{"place_id":"16451","geometry":{"type":"Point","coordinates":[12.201147674,44.4159136]},"display_name":"Basilica di San Francesco,from:MIBACT","category":"attractions","type":"Chiesa","importance":0.9,"icon":"","visiting_time":0.0,"opening_hours":"ok","opening_days":"ok","rating":0,"photo_url":null,"description":null,"www":"\"http://vincoliinrete.beniculturali.it/VincoliInRete/vir/bene/dettagliobene91908,http://vincoliinrete.beniculturali.it/VincoliInRete/vir/bene/dettagliobene91924,http://vincoliinrete.beniculturali.it/VincoliInRete/vir/bene/dettagliobene155349,http://vincoliinrete.beniculturali.it/VincoliInRete/vir/bene/dettagliobene143716,http://vincoliinrete.beniculturali.it/VincoliInRete/vir/bene/dettagliobene397485\""},{"place_id":"8687","geometry":{"type":"Point","coordinates":[12.081602171,44.311500933]},"display_name":"Pieve dei Santi Pietro e Paolo in Trento e pertinenze,from:MIBACT","category":"attractions","type":"Chiesa","importance":0.7,"icon":"","visiting_time":0.0,"opening_hours":"ok","opening_days":"ok","rating":0,"photo_url":null,"description":null,"www":"http://vincoliinrete.beniculturali.it/VincoliInRete/vir/bene/dettagliobene140304"},{"place_id":"17012","geometry":{"type":"Point","coordinates":[12.199323499,44.299375433]},"display_name":"Pieve di San Cassiano,from:MIBACT","category":"attractions","type":"Chiesa","importance":0.7,"icon":"","visiting_time":0.0,"opening_hours":"ok","opening_days":"ok","rating":0,"photo_url":null,"description":null,"www":null},{"place_id":"15964","geometry":{"type":"Point","coordinates":[12.196394905,44.420559355]},"display_name":"Basilica di San Vitale,from:MIBACT","category":"attractions","type":"Chiesa","importance":1.0,"icon":"","visiting_time":0.0,"opening_hours":"ok","opening_days":"ok","rating":0,"photo_url":null,"description":null,"www":"\"http://vincoliinrete.beniculturali.it/VincoliInRete/vir/bene/dettagliobene318483,http://vincoliinrete.beniculturali.it/VincoliInRete/vir/bene/dettagliobene91930,http://vincoliinrete.beniculturali.it/VincoliInRete/vir/bene/dettagliobene155554,http://vincoliinrete.beniculturali.it/VincoliInRete/vir/bene/dettagliobene91928\""},{"place_id":"9402","geometry":{"type":"Point","coordinates":[12.202423162,44.418690939]},"display_name":"Battistero degli Ariani,from:MIBACT","category":"attractions","type":"Battistero","importance":0.9,"icon":"","visiting_time":0.0,"opening_hours":"ok","opening_days":"ok","rating":0,"photo_url":null,"description":null,"www":"\"http://vincoliinrete.beniculturali.it/VincoliInRete/vir/bene/dettagliobene180002,http://vincoliinrete.beniculturali.it/VincoliInRete/vir/bene/dettagliobene91698\""},{"place_id":"16194","geometry":{"type":"Point","coordinates":[12.201529167,44.413967165]},"display_name":"Chiesa di Sant'Agata Maggiore,from:MIBACT","category":"attractions","type":"Chiesa","importance":0.9,"icon":"","visiting_time":0.0,"opening_hours":"ok","opening_days":"ok","rating":0,"photo_url":null,"description":null,"www":"\"http://vincoliinrete.beniculturali.it/VincoliInRete/vir/bene/dettagliobene175497,http://vincoliinrete.beniculturali.it/VincoliInRete/vir/bene/dettagliobene89849,http://vincoliinrete.beniculturali.it/VincoliInRete/vir/bene/dettagliobene153747,http://vincoliinrete.beniculturali.it/VincoliInRete/vir/bene/dettagliobene89859,http://vincoliinrete.beniculturali.it/VincoliInRete/vir/bene/dettagliobene89847,http://vincoliinrete.beniculturali.it/VincoliInRete/vir/bene/dettagliobene397469,http://vincoliinrete.beniculturali.it/VincoliInRete/vir/bene/dettagliobene143718\""},{"place_id":"15769","geometry":{"type":"Point","coordinates":[12.197340933,44.415597523]},"display_name":"Battistero Neoniano o degli Ortodossi,from:MIBACT","category":"attractions","type":"Battistero","importance":1.0,"icon":"","visiting_time":0.0,"opening_hours":"ok","opening_days":"ok","rating":0,"photo_url":null,"description":null,"www":"\"http://vincoliinrete.beniculturali.it/VincoliInRete/vir/bene/dettagliobene397472,http://vincoliinrete.beniculturali.it/VincoliInRete/vir/bene/dettagliobene179996\""},{"place_id":"15094","geometry":{"type":"Point","coordinates":[12.205681773,44.418352802]},"display_name":"Chiesa di San Giovanni Evangelista,from:MIBACT","category":"attractions","type":"Chiesa","importance":1.0,"icon":"","visiting_time":0.0,"opening_hours":"ok","opening_days":"ok","rating":0,"photo_url":null,"description":null,"www":"\"http://vincoliinrete.beniculturali.it/VincoliInRete/vir/bene/dettagliobene89789,http://vincoliinrete.beniculturali.it/VincoliInRete/vir/bene/dettagliobene132367,http://vincoliinrete.beniculturali.it/VincoliInRete/vir/bene/dettagliobene317882,http://vincoliinrete.beniculturali.it/VincoliInRete/vir/bene/dettagliobene89833,http://vincoliinrete.beniculturali.it/VincoliInRete/vir/bene/dettagliobene89831\""},{"place_id":"9305","geometry":{"type":"Point","coordinates":[12.19944966,44.418643459]},"display_name":"Ex Chiesa di San Michele in Africisco,from:MIBACT","category":"attractions","type":"Chiesa","importance":0.7,"icon":"","visiting_time":0.0,"opening_hours":"ok","opening_days":"ok","rating":0,"photo_url":null,"description":null,"www":"\"http://vincoliinrete.beniculturali.it/VincoliInRete/vir/bene/dettagliobene143717,http://vincoliinrete.beniculturali.it/VincoliInRete/vir/bene/dettagliobene137784,http://vincoliinrete.beniculturali.it/VincoliInRete/vir/bene/dettagliobene91789,http://vincoliinrete.beniculturali.it/VincoliInRete/vir/bene/dettagliobene155576\""},{"place_id":"16088","geometry":{"type":"Point","coordinates":[12.197080181,44.420963554]},"display_name":"Mausoleo di Galla Placidia,from:MIBACT","category":"attractions","type":"Monumento","importance":1.0,"icon":"","visiting_time":0.0,"opening_hours":"ok","opening_days":"ok","rating":0,"photo_url":null,"description":null,"www":"\"http://vincoliinrete.beniculturali.it/VincoliInRete/vir/bene/dettagliobene286443,http://vincoliinrete.beniculturali.it/VincoliInRete/vir/bene/dettagliobene89829\""},{"place_id":"9360","geometry":{"type":"Point","coordinates":[12.232767802,44.380354709]},"display_name":"Basilica di Sant'Apollinare in Classe,from:MIBACT","category":"attractions","type":"Chiesa","importance":1.0,"icon":"","visiting_time":0.0,"opening_hours":"ok","opening_days":"ok","rating":0,"photo_url":null,"description":null,"www":"\"http://vincoliinrete.beniculturali.it/VincoliInRete/vir/bene/dettagliobene155348,http://vincoliinrete.beniculturali.it/VincoliInRete/vir/bene/dettagliobene92175,http://vincoliinrete.beniculturali.it/VincoliInRete/vir/bene/dettagliobene317881,http://vincoliinrete.beniculturali.it/VincoliInRete/vir/bene/dettagliobene92159,http://vincoliinrete.beniculturali.it/VincoliInRete/vir/bene/dettagliobene317902\""},{"place_id":"9210","geometry":{"type":"Point","coordinates":[12.209716385,44.424581922]},"display_name":"Mausoleo di Teodorico,from:MIBACT","category":"attractions","type":"Monumento","importance":1.0,"icon":"","visiting_time":0.0,"opening_hours":"ok","opening_days":"ok","rating":0,"photo_url":null,"description":null,"www":"\"http://vincoliinrete.beniculturali.it/VincoliInRete/vir/bene/dettagliobene91756,http://vincoliinrete.beniculturali.it/VincoliInRete/vir/bene/dettagliobene286375\""},{"place_id":"16089","geometry":{"type":"Point","coordinates":[12.204837618,44.416754542]},"display_name":"Basilica di Sant'Apollinare Nuovo,from:MIBACT","category":"attractions","type":"Chiesa","importance":1.0,"icon":"","visiting_time":0.0,"opening_hours":"ok","opening_days":"ok","rating":0,"photo_url":null,"description":null,"www":"\"http://vincoliinrete.beniculturali.it/VincoliInRete/vir/bene/dettagliobene175499,http://vincoliinrete.beniculturali.it/VincoliInRete/vir/bene/dettagliobene92131,http://vincoliinrete.beniculturali.it/VincoliInRete/vir/bene/dettagliobene92129,http://vincoliinrete.beniculturali.it/VincoliInRete/vir/bene/dettagliobene316908,http://vincoliinrete.beniculturali.it/VincoliInRete/vir/bene/dettagliobene143711\""}]