[{"place_id":"34464981","geometry":{"type":"Point","coordinates":[10.4665489,44.9015516]},"display_name":"Casa delle contadinerie, Strada della Puia, Sorbolo, PR, EMR, 43155, Italia","category":"attractions","type":"attraction","importance":0.001,"icon":"http://nominatim.openstreetmap.org/images/mapicons/poi_point_of_interest.p.20.png","visiting_time":30.0,"opening_hours":null,"opening_days":null,"rating":0,"photo_url":null,"description":null,"www":null},{"place_id":"153024079","geometry":{"type":"Point","coordinates":[10.39522885,44.8275819]},"display_name":"Strada Viazza di Beneceto, Parma, PR, EMR, 43058, Italia","category":"eating","type":"restaurant","importance":0.001,"icon":"http://nominatim.openstreetmap.org/images/mapicons/food_restaurant.p.20.png","visiting_time":60.0,"opening_hours":null,"opening_days":null,"rating":0,"photo_url":null,"description":null,"www":null},{"place_id":"52034814","geometry":{"type":"Point","coordinates":[10.4238608,44.865671]},"display_name":"Il Cacciatore, 15, Via Aia, Sorbolo, PR, EMR, 43058, Italia","category":"eating","type":"restaurant","importance":0.001,"icon":"http://nominatim.openstreetmap.org/images/mapicons/food_restaurant.p.20.png","visiting_time":60.0,"opening_hours":null,"opening_days":null,"rating":0,"photo_url":null,"description":null,"www":null},{"place_id":"113965217","geometry":{"type":"Point","coordinates":[10.39241729,44.8283103]},"display_name":"Via Bogolese, Sorbolo, PR, EMR, 43058, Italia","category":"eating","type":"restaurant","importance":0.001,"icon":"http://nominatim.openstreetmap.org/images/mapicons/food_restaurant.p.20.png","visiting_time":60.0,"opening_hours":null,"opening_days":null,"rating":0,"photo_url":null,"description":null,"www":null},{"place_id":"111838610","geometry":{"type":"Point","coordinates":[10.423867672,44.86567795]},"display_name":"Trattoria del cacciatore, 15, Via Aia, Sorbolo, PR, EMR, 43058, Italia","category":"eating","type":"restaurant","importance":0.001,"icon":"http://nominatim.openstreetmap.org/images/mapicons/food_restaurant.p.20.png","visiting_time":60.0,"opening_hours":null,"opening_days":null,"rating":0,"photo_url":null,"description":null,"www":null},{"place_id":"153024079","geometry":{"type":"Point","coordinates":[10.39522885,44.8275819]},"display_name":"Strada Viazza di Beneceto, Parma, PR, EMR, 43058, Italia","category":"eating","type":"restaurant","importance":0.001,"icon":"http://nominatim.openstreetmap.org/images/mapicons/food_restaurant.p.20.png","visiting_time":60.0,"opening_hours":null,"opening_days":null,"rating":0,"photo_url":null,"description":null,"www":null},{"place_id":"52034814","geometry":{"type":"Point","coordinates":[10.4238608,44.865671]},"display_name":"Il Cacciatore, 15, Via Aia, Sorbolo, PR, EMR, 43058, Italia","category":"eating","type":"restaurant","importance":0.001,"icon":"http://nominatim.openstreetmap.org/images/mapicons/food_restaurant.p.20.png","visiting_time":60.0,"opening_hours":null,"opening_days":null,"rating":0,"photo_url":null,"description":null,"www":null},{"place_id":"113965217","geometry":{"type":"Point","coordinates":[10.39241729,44.8283103]},"display_name":"Via Bogolese, Sorbolo, PR, EMR, 43058, Italia","category":"eating","type":"restaurant","importance":0.001,"icon":"http://nominatim.openstreetmap.org/images/mapicons/food_restaurant.p.20.png","visiting_time":60.0,"opening_hours":null,"opening_days":null,"rating":0,"photo_url":null,"description":null,"www":null},{"place_id":"111838610","geometry":{"type":"Point","coordinates":[10.423867672,44.86567795]},"display_name":"Trattoria del cacciatore, 15, Via Aia, Sorbolo, PR, EMR, 43058, Italia","category":"eating","type":"restaurant","importance":0.001,"icon":"http://nominatim.openstreetmap.org/images/mapicons/food_restaurant.p.20.png","visiting_time":60.0,"opening_hours":null,"opening_days":null,"rating":0,"photo_url":null,"description":null,"www":null},{"place_id":"50334208","geometry":{"type":"Point","coordinates":[10.4655352,44.9095512]},"display_name":"Bar don Bernini, Via Martiri della Libertà, Basse, Mezzani, PR, EMR, 43055, Italia","category":"lifestyle","type":"bar","importance":0.101,"icon":"http://nominatim.openstreetmap.org/images/mapicons/food_bar.p.20.png","visiting_time":10.0,"opening_hours":null,"opening_days":null,"rating":0,"photo_url":null,"description":null,"www":null},{"place_id":"49965795","geometry":{"type":"Point","coordinates":[10.4662787,44.9101253]},"display_name":"bar Le follie, Via Martiri della Libertà, Basse, Mezzani, PR, EMR, 43055, Italia","category":"lifestyle","type":"bar","importance":0.101,"icon":"http://nominatim.openstreetmap.org/images/mapicons/food_bar.p.20.png","visiting_time":10.0,"opening_hours":null,"opening_days":null,"rating":0,"photo_url":null,"description":null,"www":null},{"place_id":"112288338","geometry":{"type":"Point","coordinates":[10.439505856,44.8469819]},"display_name":"Via Gruppini, Sorbolo, PR, EMR, 43058, Italia","category":"lifestyle","type":"bar","importance":0.001,"icon":"http://nominatim.openstreetmap.org/images/mapicons/food_bar.p.20.png","visiting_time":10.0,"opening_hours":null,"opening_days":null,"rating":0,"photo_url":null,"description":null,"www":null},{"place_id":"50334208","geometry":{"type":"Point","coordinates":[10.4655352,44.9095512]},"display_name":"Bar don Bernini, Via Martiri della Libertà, Basse, Mezzani, PR, EMR, 43055, Italia","category":"lifestyle","type":"bar","importance":0.001,"icon":"http://nominatim.openstreetmap.org/images/mapicons/food_bar.p.20.png","visiting_time":90.0,"opening_hours":null,"opening_days":null,"rating":0,"photo_url":null,"description":null,"www":null},{"place_id":"49965795","geometry":{"type":"Point","coordinates":[10.4662787,44.9101253]},"display_name":"bar Le follie, Via Martiri della Libertà, Basse, Mezzani, PR, EMR, 43055, Italia","category":"lifestyle","type":"bar","importance":0.001,"icon":"http://nominatim.openstreetmap.org/images/mapicons/food_bar.p.20.png","visiting_time":90.0,"opening_hours":null,"opening_days":null,"rating":0,"photo_url":null,"description":null,"www":null},{"place_id":"112288338","geometry":{"type":"Point","coordinates":[10.439505856,44.8469819]},"display_name":"Via Gruppini, Sorbolo, PR, EMR, 43058, Italia","category":"lifestyle","type":"bar","importance":0.001,"icon":"http://nominatim.openstreetmap.org/images/mapicons/food_bar.p.20.png","visiting_time":90.0,"opening_hours":null,"opening_days":null,"rating":0,"photo_url":null,"description":null,"www":null},{"place_id":"180169053","geometry":{"type":"Point","coordinates":[-8.3350726,43.2233149]},"display_name":"Abegondo, Galicia, CAFE, España","category":"lifestyle","type":"postcode","importance":0.2125,"icon":null,"visiting_time":10.0,"opening_hours":null,"opening_days":null,"rating":0,"photo_url":null,"description":null,"www":null},{"place_id":"34424930","geometry":{"type":"Point","coordinates":[10.4655964,44.9105544]},"display_name":"Monumento ai Caduti, Via Martiri della Libertà, Basse, Mezzani, PR, EMR, 43055, Italia","category":"attractions","type":"memorial","importance":0.001,"icon":"http://nominatim.openstreetmap.org/images/mapicons/tourist_monument.p.20.png","visiting_time":10.0,"opening_hours":null,"opening_days":null,"rating":0,"photo_url":null,"description":null,"www":null},{"place_id":"34972559","geometry":{"type":"Point","coordinates":[10.4677998,44.9010593]},"display_name":"Monumento all'Enza, Piazza Paini, Coenzo, Sorbolo, PR, EMR, 43155, Italia","category":"attractions","type":"memorial","importance":0.001,"icon":"http://nominatim.openstreetmap.org/images/mapicons/tourist_monument.p.20.png","visiting_time":10.0,"opening_hours":null,"opening_days":null,"rating":0,"photo_url":null,"description":null,"www":null},{"place_id":"34424930","geometry":{"type":"Point","coordinates":[10.4655964,44.9105544]},"display_name":"Monumento ai Caduti, Via Martiri della Libertà, Basse, Mezzani, PR, EMR, 43055, Italia","category":"attractions","type":"memorial","importance":0.101,"icon":"http://nominatim.openstreetmap.org/images/mapicons/tourist_monument.p.20.png","visiting_time":10.0,"opening_hours":null,"opening_days":null,"rating":0,"photo_url":null,"description":null,"www":null},{"place_id":"34972559","geometry":{"type":"Point","coordinates":[10.4677998,44.9010593]},"display_name":"Monumento all'Enza, Piazza Paini, Coenzo, Sorbolo, PR, EMR, 43155, Italia","category":"attractions","type":"memorial","importance":0.101,"icon":"http://nominatim.openstreetmap.org/images/mapicons/tourist_monument.p.20.png","visiting_time":10.0,"opening_hours":null,"opening_days":null,"rating":0,"photo_url":null,"description":null,"www":null},{"place_id":"113327969","geometry":{"type":"Point","coordinates":[10.4665788,44.901531]},"display_name":"Strada della Puia, Sorbolo, PR, EMR, 43155, Italia","category":"attractions","type":"museum","importance":0.001,"icon":"http://nominatim.openstreetmap.org/images/mapicons/tourist_museum.p.20.png","visiting_time":120.0,"opening_hours":null,"opening_days":null,"rating":0,"photo_url":null,"description":null,"www":null},{"place_id":"144025715","geometry":{"type":"Point","coordinates":[10.44047912,44.8461691]},"display_name":"Sorbolo, PR, EMR, Italia","category":"parks","type":"park","importance":0.15,"icon":null,"visiting_time":90.0,"opening_hours":null,"opening_days":null,"rating":0,"photo_url":null,"description":null,"www":null},{"place_id":"141277356","geometry":{"type":"Point","coordinates":[10.448206009,44.8488143]},"display_name":"Andrea Borri, Sorbolo, PR, EMR, Italia","category":"parks","type":"park","importance":0.15,"icon":null,"visiting_time":90.0,"opening_hours":null,"opening_days":null,"rating":0,"photo_url":null,"description":null,"www":null},{"place_id":"111455371","geometry":{"type":"Point","coordinates":[10.470226927,44.91012895]},"display_name":"Oratorio della Beata Vergine delle Grazie, Via Sandro Pertini, Basse, Mezzani, PR, EMR, 43055, Italia","category":"attractions","type":"place_of_worship","importance":0.046527658,"icon":"http://nominatim.openstreetmap.org/images/mapicons/place_of_worship_unknown3.p.20.png","visiting_time":30.0,"opening_hours":null,"opening_days":null,"rating":0,"photo_url":null,"description":null,"www":null},{"place_id":"108801575","geometry":{"type":"Point","coordinates":[10.470598616,44.8804005]},"display_name":"Via Imperiale inferiore, Brescello, Bassa Reggiana, RE, EMR, 43155, Italia","category":"attractions","type":"place_of_worship","importance":0.001,"icon":"http://nominatim.openstreetmap.org/images/mapicons/place_of_worship_unknown3.p.20.png","visiting_time":30.0,"opening_hours":null,"opening_days":null,"rating":0,"photo_url":null,"description":null,"www":null},{"place_id":"109684020","geometry":{"type":"Point","coordinates":[10.471890923,44.8665234]},"display_name":"Piazza Martiri della Libertà, Brescello, Bassa Reggiana, RE, EMR, 43155, Italia","category":"attractions","type":"place_of_worship","importance":0.001,"icon":"http://nominatim.openstreetmap.org/images/mapicons/place_of_worship_unknown3.p.20.png","visiting_time":30.0,"opening_hours":null,"opening_days":null,"rating":0,"photo_url":null,"description":null,"www":null},{"place_id":"111886555","geometry":{"type":"Point","coordinates":[10.465703038,44.9107155]},"display_name":"Via San Francesco d'Assisi, Basse, Mezzani, PR, EMR, 43055, Italia","category":"attractions","type":"place_of_worship","importance":0.001,"icon":"http://nominatim.openstreetmap.org/images/mapicons/place_of_worship_unknown3.p.20.png","visiting_time":30.0,"opening_hours":null,"opening_days":null,"rating":0,"photo_url":null,"description":null,"www":null},{"place_id":"111335882","geometry":{"type":"Point","coordinates":[10.397436228,44.8350881]},"display_name":"Strada Di Chiozzola, Sorbolo, PR, EMR, 43058, Italia","category":"attractions","type":"place_of_worship","importance":0.001,"icon":"http://nominatim.openstreetmap.org/images/mapicons/place_of_worship_unknown3.p.20.png","visiting_time":30.0,"opening_hours":null,"opening_days":null,"rating":0,"photo_url":null,"description":null,"www":null},{"place_id":"111323896","geometry":{"type":"Point","coordinates":[10.468763795,44.9007316]},"display_name":"Bici Parma Po, Sorbolo, PR, EMR, 43155, Italia","category":"attractions","type":"place_of_worship","importance":0.001,"icon":"http://nominatim.openstreetmap.org/images/mapicons/place_of_worship_unknown3.p.20.png","visiting_time":30.0,"opening_hours":null,"opening_days":null,"rating":0,"photo_url":null,"description":null,"www":null},{"place_id":"114009629","geometry":{"type":"Point","coordinates":[10.401416475,44.8438637]},"display_name":"Chiesa di San Lorenzo, Strada della Chiesa, Sorbolo, PR, EMR, 43058, Italia","category":"attractions","type":"place_of_worship","importance":0.001,"icon":"http://nominatim.openstreetmap.org/images/mapicons/place_of_worship_unknown3.p.20.png","visiting_time":30.0,"opening_hours":null,"opening_days":null,"rating":0,"photo_url":null,"description":null,"www":null},{"place_id":"111593706","geometry":{"type":"Point","coordinates":[10.440154994,44.8907422]},"display_name":"Via Aia, Sorbolo, PR, EMR, 43155, Italia","category":"attractions","type":"place_of_worship","importance":0.001,"icon":"http://nominatim.openstreetmap.org/images/mapicons/place_of_worship_unknown3.p.20.png","visiting_time":30.0,"opening_hours":null,"opening_days":null,"rating":0,"photo_url":null,"description":null,"www":null},{"place_id":"110672000","geometry":{"type":"Point","coordinates":[10.449440447,44.8460184]},"display_name":"Chiesa Santi Faustino e Giovita, Via primo Maggio, Sorbolo, PR, EMR, 43058, Italia","category":"attractions","type":"place_of_worship","importance":0.001,"icon":"http://nominatim.openstreetmap.org/images/mapicons/place_of_worship_unknown3.p.20.png","visiting_time":30.0,"opening_hours":null,"opening_days":null,"rating":0,"photo_url":null,"description":null,"www":null},{"place_id":"111455371","geometry":{"type":"Point","coordinates":[10.470226927,44.91012895]},"display_name":"Oratorio della Beata Vergine delle Grazie, Via Sandro Pertini, Basse, Mezzani, PR, EMR, 43055, Italia","category":"attractions","type":"place_of_worship","importance":0.046527658,"icon":"http://nominatim.openstreetmap.org/images/mapicons/place_of_worship_unknown3.p.20.png","visiting_time":30.0,"opening_hours":null,"opening_days":null,"rating":0,"photo_url":null,"description":null,"www":null},{"place_id":"108801575","geometry":{"type":"Point","coordinates":[10.470598616,44.8804005]},"display_name":"Via Imperiale inferiore, Brescello, Bassa Reggiana, RE, EMR, 43155, Italia","category":"attractions","type":"place_of_worship","importance":0.001,"icon":"http://nominatim.openstreetmap.org/images/mapicons/place_of_worship_unknown3.p.20.png","visiting_time":30.0,"opening_hours":null,"opening_days":null,"rating":0,"photo_url":null,"description":null,"www":null},{"place_id":"109684020","geometry":{"type":"Point","coordinates":[10.471890923,44.8665234]},"display_name":"Piazza Martiri della Libertà, Brescello, Bassa Reggiana, RE, EMR, 43155, Italia","category":"attractions","type":"place_of_worship","importance":0.001,"icon":"http://nominatim.openstreetmap.org/images/mapicons/place_of_worship_unknown3.p.20.png","visiting_time":30.0,"opening_hours":null,"opening_days":null,"rating":0,"photo_url":null,"description":null,"www":null},{"place_id":"111886555","geometry":{"type":"Point","coordinates":[10.465703038,44.9107155]},"display_name":"Via San Francesco d'Assisi, Basse, Mezzani, PR, EMR, 43055, Italia","category":"attractions","type":"place_of_worship","importance":0.001,"icon":"http://nominatim.openstreetmap.org/images/mapicons/place_of_worship_unknown3.p.20.png","visiting_time":30.0,"opening_hours":null,"opening_days":null,"rating":0,"photo_url":null,"description":null,"www":null},{"place_id":"111335882","geometry":{"type":"Point","coordinates":[10.397436228,44.8350881]},"display_name":"Strada Di Chiozzola, Sorbolo, PR, EMR, 43058, Italia","category":"attractions","type":"place_of_worship","importance":0.001,"icon":"http://nominatim.openstreetmap.org/images/mapicons/place_of_worship_unknown3.p.20.png","visiting_time":30.0,"opening_hours":null,"opening_days":null,"rating":0,"photo_url":null,"description":null,"www":null},{"place_id":"111323896","geometry":{"type":"Point","coordinates":[10.468763795,44.9007316]},"display_name":"Bici Parma Po, Sorbolo, PR, EMR, 43155, Italia","category":"attractions","type":"place_of_worship","importance":0.001,"icon":"http://nominatim.openstreetmap.org/images/mapicons/place_of_worship_unknown3.p.20.png","visiting_time":30.0,"opening_hours":null,"opening_days":null,"rating":0,"photo_url":null,"description":null,"www":null},{"place_id":"114009629","geometry":{"type":"Point","coordinates":[10.401416475,44.8438637]},"display_name":"Chiesa di San Lorenzo, Strada della Chiesa, Sorbolo, PR, EMR, 43058, Italia","category":"attractions","type":"place_of_worship","importance":0.001,"icon":"http://nominatim.openstreetmap.org/images/mapicons/place_of_worship_unknown3.p.20.png","visiting_time":30.0,"opening_hours":null,"opening_days":null,"rating":0,"photo_url":null,"description":null,"www":null},{"place_id":"111593706","geometry":{"type":"Point","coordinates":[10.440154994,44.8907422]},"display_name":"Via Aia, Sorbolo, PR, EMR, 43155, Italia","category":"attractions","type":"place_of_worship","importance":0.001,"icon":"http://nominatim.openstreetmap.org/images/mapicons/place_of_worship_unknown3.p.20.png","visiting_time":30.0,"opening_hours":null,"opening_days":null,"rating":0,"photo_url":null,"description":null,"www":null},{"place_id":"110672000","geometry":{"type":"Point","coordinates":[10.449440447,44.8460184]},"display_name":"Chiesa Santi Faustino e Giovita, Via primo Maggio, Sorbolo, PR, EMR, 43058, Italia","category":"attractions","type":"place_of_worship","importance":0.001,"icon":"http://nominatim.openstreetmap.org/images/mapicons/place_of_worship_unknown3.p.20.png","visiting_time":30.0,"opening_hours":null,"opening_days":null,"rating":0,"photo_url":null,"description":null,"www":null}]