[{"place_id":"44,71518335209570","geometry":{"type":"Point","coordinates":[11.150475821,44.715183352]},"display_name":"Istituzione dei servizi culturali Paolo Borsellino del Comune di Crevalcore,from:IBC","category":"attractions","type":"HolderOfArchives","importance":0.0,"icon":"","visiting_time":0.0,"opening_hours":"ok","opening_days":"ok","rating":0,"photo_url":null,"description":null,"www":"http://www.comune.crevalcore.bo.it"},{"place_id":"44,78787720950550","geometry":{"type":"Point","coordinates":[11.138376344,44.78787721]},"display_name":"Comune di Camposanto,from:IBC","category":"attractions","type":"HolderOfArchives","importance":0.0,"icon":"","visiting_time":0.0,"opening_hours":"ok","opening_days":"ok","rating":0,"photo_url":null,"description":null,"www":"http://www.comune.camposanto.mo.it"},{"place_id":"44,72898824820680","geometry":{"type":"Point","coordinates":[11.291658972,44.728988248]},"display_name":"Biblioteca Civica Patrimonio Studi,from:IBC","category":"attractions","type":"Library","importance":0.0,"icon":"","visiting_time":0.0,"opening_hours":"ok","opening_days":"ok","rating":0,"photo_url":null,"description":null,"www":"http://www.comune.cento.fe.it/biblioteca/index.htm"},{"place_id":"44,78970138307590","geometry":{"type":"Point","coordinates":[11.137768232,44.789701383]},"display_name":"Biblioteca comunale Bibliomondo,from:IBC","category":"attractions","type":"Library","importance":0.0,"icon":"","visiting_time":0.0,"opening_hours":"ok","opening_days":"ok","rating":0,"photo_url":null,"description":null,"www":"http://www.comune.camposanto.mo.it/il-comune/servizi-comunali/area-socio-culturale/biblioteca"},{"place_id":"44,71518335209570","geometry":{"type":"Point","coordinates":[11.150475821,44.715183352]},"display_name":"Biblioteca comunale,from:IBC","category":"attractions","type":"Library","importance":0.0,"icon":"","visiting_time":0.0,"opening_hours":"ok","opening_days":"ok","rating":0,"photo_url":null,"description":null,"www":"http://www.comune.crevalcore.bo.it/Main/Main.asp?doc=04122"},{"place_id":"44,70684677785730","geometry":{"type":"Point","coordinates":[11.229487038,44.706846778]},"display_name":"Biblioteca pubblica Raffaele Pettazzoni di San Matteo della Decima,from:IBC","category":"attractions","type":"Library","importance":0.0,"icon":"","visiting_time":0.0,"opening_hours":"ok","opening_days":"ok","rating":0,"photo_url":null,"description":null,"www":"http://www.comunepersiceto.it/gli-uffici-comunali/cultura/cultura/biblioteche"},{"place_id":"44,72198065310480","geometry":{"type":"Point","coordinates":[11.149297257,44.721980653]},"display_name":"Museo dei Burattini L. Preti,from:IBC","category":"attractions","type":"Museum","importance":0.0,"icon":"","visiting_time":0.0,"opening_hours":"ok","opening_days":"ok","rating":0,"photo_url":null,"description":null,"www":"http://dati.emilia-romagna.it/id/ibc/condition/IT-ER-BO072"},{"place_id":"44,72012367550020","geometry":{"type":"Point","coordinates":[11.151722687,44.720123676]},"display_name":"Museo della Pace G. Mattioli,from:IBC","category":"attractions","type":"Museum","importance":0.0,"icon":"","visiting_time":0.0,"opening_hours":"ok","opening_days":"ok","rating":0,"photo_url":null,"description":null,"www":"http://www.comune.crevalcore.bo.it/Main/Main.asp?doc=15843"},{"place_id":"44,72714061193060","geometry":{"type":"Point","coordinates":[11.290424201,44.727140612]},"display_name":"Galleria d'Arte Moderna Aroldo Bonzagni,from:IBC","category":"attractions","type":"Museum","importance":0.0,"icon":"","visiting_time":0.0,"opening_hours":"ok","opening_days":"ok","rating":0,"photo_url":null,"description":null,"www":"http://dati.emilia-romagna.it/id/ibc/condition/IT-ER-FE039"},{"place_id":"44,72606815724350","geometry":{"type":"Point","coordinates":[11.290480594,44.726068157]},"display_name":"Museo del Teatro G. Borgatti,from:IBC","category":"attractions","type":"Museum","importance":0.0,"icon":"","visiting_time":0.0,"opening_hours":"ok","opening_days":"ok","rating":0,"photo_url":null,"description":null,"www":"http://www.teatroborgatti.it"},{"place_id":"44,76469464656370","geometry":{"type":"Point","coordinates":[11.288482456,44.764694647]},"display_name":"Museo Sandro Parmeggiani,from:IBC","category":"attractions","type":"Museum","importance":0.0,"icon":"","visiting_time":0.0,"opening_hours":"ok","opening_days":"ok","rating":0,"photo_url":null,"description":null,"www":"http://dati.emilia-romagna.it/id/ibc/condition/IT-ER-FE040"},{"place_id":"Una Farnia Crevalcore Via Argini Nord 129","geometry":{"type":"Point","coordinates":[11.16215773,44.76660624]},"display_name":"Una Farnia Crevalcore Via Argini Nord,from:IBC","category":"tree","type":"tree","importance":0.0,"icon":"","visiting_time":0.0,"opening_hours":"ok","opening_days":"ok","rating":0,"photo_url":"http://online.ibc.regione.emilia-romagna.it/mtrees/image/59.jpg","description":null,"www":null},{"place_id":"Una Farnia San Giovanni in Persiceto S. Matteo della Decima Via Reno Vecchio, 5 (Cà Predoni) 170","geometry":{"type":"Point","coordinates":[11.2552589,44.70578609]},"display_name":"Una Farnia San Giovanni in Persiceto S. Matteo della Decima Via Reno Vecchio, 5 (Cà Predoni),from:IBC","category":"tree","type":"tree","importance":0.0,"icon":"","visiting_time":0.0,"opening_hours":"ok","opening_days":"ok","rating":0,"photo_url":"http://online.ibc.regione.emilia-romagna.it/mtrees/image/147.jpg","description":null,"www":null},{"place_id":"Due Querce Crevalcore Bevilacqua Via Provane 486","geometry":{"type":"Point","coordinates":[11.25010361,44.77920079]},"display_name":"Due Querce Crevalcore Bevilacqua Via Provane,from:IBC","category":"tree","type":"tree","importance":0.0,"icon":"","visiting_time":0.0,"opening_hours":"ok","opening_days":"ok","rating":0,"photo_url":"http://online.ibc.regione.emilia-romagna.it/mtrees/image/13138.jpg","description":null,"www":null},{"place_id":"Un Pioppo nero Crevalcore Bolognina V. Argini Nord 816","geometry":{"type":"Point","coordinates":[11.13258371,44.74965386]},"display_name":"Un Pioppo nero Crevalcore Bolognina V. Argini Nord,from:IBC","category":"tree","type":"tree","importance":0.0,"icon":"","visiting_time":0.0,"opening_hours":"ok","opening_days":"ok","rating":0,"photo_url":"http://online.ibc.regione.emilia-romagna.it/mtrees/image/60.jpg","description":null,"www":null}]