[{"place_id":"44,47987980279400","geometry":{"type":"Point","coordinates":[11.006582126,44.479879803]},"display_name":"Biblioteca Comunale Francesco Selmi di Vignola,from:IBC","category":"attractions","type":"HolderOfArchives","importance":0.0,"icon":"","visiting_time":0.0,"opening_hours":"ok","opening_days":"ok","rating":0,"photo_url":null,"description":null,"www":"http://www.comune.vignola.mo.it/uffici/biblioteca__auris__francesco_selmi_e_archivio_storico/index.htm"},{"place_id":"44,47987980279400","geometry":{"type":"Point","coordinates":[11.006582126,44.479879803]},"display_name":"Biblioteca Comunale Francesco Selmi di Vignola,from:IBC","category":"attractions","type":"HolderOfArchives","importance":0.0,"icon":"","visiting_time":0.0,"opening_hours":"ok","opening_days":"ok","rating":0,"photo_url":null,"description":null,"www":"http://www.auris.it/"},{"place_id":"44,48113279283430","geometry":{"type":"Point","coordinates":[11.032078807,44.481132793]},"display_name":"Comune di Savignano sul Panaro,from:IBC","category":"attractions","type":"HolderOfArchives","importance":0.0,"icon":"","visiting_time":0.0,"opening_hours":"ok","opening_days":"ok","rating":0,"photo_url":null,"description":null,"www":"http://www.comune.savignano-sul-panaro.mo.it"},{"place_id":"44,47987980279400","geometry":{"type":"Point","coordinates":[11.006582126,44.479879803]},"display_name":"Biblioteca comunale Francesco Selmi,from:IBC","category":"attractions","type":"Library","importance":0.0,"icon":"","visiting_time":0.0,"opening_hours":"ok","opening_days":"ok","rating":0,"photo_url":null,"description":null,"www":"http://www.comune.vignola.mo.it/uffici/biblioteca__auris__francesco_selmi_e_archivio_storico/index.htm"},{"place_id":"44,47987980279400","geometry":{"type":"Point","coordinates":[11.006582126,44.479879803]},"display_name":"Biblioteca comunale Francesco Selmi,from:IBC","category":"attractions","type":"Library","importance":0.0,"icon":"","visiting_time":0.0,"opening_hours":"ok","opening_days":"ok","rating":0,"photo_url":null,"description":null,"www":"http://www.auris.it"},{"place_id":"44,480117","geometry":{"type":"Point","coordinates":[11.033497,44.480117]},"display_name":"Biblioteca comunale,from:IBC","category":"attractions","type":"Library","importance":0.0,"icon":"","visiting_time":0.0,"opening_hours":"ok","opening_days":"ok","rating":0,"photo_url":null,"description":null,"www":"http://www.savignano.it/manifestazioni__eventi/biblioteca/index.htm"},{"place_id":"44,47873211200620","geometry":{"type":"Point","coordinates":[11.008594851,44.478732112]},"display_name":"Museo Civico,from:IBC","category":"attractions","type":"Museum","importance":0.0,"icon":"","visiting_time":0.0,"opening_hours":"ok","opening_days":"ok","rating":0,"photo_url":null,"description":null,"www":"http://webtest.allegri.unimo.it/78228/"},{"place_id":"Due Roverelle Savignano sul Panaro Via Friuli, 400 493","geometry":{"type":"Point","coordinates":[11.03118389,44.46859914]},"display_name":"Due Roverelle Savignano sul Panaro Via Friuli, 400,from:IBC","category":"tree","type":"tree","importance":0.0,"icon":"","visiting_time":0.0,"opening_hours":"ok","opening_days":"ok","rating":0,"photo_url":"http://online.ibc.regione.emilia-romagna.it/mtrees/image/6543.jpg","description":null,"www":null},{"place_id":"Due Roverelle Savignano sul Panaro Via Friuli, 400 677","geometry":{"type":"Point","coordinates":[11.03101775,44.46852108]},"display_name":"Due Roverelle Savignano sul Panaro Via Friuli, 400,from:IBC","category":"tree","type":"tree","importance":0.0,"icon":"","visiting_time":0.0,"opening_hours":"ok","opening_days":"ok","rating":0,"photo_url":"http://online.ibc.regione.emilia-romagna.it/mtrees/image/6541.jpg","description":null,"www":null},{"place_id":"Una Quercia Savignano sul Panaro Via Friuli, 80 1028","geometry":{"type":"Point","coordinates":[11.02568962,44.46785952]},"display_name":"Una Quercia Savignano sul Panaro Via Friuli, 80,from:IBC","category":"tree","type":"tree","importance":0.0,"icon":"","visiting_time":0.0,"opening_hours":"ok","opening_days":"ok","rating":0,"photo_url":"http://online.ibc.regione.emilia-romagna.it/mtrees/image/630.jpg","description":null,"www":null}]