[{"place_id":"18878818","geometry":{"type":"Point","coordinates":[10.1796813,44.8080908]},"display_name":"Castello della Musica, Via Giuseppe Mazzini, Noceto, PR, EMR, 43015, Italia","category":"attractions","type":"attraction","importance":0.001,"icon":"http://nominatim.openstreetmap.org/images/mapicons/poi_point_of_interest.p.20.png","visiting_time":30.0,"opening_hours":null,"opening_days":null,"rating":0,"photo_url":null,"description":null,"www":null},{"place_id":"21493194","geometry":{"type":"Point","coordinates":[10.1938131,44.8284946]},"display_name":"Castel Guelfo, Via Emilia, Fontevivo, PR, EMR, 43015, Italia","category":"attractions","type":"attraction","importance":0.001,"icon":"http://nominatim.openstreetmap.org/images/mapicons/poi_point_of_interest.p.20.png","visiting_time":30.0,"opening_hours":null,"opening_days":null,"rating":0,"photo_url":null,"description":null,"www":null},{"place_id":"61545631","geometry":{"type":"Point","coordinates":[10.1453011,44.8540215]},"display_name":"Belvedere, Strada del Pizzale, Fontanellato, PR, EMR, 43012, Italia","category":"attractions","type":"viewpoint","importance":0.001,"icon":"http://nominatim.openstreetmap.org/images/mapicons/tourist_view_point.p.20.png","visiting_time":10.0,"opening_hours":null,"opening_days":null,"rating":0,"photo_url":null,"description":null,"www":null},{"place_id":"16398919","geometry":{"type":"Point","coordinates":[10.0877735,44.7615159]},"display_name":"Croce di Cella, Strada Costa Garibalda, Case Monticello, Medesano, PR, EMR, 43048, Italia","category":"attractions","type":"viewpoint","importance":0.001,"icon":"http://nominatim.openstreetmap.org/images/mapicons/tourist_view_point.p.20.png","visiting_time":10.0,"opening_hours":null,"opening_days":null,"rating":0,"photo_url":null,"description":null,"www":null},{"place_id":"5022903","geometry":{"type":"Point","coordinates":[10.0470606,44.7980933]},"display_name":"Osteria del sole, Frazione Cogolonchio, Fidenza, PR, EMR, 43036, Italia","category":"eating","type":"restaurant","importance":0.001,"icon":"http://nominatim.openstreetmap.org/images/mapicons/food_restaurant.p.20.png","visiting_time":60.0,"opening_hours":null,"opening_days":null,"rating":0,"photo_url":null,"description":null,"www":null},{"place_id":"111888444","geometry":{"type":"Point","coordinates":[10.057123992,44.84183495]},"display_name":"Trattoria Boschina, Via Fidenza, Fidenza, PR, EMR, 43036, Italia","category":"eating","type":"restaurant","importance":0.001,"icon":"http://nominatim.openstreetmap.org/images/mapicons/food_restaurant.p.20.png","visiting_time":60.0,"opening_hours":null,"opening_days":null,"rating":0,"photo_url":null,"description":null,"www":null},{"place_id":"18282507","geometry":{"type":"Point","coordinates":[10.1762888,44.8048862]},"display_name":"La Buca dei Diavoli, 21, Piazza Giovanni Lunardi, Noceto, PR, EMR, 43015, Italia","category":"eating","type":"restaurant","importance":0.001,"icon":"http://nominatim.openstreetmap.org/images/mapicons/food_restaurant.p.20.png","visiting_time":60.0,"opening_hours":null,"opening_days":null,"rating":0,"photo_url":null,"description":null,"www":null},{"place_id":"20501509","geometry":{"type":"Point","coordinates":[10.1064505,44.8222509]},"display_name":"Osteria della Posta, via Muroni, Noceto, PR, EMR, 43015, Italia","category":"eating","type":"restaurant","importance":0.001,"icon":"http://nominatim.openstreetmap.org/images/mapicons/food_restaurant.p.20.png","visiting_time":60.0,"opening_hours":null,"opening_days":null,"rating":0,"photo_url":null,"description":null,"www":null},{"place_id":"61798693","geometry":{"type":"Point","coordinates":[10.2131524,44.8248372]},"display_name":"Ristorante/Pizzeria Il Ponte, 22, Via Emilia, Noceto, PR, EMR, 43015, Italia","category":"eating","type":"restaurant","importance":0.001,"icon":"http://nominatim.openstreetmap.org/images/mapicons/food_restaurant.p.20.png","visiting_time":60.0,"opening_hours":null,"opening_days":null,"rating":0,"photo_url":null,"description":null,"www":null},{"place_id":"31544601","geometry":{"type":"Point","coordinates":[10.2151417,44.8242217]},"display_name":"I Monelli, 11, Via Emilia, Noceto, PR, EMR, 43015, Italia","category":"eating","type":"restaurant","importance":0.001,"icon":"http://nominatim.openstreetmap.org/images/mapicons/food_restaurant.p.20.png","visiting_time":60.0,"opening_hours":null,"opening_days":null,"rating":0,"photo_url":null,"description":null,"www":null},{"place_id":"55369523","geometry":{"type":"Point","coordinates":[10.0911086,44.7953623]},"display_name":"Lo Scoiattolo, 30, Via Varano, Noceto, PR, EMR, 43014, Italia","category":"eating","type":"restaurant","importance":0.001,"icon":"http://nominatim.openstreetmap.org/images/mapicons/food_restaurant.p.20.png","visiting_time":60.0,"opening_hours":null,"opening_days":null,"rating":0,"photo_url":null,"description":null,"www":null},{"place_id":"19124486","geometry":{"type":"Point","coordinates":[10.1586654,44.7813267]},"display_name":"Bertinelli, SP 93, Noceto, PR, EMR, 43015, Italia","category":"eating","type":"restaurant","importance":0.001,"icon":"http://nominatim.openstreetmap.org/images/mapicons/food_restaurant.p.20.png","visiting_time":60.0,"opening_hours":null,"opening_days":null,"rating":0,"photo_url":null,"description":null,"www":null},{"place_id":"8654944","geometry":{"type":"Point","coordinates":[10.0881415,44.7675743]},"display_name":"Squeri, Via Varano, Noceto, PR, EMR, 43014, Italia","category":"eating","type":"restaurant","importance":0.001,"icon":"http://nominatim.openstreetmap.org/images/mapicons/food_restaurant.p.20.png","visiting_time":60.0,"opening_hours":null,"opening_days":null,"rating":0,"photo_url":null,"description":null,"www":null},{"place_id":"19954200","geometry":{"type":"Point","coordinates":[10.1581075,44.782824]},"display_name":"SP 93, Noceto, PR, EMR, 43015, Italia","category":"eating","type":"restaurant","importance":0.001,"icon":"http://nominatim.openstreetmap.org/images/mapicons/food_restaurant.p.20.png","visiting_time":60.0,"opening_hours":null,"opening_days":null,"rating":0,"photo_url":null,"description":null,"www":null},{"place_id":"19153835","geometry":{"type":"Point","coordinates":[10.1410192,44.7670395]},"display_name":"Bar ristorante LA CORNACCINA, Strada Cornaccina, Medesano, PR, EMR, 43014, Italia","category":"eating","type":"restaurant","importance":0.001,"icon":"http://nominatim.openstreetmap.org/images/mapicons/food_restaurant.p.20.png","visiting_time":60.0,"opening_hours":null,"opening_days":null,"rating":0,"photo_url":null,"description":null,"www":null},{"place_id":"20263229","geometry":{"type":"Point","coordinates":[10.1866673,44.8306353]},"display_name":"Passaparola, Via Emilia, Fontevivo, PR, EMR, 43015, Italia","category":"eating","type":"restaurant","importance":0.001,"icon":"http://nominatim.openstreetmap.org/images/mapicons/food_restaurant.p.20.png","visiting_time":60.0,"opening_hours":null,"opening_days":null,"rating":0,"photo_url":null,"description":null,"www":null},{"place_id":"3758394","geometry":{"type":"Point","coordinates":[10.2086415,44.8432587]},"display_name":"Di Frabrizio, Strada Bianconese, Fontevivo, PR, EMR, 43010, Italia","category":"eating","type":"restaurant","importance":0.001,"icon":"http://nominatim.openstreetmap.org/images/mapicons/food_restaurant.p.20.png","visiting_time":60.0,"opening_hours":null,"opening_days":null,"rating":0,"photo_url":null,"description":null,"www":null},{"place_id":"5022903","geometry":{"type":"Point","coordinates":[10.0470606,44.7980933]},"display_name":"Osteria del sole, Frazione Cogolonchio, Fidenza, PR, EMR, 43036, Italia","category":"eating","type":"restaurant","importance":0.001,"icon":"http://nominatim.openstreetmap.org/images/mapicons/food_restaurant.p.20.png","visiting_time":60.0,"opening_hours":null,"opening_days":null,"rating":0,"photo_url":null,"description":null,"www":null},{"place_id":"111888444","geometry":{"type":"Point","coordinates":[10.057123992,44.84183495]},"display_name":"Trattoria Boschina, Via Fidenza, Fidenza, PR, EMR, 43036, Italia","category":"eating","type":"restaurant","importance":0.001,"icon":"http://nominatim.openstreetmap.org/images/mapicons/food_restaurant.p.20.png","visiting_time":60.0,"opening_hours":null,"opening_days":null,"rating":0,"photo_url":null,"description":null,"www":null},{"place_id":"18282507","geometry":{"type":"Point","coordinates":[10.1762888,44.8048862]},"display_name":"La Buca dei Diavoli, 21, Piazza Giovanni Lunardi, Noceto, PR, EMR, 43015, Italia","category":"eating","type":"restaurant","importance":0.001,"icon":"http://nominatim.openstreetmap.org/images/mapicons/food_restaurant.p.20.png","visiting_time":60.0,"opening_hours":null,"opening_days":null,"rating":0,"photo_url":null,"description":null,"www":null},{"place_id":"20501509","geometry":{"type":"Point","coordinates":[10.1064505,44.8222509]},"display_name":"Osteria della Posta, via Muroni, Noceto, PR, EMR, 43015, Italia","category":"eating","type":"restaurant","importance":0.001,"icon":"http://nominatim.openstreetmap.org/images/mapicons/food_restaurant.p.20.png","visiting_time":60.0,"opening_hours":null,"opening_days":null,"rating":0,"photo_url":null,"description":null,"www":null},{"place_id":"61798693","geometry":{"type":"Point","coordinates":[10.2131524,44.8248372]},"display_name":"Ristorante/Pizzeria Il Ponte, 22, Via Emilia, Noceto, PR, EMR, 43015, Italia","category":"eating","type":"restaurant","importance":0.001,"icon":"http://nominatim.openstreetmap.org/images/mapicons/food_restaurant.p.20.png","visiting_time":60.0,"opening_hours":null,"opening_days":null,"rating":0,"photo_url":null,"description":null,"www":null},{"place_id":"31544601","geometry":{"type":"Point","coordinates":[10.2151417,44.8242217]},"display_name":"I Monelli, 11, Via Emilia, Noceto, PR, EMR, 43015, Italia","category":"eating","type":"restaurant","importance":0.001,"icon":"http://nominatim.openstreetmap.org/images/mapicons/food_restaurant.p.20.png","visiting_time":60.0,"opening_hours":null,"opening_days":null,"rating":0,"photo_url":null,"description":null,"www":null},{"place_id":"55369523","geometry":{"type":"Point","coordinates":[10.0911086,44.7953623]},"display_name":"Lo Scoiattolo, 30, Via Varano, Noceto, PR, EMR, 43014, Italia","category":"eating","type":"restaurant","importance":0.001,"icon":"http://nominatim.openstreetmap.org/images/mapicons/food_restaurant.p.20.png","visiting_time":60.0,"opening_hours":null,"opening_days":null,"rating":0,"photo_url":null,"description":null,"www":null},{"place_id":"19124486","geometry":{"type":"Point","coordinates":[10.1586654,44.7813267]},"display_name":"Bertinelli, SP 93, Noceto, PR, EMR, 43015, Italia","category":"eating","type":"restaurant","importance":0.001,"icon":"http://nominatim.openstreetmap.org/images/mapicons/food_restaurant.p.20.png","visiting_time":60.0,"opening_hours":null,"opening_days":null,"rating":0,"photo_url":null,"description":null,"www":null},{"place_id":"8654944","geometry":{"type":"Point","coordinates":[10.0881415,44.7675743]},"display_name":"Squeri, Via Varano, Noceto, PR, EMR, 43014, Italia","category":"eating","type":"restaurant","importance":0.001,"icon":"http://nominatim.openstreetmap.org/images/mapicons/food_restaurant.p.20.png","visiting_time":60.0,"opening_hours":null,"opening_days":null,"rating":0,"photo_url":null,"description":null,"www":null},{"place_id":"19954200","geometry":{"type":"Point","coordinates":[10.1581075,44.782824]},"display_name":"SP 93, Noceto, PR, EMR, 43015, Italia","category":"eating","type":"restaurant","importance":0.001,"icon":"http://nominatim.openstreetmap.org/images/mapicons/food_restaurant.p.20.png","visiting_time":60.0,"opening_hours":null,"opening_days":null,"rating":0,"photo_url":null,"description":null,"www":null},{"place_id":"19153835","geometry":{"type":"Point","coordinates":[10.1410192,44.7670395]},"display_name":"Bar ristorante LA CORNACCINA, Strada Cornaccina, Medesano, PR, EMR, 43014, Italia","category":"eating","type":"restaurant","importance":0.001,"icon":"http://nominatim.openstreetmap.org/images/mapicons/food_restaurant.p.20.png","visiting_time":60.0,"opening_hours":null,"opening_days":null,"rating":0,"photo_url":null,"description":null,"www":null},{"place_id":"20263229","geometry":{"type":"Point","coordinates":[10.1866673,44.8306353]},"display_name":"Passaparola, Via Emilia, Fontevivo, PR, EMR, 43015, Italia","category":"eating","type":"restaurant","importance":0.001,"icon":"http://nominatim.openstreetmap.org/images/mapicons/food_restaurant.p.20.png","visiting_time":60.0,"opening_hours":null,"opening_days":null,"rating":0,"photo_url":null,"description":null,"www":null},{"place_id":"3758394","geometry":{"type":"Point","coordinates":[10.2086415,44.8432587]},"display_name":"Di Frabrizio, Strada Bianconese, Fontevivo, PR, EMR, 43010, Italia","category":"eating","type":"restaurant","importance":0.001,"icon":"http://nominatim.openstreetmap.org/images/mapicons/food_restaurant.p.20.png","visiting_time":60.0,"opening_hours":null,"opening_days":null,"rating":0,"photo_url":null,"description":null,"www":null},{"place_id":"18878824","geometry":{"type":"Point","coordinates":[10.1796813,44.8080908]},"display_name":"Castello della Musica, Via Giuseppe Mazzini, Noceto, PR, EMR, 43015, Italia","category":"attractions","type":"castle","importance":0.001,"icon":"http://nominatim.openstreetmap.org/images/mapicons/tourist_castle.p.20.png","visiting_time":120.0,"opening_hours":null,"opening_days":null,"rating":0,"photo_url":null,"description":null,"www":null},{"place_id":"56644931","geometry":{"type":"Point","coordinates":[10.0844537,44.7851455]},"display_name":"Via Varano, Noceto, PR, EMR, 43014, Italia","category":"attractions","type":"castle","importance":0.001,"icon":"http://nominatim.openstreetmap.org/images/mapicons/tourist_castle.p.20.png","visiting_time":120.0,"opening_hours":null,"opening_days":null,"rating":0,"photo_url":null,"description":null,"www":null},{"place_id":"60684692","geometry":{"type":"Point","coordinates":[10.2134567,44.8247514]},"display_name":"Bar Nausikaa, Via Giuseppe Ungaretti, Noceto, PR, EMR, 43015, Italia","category":"lifestyle","type":"bar","importance":0.101,"icon":"http://nominatim.openstreetmap.org/images/mapicons/food_bar.p.20.png","visiting_time":10.0,"opening_hours":null,"opening_days":null,"rating":0,"photo_url":null,"description":null,"www":null},{"place_id":"19362322","geometry":{"type":"Point","coordinates":[10.1718682,44.8087712]},"display_name":"Bar Legends, Via Arrigo Boito, Noceto, PR, EMR, 43015, Italia","category":"lifestyle","type":"bar","importance":0.101,"icon":"http://nominatim.openstreetmap.org/images/mapicons/food_bar.p.20.png","visiting_time":10.0,"opening_hours":null,"opening_days":null,"rating":0,"photo_url":null,"description":null,"www":null},{"place_id":"19489385","geometry":{"type":"Point","coordinates":[10.17563,44.8050389]},"display_name":"Bar da Marcello, Piazza Giovanni Lunardi, Noceto, PR, EMR, 43015, Italia","category":"lifestyle","type":"bar","importance":0.101,"icon":"http://nominatim.openstreetmap.org/images/mapicons/food_bar.p.20.png","visiting_time":10.0,"opening_hours":null,"opening_days":null,"rating":0,"photo_url":null,"description":null,"www":null},{"place_id":"17871038","geometry":{"type":"Point","coordinates":[10.1375995,44.7589545]},"display_name":"Seven bar, Via Michelangelo, Medesano, PR, EMR, 43014, Italia","category":"lifestyle","type":"bar","importance":0.101,"icon":"http://nominatim.openstreetmap.org/images/mapicons/food_bar.p.20.png","visiting_time":10.0,"opening_hours":null,"opening_days":null,"rating":0,"photo_url":null,"description":null,"www":null},{"place_id":"22104727","geometry":{"type":"Point","coordinates":[10.0524423,44.7806801]},"display_name":"Frazione Cogolonchio, Fidenza, PR, EMR, 43036, Italia","category":"lifestyle","type":"bar","importance":0.001,"icon":"http://nominatim.openstreetmap.org/images/mapicons/food_bar.p.20.png","visiting_time":10.0,"opening_hours":null,"opening_days":null,"rating":0,"photo_url":null,"description":null,"www":null},{"place_id":"20520253","geometry":{"type":"Point","coordinates":[10.1737663,44.8134668]},"display_name":"Via Giancarlo Zucchi, Noceto, PR, EMR, 43015, Italia","category":"lifestyle","type":"bar","importance":0.001,"icon":"http://nominatim.openstreetmap.org/images/mapicons/food_bar.p.20.png","visiting_time":10.0,"opening_hours":null,"opening_days":null,"rating":0,"photo_url":null,"description":null,"www":null},{"place_id":"20281980","geometry":{"type":"Point","coordinates":[10.1708266,44.8109132]},"display_name":"Via Alceste De Ambris, Noceto, PR, EMR, 43015, Italia","category":"lifestyle","type":"bar","importance":0.001,"icon":"http://nominatim.openstreetmap.org/images/mapicons/food_bar.p.20.png","visiting_time":10.0,"opening_hours":null,"opening_days":null,"rating":0,"photo_url":null,"description":null,"www":null},{"place_id":"19282378","geometry":{"type":"Point","coordinates":[10.1584884,44.7815171]},"display_name":"SP 93, Noceto, PR, EMR, 43015, Italia","category":"lifestyle","type":"bar","importance":0.001,"icon":"http://nominatim.openstreetmap.org/images/mapicons/food_bar.p.20.png","visiting_time":10.0,"opening_hours":null,"opening_days":null,"rating":0,"photo_url":null,"description":null,"www":null},{"place_id":"20561747","geometry":{"type":"Point","coordinates":[10.197933,44.7950069]},"display_name":"Down Under Pub, Autostrada della Cisa, Case Monticello, Medesano, PR, EMR, 43014, Italia","category":"lifestyle","type":"pub","importance":0.001,"icon":"http://nominatim.openstreetmap.org/images/mapicons/food_pub.p.20.png","visiting_time":10.0,"opening_hours":null,"opening_days":null,"rating":0,"photo_url":null,"description":null,"www":null},{"place_id":"20561747","geometry":{"type":"Point","coordinates":[10.197933,44.7950069]},"display_name":"Down Under Pub, Autostrada della Cisa, Case Monticello, Medesano, PR, EMR, 43014, Italia","category":"lifestyle","type":"pub","importance":0.101,"icon":"http://nominatim.openstreetmap.org/images/mapicons/food_pub.p.20.png","visiting_time":90.0,"opening_hours":null,"opening_days":null,"rating":0,"photo_url":null,"description":null,"www":null},{"place_id":"180169053","geometry":{"type":"Point","coordinates":[-8.3350726,43.2233149]},"display_name":"Abegondo, Galicia, CAFE, España","category":"lifestyle","type":"postcode","importance":0.2125,"icon":null,"visiting_time":10.0,"opening_hours":null,"opening_days":null,"rating":0,"photo_url":null,"description":null,"www":null},{"place_id":"10992736","geometry":{"type":"Point","coordinates":[10.1897349,44.7900223]},"display_name":"sculptura, Autostrada della Cisa, Case Monticello, Medesano, PR, EMR, 43014, Italia","category":"attractions","type":"monument","importance":0.001,"icon":"http://nominatim.openstreetmap.org/images/mapicons/tourist_monument.p.20.png","visiting_time":10.0,"opening_hours":null,"opening_days":null,"rating":0,"photo_url":null,"description":null,"www":null},{"place_id":"172749550","geometry":{"type":"Point","coordinates":[10.187005126,44.80916025]},"display_name":"Noceto, PR, EMR, Italia","category":"parks","type":"park","importance":0.15,"icon":null,"visiting_time":90.0,"opening_hours":null,"opening_days":null,"rating":0,"photo_url":null,"description":null,"www":null},{"place_id":"109874741","geometry":{"type":"Point","coordinates":[10.1876152,44.80909115]},"display_name":"Piazzale Giovanni Falcone, Noceto, PR, EMR, Italia","category":"parks","type":"park","importance":0.15,"icon":null,"visiting_time":90.0,"opening_hours":null,"opening_days":null,"rating":0,"photo_url":null,"description":null,"www":null},{"place_id":"108292787","geometry":{"type":"Point","coordinates":[10.167576516,44.8065337]},"display_name":"Pista Ciclabile, Noceto, PR, EMR, Italia","category":"parks","type":"park","importance":0.15,"icon":null,"visiting_time":90.0,"opening_hours":null,"opening_days":null,"rating":0,"photo_url":null,"description":null,"www":null},{"place_id":"113688025","geometry":{"type":"Point","coordinates":[10.179997358,44.8095731]},"display_name":"Piazza Risorgimento, Noceto, PR, EMR, Italia","category":"parks","type":"park","importance":0.15,"icon":null,"visiting_time":90.0,"opening_hours":null,"opening_days":null,"rating":0,"photo_url":null,"description":null,"www":null},{"place_id":"110186004","geometry":{"type":"Point","coordinates":[10.186620998,44.80932]},"display_name":"Piazzale Paolo Borsellino, Noceto, PR, EMR, Italia","category":"parks","type":"park","importance":0.15,"icon":null,"visiting_time":90.0,"opening_hours":null,"opening_days":null,"rating":0,"photo_url":null,"description":null,"www":null},{"place_id":"108690027","geometry":{"type":"Point","coordinates":[10.168990697,44.80914365]},"display_name":"Percorso Vita, Noceto, PR, EMR, Italia","category":"parks","type":"park","importance":0.15,"icon":null,"visiting_time":90.0,"opening_hours":null,"opening_days":null,"rating":0,"photo_url":null,"description":null,"www":null},{"place_id":"111033518","geometry":{"type":"Point","coordinates":[10.187033708,44.80841715]},"display_name":"Piazzale Monsignor Luigi Copello, Noceto, PR, EMR, Italia","category":"parks","type":"park","importance":0.15,"icon":null,"visiting_time":90.0,"opening_hours":null,"opening_days":null,"rating":0,"photo_url":null,"description":null,"www":null},{"place_id":"173246626","geometry":{"type":"Point","coordinates":[10.215468261,44.82588125]},"display_name":"Fontevivo, PR, EMR, Italia","category":"parks","type":"park","importance":0.15,"icon":null,"visiting_time":90.0,"opening_hours":null,"opening_days":null,"rating":0,"photo_url":null,"description":null,"www":null},{"place_id":"24811738","geometry":{"type":"Point","coordinates":[10.0833019,44.8020569]},"display_name":"Santa Maria del Gisolo, Frazione Cogolonchio, Fidenza, PR, EMR, 43036, Italia","category":"attractions","type":"place_of_worship","importance":0.001,"icon":"http://nominatim.openstreetmap.org/images/mapicons/place_of_worship_unknown3.p.20.png","visiting_time":30.0,"opening_hours":null,"opening_days":null,"rating":0,"photo_url":null,"description":null,"www":null},{"place_id":"111911193","geometry":{"type":"Point","coordinates":[10.060304353,44.78197875]},"display_name":"Frazione Cogolonchio, Fidenza, PR, EMR, 43036, Italia","category":"attractions","type":"place_of_worship","importance":0.001,"icon":"http://nominatim.openstreetmap.org/images/mapicons/place_of_worship_unknown3.p.20.png","visiting_time":30.0,"opening_hours":null,"opening_days":null,"rating":0,"photo_url":null,"description":null,"www":null},{"place_id":"25016436","geometry":{"type":"Point","coordinates":[10.0598492,44.8446496]},"display_name":"Pieve di Cabriolo, Via Ponte Nuovo, Fidenza, PR, EMR, 43036, Italia","category":"attractions","type":"place_of_worship","importance":0.001,"icon":"http://nominatim.openstreetmap.org/images/mapicons/place_of_worship_unknown3.p.20.png","visiting_time":30.0,"opening_hours":null,"opening_days":null,"rating":0,"photo_url":null,"description":null,"www":null},{"place_id":"5070173","geometry":{"type":"Point","coordinates":[10.0903964,44.7946451]},"display_name":"Via Varano, Noceto, PR, EMR, 43014, Italia","category":"attractions","type":"place_of_worship","importance":0.001,"icon":"http://nominatim.openstreetmap.org/images/mapicons/place_of_worship_unknown3.p.20.png","visiting_time":30.0,"opening_hours":null,"opening_days":null,"rating":0,"photo_url":null,"description":null,"www":null},{"place_id":"20057128","geometry":{"type":"Point","coordinates":[10.1059596,44.82141]},"display_name":"Chiesa di Borghetto, via Muroni, Noceto, PR, EMR, 43015, Italia","category":"attractions","type":"place_of_worship","importance":0.001,"icon":"http://nominatim.openstreetmap.org/images/mapicons/place_of_worship_unknown3.p.20.png","visiting_time":30.0,"opening_hours":null,"opening_days":null,"rating":0,"photo_url":null,"description":null,"www":null},{"place_id":"111737441","geometry":{"type":"Point","coordinates":[10.17917448,44.80741335]},"display_name":"Chiesa di Noceto, Via Aurelio Saffi, Noceto, PR, EMR, 43015, Italia","category":"attractions","type":"place_of_worship","importance":0.001,"icon":"http://nominatim.openstreetmap.org/images/mapicons/place_of_worship_unknown3.p.20.png","visiting_time":30.0,"opening_hours":null,"opening_days":null,"rating":0,"photo_url":null,"description":null,"www":null},{"place_id":"61642915","geometry":{"type":"Point","coordinates":[10.1872544,44.8095358]},"display_name":"Via Eufemia Borsi, Noceto, PR, EMR, 43015, Italia","category":"attractions","type":"place_of_worship","importance":0.001,"icon":"http://nominatim.openstreetmap.org/images/mapicons/place_of_worship_unknown3.p.20.png","visiting_time":30.0,"opening_hours":null,"opening_days":null,"rating":0,"photo_url":null,"description":null,"www":null},{"place_id":"19405188","geometry":{"type":"Point","coordinates":[10.0942524,44.7718525]},"display_name":"Fraternità Francescana di Betania, Via Varano, Noceto, PR, EMR, 43014, Italia","category":"attractions","type":"place_of_worship","importance":0.001,"icon":"http://nominatim.openstreetmap.org/images/mapicons/place_of_worship_unknown3.p.20.png","visiting_time":30.0,"opening_hours":null,"opening_days":null,"rating":0,"photo_url":null,"description":null,"www":null},{"place_id":"113526073","geometry":{"type":"Point","coordinates":[10.212147523,44.8238024]},"display_name":"Via Ida Mari, Fontevivo, PR, EMR, 43015, Italia","category":"attractions","type":"place_of_worship","importance":0.001,"icon":"http://nominatim.openstreetmap.org/images/mapicons/place_of_worship_unknown3.p.20.png","visiting_time":30.0,"opening_hours":null,"opening_days":null,"rating":0,"photo_url":null,"description":null,"www":null},{"place_id":"24811738","geometry":{"type":"Point","coordinates":[10.0833019,44.8020569]},"display_name":"Santa Maria del Gisolo, Frazione Cogolonchio, Fidenza, PR, EMR, 43036, Italia","category":"attractions","type":"place_of_worship","importance":0.001,"icon":"http://nominatim.openstreetmap.org/images/mapicons/place_of_worship_unknown3.p.20.png","visiting_time":30.0,"opening_hours":null,"opening_days":null,"rating":0,"photo_url":null,"description":null,"www":null},{"place_id":"111911193","geometry":{"type":"Point","coordinates":[10.060304353,44.78197875]},"display_name":"Frazione Cogolonchio, Fidenza, PR, EMR, 43036, Italia","category":"attractions","type":"place_of_worship","importance":0.001,"icon":"http://nominatim.openstreetmap.org/images/mapicons/place_of_worship_unknown3.p.20.png","visiting_time":30.0,"opening_hours":null,"opening_days":null,"rating":0,"photo_url":null,"description":null,"www":null},{"place_id":"25016436","geometry":{"type":"Point","coordinates":[10.0598492,44.8446496]},"display_name":"Pieve di Cabriolo, Via Ponte Nuovo, Fidenza, PR, EMR, 43036, Italia","category":"attractions","type":"place_of_worship","importance":0.001,"icon":"http://nominatim.openstreetmap.org/images/mapicons/place_of_worship_unknown3.p.20.png","visiting_time":30.0,"opening_hours":null,"opening_days":null,"rating":0,"photo_url":null,"description":null,"www":null},{"place_id":"5070173","geometry":{"type":"Point","coordinates":[10.0903964,44.7946451]},"display_name":"Via Varano, Noceto, PR, EMR, 43014, Italia","category":"attractions","type":"place_of_worship","importance":0.001,"icon":"http://nominatim.openstreetmap.org/images/mapicons/place_of_worship_unknown3.p.20.png","visiting_time":30.0,"opening_hours":null,"opening_days":null,"rating":0,"photo_url":null,"description":null,"www":null},{"place_id":"20057128","geometry":{"type":"Point","coordinates":[10.1059596,44.82141]},"display_name":"Chiesa di Borghetto, via Muroni, Noceto, PR, EMR, 43015, Italia","category":"attractions","type":"place_of_worship","importance":0.001,"icon":"http://nominatim.openstreetmap.org/images/mapicons/place_of_worship_unknown3.p.20.png","visiting_time":30.0,"opening_hours":null,"opening_days":null,"rating":0,"photo_url":null,"description":null,"www":null},{"place_id":"111737441","geometry":{"type":"Point","coordinates":[10.17917448,44.80741335]},"display_name":"Chiesa di Noceto, Via Aurelio Saffi, Noceto, PR, EMR, 43015, Italia","category":"attractions","type":"place_of_worship","importance":0.001,"icon":"http://nominatim.openstreetmap.org/images/mapicons/place_of_worship_unknown3.p.20.png","visiting_time":30.0,"opening_hours":null,"opening_days":null,"rating":0,"photo_url":null,"description":null,"www":null},{"place_id":"61642915","geometry":{"type":"Point","coordinates":[10.1872544,44.8095358]},"display_name":"Via Eufemia Borsi, Noceto, PR, EMR, 43015, Italia","category":"attractions","type":"place_of_worship","importance":0.001,"icon":"http://nominatim.openstreetmap.org/images/mapicons/place_of_worship_unknown3.p.20.png","visiting_time":30.0,"opening_hours":null,"opening_days":null,"rating":0,"photo_url":null,"description":null,"www":null},{"place_id":"19405188","geometry":{"type":"Point","coordinates":[10.0942524,44.7718525]},"display_name":"Fraternità Francescana di Betania, Via Varano, Noceto, PR, EMR, 43014, Italia","category":"attractions","type":"place_of_worship","importance":0.001,"icon":"http://nominatim.openstreetmap.org/images/mapicons/place_of_worship_unknown3.p.20.png","visiting_time":30.0,"opening_hours":null,"opening_days":null,"rating":0,"photo_url":null,"description":null,"www":null},{"place_id":"113526073","geometry":{"type":"Point","coordinates":[10.212147523,44.8238024]},"display_name":"Via Ida Mari, Fontevivo, PR, EMR, 43015, Italia","category":"attractions","type":"place_of_worship","importance":0.001,"icon":"http://nominatim.openstreetmap.org/images/mapicons/place_of_worship_unknown3.p.20.png","visiting_time":30.0,"opening_hours":null,"opening_days":null,"rating":0,"photo_url":null,"description":null,"www":null},{"place_id":"41071539","geometry":{"type":"Point","coordinates":[10.1414689,44.8439365]},"display_name":"Tre Pozzi, Via Emilia, Noceto, PR, EMR, 43015, Italia","category":"resting","type":"hotel","importance":0.001,"icon":"http://nominatim.openstreetmap.org/images/mapicons/accommodation_hotel2.p.20.png","visiting_time":10.0,"opening_hours":null,"opening_days":null,"rating":0,"photo_url":null,"description":null,"www":null},{"place_id":"20533525","geometry":{"type":"Point","coordinates":[10.1537239,44.7790462]},"display_name":"My One Ayri, Strada Boscone, Noceto, PR, EMR, 43015, Italia","category":"resting","type":"hotel","importance":0.001,"icon":"http://nominatim.openstreetmap.org/images/mapicons/accommodation_hotel2.p.20.png","visiting_time":10.0,"opening_hours":null,"opening_days":null,"rating":0,"photo_url":null,"description":null,"www":null},{"place_id":"54497119","geometry":{"type":"Point","coordinates":[10.216108,44.8232592]},"display_name":"Daou's House, Via Ponte Taro, Noceto, PR, EMR, 43015, Italia","category":"resting","type":"hotel","importance":0.001,"icon":"http://nominatim.openstreetmap.org/images/mapicons/accommodation_hotel2.p.20.png","visiting_time":10.0,"opening_hours":null,"opening_days":null,"rating":0,"photo_url":null,"description":null,"www":null},{"place_id":"55208257","geometry":{"type":"Point","coordinates":[10.0903818,44.7950216]},"display_name":"Ostello communale, Via Varano, Noceto, PR, EMR, 43014, Italia","category":"resting","type":"hostel","importance":0.001,"icon":null,"visiting_time":10.0,"opening_hours":null,"opening_days":null,"rating":0,"photo_url":null,"description":null,"www":null},{"place_id":"55208257","geometry":{"type":"Point","coordinates":[10.0903818,44.7950216]},"display_name":"Ostello communale, Via Varano, Noceto, PR, EMR, 43014, Italia","category":"resting","type":"hostel","importance":0.001,"icon":null,"visiting_time":10.0,"opening_hours":null,"opening_days":null,"rating":0,"photo_url":null,"description":null,"www":null}]