[{"place_id":"44,62041151460560","geometry":{"type":"Point","coordinates":[11.670447747,44.620411515]},"display_name":"Comune di Molinella,from:IBC","category":"attractions","type":"HolderOfArchives","importance":0.0,"icon":"","visiting_time":0.0,"opening_hours":"ok","opening_days":"ok","rating":0,"photo_url":null,"description":null,"www":"http://www.comune.molinella.bo.it"},{"place_id":"44,61808429538860","geometry":{"type":"Point","coordinates":[11.837302918,44.618084295]},"display_name":"Biblioteca comunale Francesco Leopoldo Bertoldi di Argenta,from:IBC","category":"attractions","type":"HolderOfArchives","importance":0.0,"icon":"","visiting_time":0.0,"opening_hours":"ok","opening_days":"ok","rating":0,"photo_url":null,"description":null,"www":"http://www.portaleargenta.it"},{"place_id":"44,61808429538860","geometry":{"type":"Point","coordinates":[11.837302918,44.618084295]},"display_name":"Biblioteca comunale Francesco Leopoldo Bertoldi di Argenta,from:IBC","category":"attractions","type":"HolderOfArchives","importance":0.0,"icon":"","visiting_time":0.0,"opening_hours":"ok","opening_days":"ok","rating":0,"photo_url":null,"description":null,"www":"http://www.comune.argenta.fe.it"},{"place_id":"44,69591994960850","geometry":{"type":"Point","coordinates":[11.807748567,44.69591995]},"display_name":"Comune di Portomaggiore,from:IBC","category":"attractions","type":"HolderOfArchives","importance":0.0,"icon":"","visiting_time":0.0,"opening_hours":"ok","opening_days":"ok","rating":0,"photo_url":null,"description":null,"www":"http://www.portoinrete.com"},{"place_id":"44,62094098967490","geometry":{"type":"Point","coordinates":[11.669668161,44.62094099]},"display_name":"Biblioteca comunale Severino Ferrari,from:IBC","category":"attractions","type":"Library","importance":0.0,"icon":"","visiting_time":0.0,"opening_hours":"ok","opening_days":"ok","rating":0,"photo_url":null,"description":null,"www":"http://www.comune.molinella.bo.it/vivere/biblio/servizi.aspx"},{"place_id":"44,61808429538860","geometry":{"type":"Point","coordinates":[11.837302918,44.618084295]},"display_name":"Biblioteca comunale Francesco Leopoldo Bertoldi,from:IBC","category":"attractions","type":"Library","importance":0.0,"icon":"","visiting_time":0.0,"opening_hours":"ok","opening_days":"ok","rating":0,"photo_url":null,"description":null,"www":"http://digilander.libero.it/biblioargenta/"},{"place_id":"44,61808429538860","geometry":{"type":"Point","coordinates":[11.837302918,44.618084295]},"display_name":"Biblioteca comunale Francesco Leopoldo Bertoldi,from:IBC","category":"attractions","type":"Library","importance":0.0,"icon":"","visiting_time":0.0,"opening_hours":"ok","opening_days":"ok","rating":0,"photo_url":null,"description":null,"www":"http://www.portaleargenta.it/tempo_libero/biblioteca.php"},{"place_id":"44,69591994960850","geometry":{"type":"Point","coordinates":[11.807748567,44.69591995]},"display_name":"Biblioteca comunale,from:IBC","category":"attractions","type":"Library","importance":0.0,"icon":"","visiting_time":0.0,"opening_hours":"ok","opening_days":"ok","rating":0,"photo_url":null,"description":null,"www":"http://www.bibliotecaportomaggiore.com"},{"place_id":"44,61949565630020","geometry":{"type":"Point","coordinates":[11.815272564,44.619495656]},"display_name":"Ecomuseo: Museo della Bonifica,from:IBC","category":"attractions","type":"Museum","importance":0.0,"icon":"","visiting_time":0.0,"opening_hours":"ok","opening_days":"ok","rating":0,"photo_url":null,"description":null,"www":"http://www.portaleargenta.it/turismo/ecomuseo/museo_bonifica.html"},{"place_id":"44,58251913427440","geometry":{"type":"Point","coordinates":[11.799034887,44.582519134]},"display_name":"Ecomuseo: Museo delle Valli,from:IBC","category":"attractions","type":"Museum","importance":0.0,"icon":"","visiting_time":0.0,"opening_hours":"ok","opening_days":"ok","rating":0,"photo_url":null,"description":null,"www":"http://www.portaleargenta.it/turismo/ecomuseo/museo_valli.html"},{"place_id":"44,61755054132670","geometry":{"type":"Point","coordinates":[11.830478559,44.617550541]},"display_name":"Museo Civico,from:IBC","category":"attractions","type":"Museum","importance":0.0,"icon":"","visiting_time":0.0,"opening_hours":"ok","opening_days":"ok","rating":0,"photo_url":null,"description":null,"www":"http://www.portaleargenta.it/turismo/ecomuseo/museo_civico.html"},{"place_id":"Un Platano Medicina S. Antonio Via S. Antonio, 7368 56","geometry":{"type":"Point","coordinates":[11.71750023,44.55972462]},"display_name":"Un Platano Medicina S. Antonio Via S. Antonio, 7368,from:IBC","category":"tree","type":"tree","importance":0.0,"icon":"","visiting_time":0.0,"opening_hours":"ok","opening_days":"ok","rating":0,"photo_url":"http://online.ibc.regione.emilia-romagna.it/mtrees/image/100.jpg","description":null,"www":null},{"place_id":"Un Gelso bianco Argenta Loc. Il Trombone 199","geometry":{"type":"Point","coordinates":[11.74770194,44.65014829]},"display_name":"Un Gelso bianco Argenta Loc. Il Trombone,from:IBC","category":"tree","type":"tree","importance":0.0,"icon":"","visiting_time":0.0,"opening_hours":"ok","opening_days":"ok","rating":0,"photo_url":"http://online.ibc.regione.emilia-romagna.it/mtrees/image/216.jpg","description":null,"www":null},{"place_id":"Due Pioppi bianchi Argenta Traghetto, via Morgone 215","geometry":{"type":"Point","coordinates":[11.69887959,44.63807132]},"display_name":"Due Pioppi bianchi Argenta Traghetto, via Morgone,from:IBC","category":"tree","type":"tree","importance":0.0,"icon":"","visiting_time":0.0,"opening_hours":"ok","opening_days":"ok","rating":0,"photo_url":"http://online.ibc.regione.emilia-romagna.it/mtrees/image/11765.jpg","description":null,"www":null},{"place_id":"Una Farnia Argenta Strada della Rovere (Ponte) 297","geometry":{"type":"Point","coordinates":[11.80199146,44.61036216]},"display_name":"Una Farnia Argenta Strada della Rovere (Ponte),from:IBC","category":"tree","type":"tree","importance":0.0,"icon":"","visiting_time":0.0,"opening_hours":"ok","opening_days":"ok","rating":0,"photo_url":"http://online.ibc.regione.emilia-romagna.it/mtrees/image/172.jpg","description":null,"www":null},{"place_id":"1 pianta isolata Zola Predosa Madonna Prati (Via Scuderie e Az. Orsi Mangelli) 339","geometry":{"type":"Point","coordinates":[11.74770194,44.65014829]},"display_name":"1 pianta isolata Zola Predosa Madonna Prati (Via Scuderie e Az. Orsi Mangelli),from:IBC","category":"tree","type":"tree","importance":0.0,"icon":"","visiting_time":0.0,"opening_hours":"ok","opening_days":"ok","rating":0,"photo_url":null,"description":null,"www":null},{"place_id":"Due Platani Castel Bolognese Via Serra 550","geometry":{"type":"Point","coordinates":[11.87756538,44.57488565]},"display_name":"Due Platani Castel Bolognese Via Serra,from:IBC","category":"tree","type":"tree","importance":0.0,"icon":"","visiting_time":0.0,"opening_hours":"ok","opening_days":"ok","rating":0,"photo_url":"http://online.ibc.regione.emilia-romagna.it/mtrees/image/9862.jpg","description":null,"www":null},{"place_id":"Due Pioppi Bianchi Conselice Via Selice, 34 611","geometry":{"type":"Point","coordinates":[11.84263729,44.55105009]},"display_name":"Due Pioppi Bianchi Conselice Via Selice, 34,from:IBC","category":"tree","type":"tree","importance":0.0,"icon":"","visiting_time":0.0,"opening_hours":"ok","opening_days":"ok","rating":0,"photo_url":null,"description":null,"www":null},{"place_id":"Un Frassino comune Conselice Lavezzola, S.S. 16 837","geometry":{"type":"Point","coordinates":[11.87756538,44.57488565]},"display_name":"Un Frassino comune Conselice Lavezzola, S.S. 16,from:IBC","category":"tree","type":"tree","importance":0.0,"icon":"","visiting_time":0.0,"opening_hours":"ok","opening_days":"ok","rating":0,"photo_url":"http://online.ibc.regione.emilia-romagna.it/mtrees/image/1268.jpg","description":null,"www":null},{"place_id":"Due Pioppi Bianchi Conselice Via Selice, 34 846","geometry":{"type":"Point","coordinates":[11.84250629,44.55094533]},"display_name":"Due Pioppi Bianchi Conselice Via Selice, 34,from:IBC","category":"tree","type":"tree","importance":0.0,"icon":"","visiting_time":0.0,"opening_hours":"ok","opening_days":"ok","rating":0,"photo_url":null,"description":null,"www":null},{"place_id":"Un Gelso Argenta Filo - Case Selvatiche 913","geometry":{"type":"Point","coordinates":[11.90625626,44.58373686]},"display_name":"Un Gelso Argenta Filo - Case Selvatiche,from:IBC","category":"tree","type":"tree","importance":0.0,"icon":"","visiting_time":0.0,"opening_hours":"ok","opening_days":"ok","rating":0,"photo_url":"http://online.ibc.regione.emilia-romagna.it/mtrees/image/8675.jpg","description":null,"www":null},{"place_id":"Un Pioppo nero Castel Bolognese Via Serra, 1660 920","geometry":{"type":"Point","coordinates":[11.85632276,44.55800915]},"display_name":"Un Pioppo nero Castel Bolognese Via Serra, 1660,from:IBC","category":"tree","type":"tree","importance":0.0,"icon":"","visiting_time":0.0,"opening_hours":"ok","opening_days":"ok","rating":0,"photo_url":"http://online.ibc.regione.emilia-romagna.it/mtrees/image/6676.12.06.pdf","description":null,"www":null},{"place_id":"Un Pioppo bianco Conselice Via Selice (Ponte Rosso) 945","geometry":{"type":"Point","coordinates":[11.85632276,44.55800915]},"display_name":"Un Pioppo bianco Conselice Via Selice (Ponte Rosso),from:IBC","category":"tree","type":"tree","importance":0.0,"icon":"","visiting_time":0.0,"opening_hours":"ok","opening_days":"ok","rating":0,"photo_url":"http://online.ibc.regione.emilia-romagna.it/mtrees/image/1264.jpg","description":null,"www":null}]