[{"place_id":"44,63214209793160","geometry":{"type":"Point","coordinates":[9.731357951,44.632142098]},"display_name":"Comune di Bardi,from:IBC","category":"attractions","type":"HolderOfArchives","importance":0.0,"icon":"","visiting_time":0.0,"opening_hours":"ok","opening_days":"ok","rating":0,"photo_url":null,"description":null,"www":"http://www.comune.bardi.pr.it"},{"place_id":"44,63180082694990","geometry":{"type":"Point","coordinates":[9.73124609,44.631800827]},"display_name":"Biblioteca comunale,from:IBC","category":"attractions","type":"Library","importance":0.0,"icon":"","visiting_time":0.0,"opening_hours":"ok","opening_days":"ok","rating":0,"photo_url":null,"description":null,"www":"http://www.comune.bardi.pr.it"},{"place_id":"Quercia Farini d'Olmo Castello Nord-Ovest 193","geometry":{"type":"Point","coordinates":[9.61067546,44.65377007]},"display_name":"Quercia Farini d'Olmo Castello Nord-Ovest,from:IBC","category":"tree","type":"tree","importance":0.0,"icon":"","visiting_time":0.0,"opening_hours":"ok","opening_days":"ok","rating":0,"photo_url":"http://online.ibc.regione.emilia-romagna.it/mtrees/image/899.jpg","description":null,"www":null},{"place_id":"Una Rovere Bardi Campello Ferrari 571","geometry":{"type":"Point","coordinates":[9.73637843,44.60081481]},"display_name":"Una Rovere Bardi Campello Ferrari,from:IBC","category":"tree","type":"tree","importance":0.0,"icon":"","visiting_time":0.0,"opening_hours":"ok","opening_days":"ok","rating":0,"photo_url":"http://online.ibc.regione.emilia-romagna.it/mtrees/image/1085.jpg","description":null,"www":null},{"place_id":"Una Roverella Bardi Visceto 621","geometry":{"type":"Point","coordinates":[9.69955415,44.62341733]},"display_name":"Una Roverella Bardi Visceto,from:IBC","category":"tree","type":"tree","importance":0.0,"icon":"","visiting_time":0.0,"opening_hours":"ok","opening_days":"ok","rating":0,"photo_url":"http://online.ibc.regione.emilia-romagna.it/mtrees/image/975.jpg","description":null,"www":null},{"place_id":"Una Quercia Bardi Costa Gemignana (Costella) 683","geometry":{"type":"Point","coordinates":[9.63947885,44.62021342]},"display_name":"Una Quercia Bardi Costa Gemignana (Costella),from:IBC","category":"tree","type":"tree","importance":0.0,"icon":"","visiting_time":0.0,"opening_hours":"ok","opening_days":"ok","rating":0,"photo_url":"http://online.ibc.regione.emilia-romagna.it/mtrees/image/983.jpg","description":null,"www":null},{"place_id":"Una Rovere Varsi Manganini 909","geometry":{"type":"Point","coordinates":[9.82337884,44.64498997]},"display_name":"Una Rovere Varsi Manganini,from:IBC","category":"tree","type":"tree","importance":0.0,"icon":"","visiting_time":0.0,"opening_hours":"ok","opening_days":"ok","rating":0,"photo_url":"http://online.ibc.regione.emilia-romagna.it/mtrees/image/1123.jpg","description":null,"www":null}]