[{"place_id":"99586914","geometry":{"type":"Point","coordinates":[9.807045453,44.59147515]},"display_name":"Cascate Lavachielli, 803a, i Pellegri, Bardi, PR, EMR, 43050, Italia","category":"attractions","type":"attraction","importance":0.001,"icon":"http://nominatim.openstreetmap.org/images/mapicons/poi_point_of_interest.p.20.png","visiting_time":30.0,"opening_hours":null,"opening_days":null,"rating":0,"photo_url":null,"description":null,"www":null},{"place_id":"7738801","geometry":{"type":"Point","coordinates":[9.7325334,44.6300872]},"display_name":"Groppo, Via Lituania, Cà Gazzini, Bardi, PR, EMR, 43032, Italia","category":"attractions","type":"viewpoint","importance":0.001,"icon":"http://nominatim.openstreetmap.org/images/mapicons/tourist_view_point.p.20.png","visiting_time":10.0,"opening_hours":null,"opening_days":null,"rating":0,"photo_url":null,"description":null,"www":null},{"place_id":"7490669","geometry":{"type":"Point","coordinates":[9.7315231,44.6289271]},"display_name":"Piazza Vito Fumagalli, Pompei, Bardi, PR, EMR, 43032, Italia","category":"attractions","type":"viewpoint","importance":0.001,"icon":"http://nominatim.openstreetmap.org/images/mapicons/tourist_view_point.p.20.png","visiting_time":10.0,"opening_hours":null,"opening_days":null,"rating":0,"photo_url":null,"description":null,"www":null},{"place_id":"5104776","geometry":{"type":"Point","coordinates":[9.8290407,44.5988483]},"display_name":"Monte Barigazzo, 811c, Case del Pino, Varsi, PR, EMR, 43050, Italia","category":"attractions","type":"viewpoint","importance":0.001,"icon":"http://nominatim.openstreetmap.org/images/mapicons/tourist_view_point.p.20.png","visiting_time":10.0,"opening_hours":null,"opening_days":null,"rating":0,"photo_url":null,"description":null,"www":null},{"place_id":"55698114","geometry":{"type":"Point","coordinates":[9.576091,44.6353075]},"display_name":"Osteria Dallavalle, 033, Ferriere, PC, EMR, 29024, Italia","category":"eating","type":"restaurant","importance":0.001,"icon":"http://nominatim.openstreetmap.org/images/mapicons/food_restaurant.p.20.png","visiting_time":60.0,"opening_hours":null,"opening_days":null,"rating":0,"photo_url":null,"description":null,"www":null},{"place_id":"5260803","geometry":{"type":"Point","coordinates":[9.7310953,44.6311333]},"display_name":"Trattoria Pizzeria Il Pellicano, Via Pietro Cella, Pompei, Bardi, PR, EMR, 43032, Italia","category":"eating","type":"restaurant","importance":0.001,"icon":"http://nominatim.openstreetmap.org/images/mapicons/food_restaurant.p.20.png","visiting_time":60.0,"opening_hours":null,"opening_days":null,"rating":0,"photo_url":null,"description":null,"www":null},{"place_id":"7613296","geometry":{"type":"Point","coordinates":[9.7608734,44.5904193]},"display_name":"Da Geppetto, SP21, Case Bagaglia, Bardi, PR, EMR, 43032, Italia","category":"eating","type":"restaurant","importance":0.001,"icon":"http://nominatim.openstreetmap.org/images/mapicons/food_restaurant.p.20.png","visiting_time":60.0,"opening_hours":null,"opening_days":null,"rating":0,"photo_url":null,"description":null,"www":null},{"place_id":"88281620","geometry":{"type":"Point","coordinates":[9.648623176,44.6693794]},"display_name":"035, Linguadà, Bardi, PC, EMR, Italia","category":"eating","type":"restaurant","importance":0.001,"icon":"http://nominatim.openstreetmap.org/images/mapicons/food_restaurant.p.20.png","visiting_time":60.0,"opening_hours":null,"opening_days":null,"rating":0,"photo_url":null,"description":null,"www":null},{"place_id":"52415861","geometry":{"type":"Point","coordinates":[9.7324656,44.6215733]},"display_name":"Ristorante Pizzeria La Baracca, 208, SP21, Ponte al Ceno, Bardi, PR, EMR, 43032, Italia","category":"eating","type":"restaurant","importance":0.001,"icon":"http://nominatim.openstreetmap.org/images/mapicons/food_restaurant.p.20.png","visiting_time":60.0,"opening_hours":null,"opening_days":null,"rating":0,"photo_url":null,"description":null,"www":null},{"place_id":"15251793","geometry":{"type":"Point","coordinates":[9.5834613,44.5962281]},"display_name":"da Milietto, 801b, Vosina, Bardi, PR, EMR, Italia","category":"eating","type":"restaurant","importance":0.001,"icon":"http://nominatim.openstreetmap.org/images/mapicons/food_restaurant.p.20.png","visiting_time":60.0,"opening_hours":null,"opening_days":null,"rating":0,"photo_url":null,"description":null,"www":null},{"place_id":"52837206","geometry":{"type":"Point","coordinates":[9.6354754,44.6024869]},"display_name":"Osteria Ponte Lecca, 60, Strada Comunale Molino Lecca-Santa Giustina, Ponte Lecca, Bardi, PR, EMR, 43032, Italia","category":"eating","type":"restaurant","importance":0.001,"icon":"http://nominatim.openstreetmap.org/images/mapicons/food_restaurant.p.20.png","visiting_time":60.0,"opening_hours":null,"opening_days":null,"rating":0,"photo_url":null,"description":null,"www":null},{"place_id":"20603477","geometry":{"type":"Point","coordinates":[9.7702357,44.5712446]},"display_name":"Ca' del Fuoco, Strada comunale di Osacca, Cerri, Bardi, PR, EMR, Italia","category":"eating","type":"restaurant","importance":0.001,"icon":"http://nominatim.openstreetmap.org/images/mapicons/food_restaurant.p.20.png","visiting_time":60.0,"opening_hours":null,"opening_days":null,"rating":0,"photo_url":null,"description":null,"www":null},{"place_id":"16220886","geometry":{"type":"Point","coordinates":[9.6180046,44.6369793]},"display_name":"035, Case Dantino, Bardi, PR, EMR, Italia","category":"eating","type":"restaurant","importance":0.001,"icon":"http://nominatim.openstreetmap.org/images/mapicons/food_restaurant.p.20.png","visiting_time":60.0,"opening_hours":null,"opening_days":null,"rating":0,"photo_url":null,"description":null,"www":null},{"place_id":"4944580","geometry":{"type":"Point","coordinates":[9.7320789,44.6311889]},"display_name":"Bue Rosso, 10, Piazza martiri d'Ungheria, Cà Gazzini, Bardi, PR, EMR, 43032, Italia","category":"eating","type":"restaurant","importance":0.001,"icon":"http://nominatim.openstreetmap.org/images/mapicons/food_restaurant.p.20.png","visiting_time":60.0,"opening_hours":null,"opening_days":null,"rating":0,"photo_url":null,"description":null,"www":null},{"place_id":"7731537","geometry":{"type":"Point","coordinates":[9.7310708,44.6302539]},"display_name":"Due Spade, 9, Via Giordani, Pompei, Bardi, PR, EMR, 43032, Italia","category":"eating","type":"restaurant","importance":0.001,"icon":"http://nominatim.openstreetmap.org/images/mapicons/food_restaurant.p.20.png","visiting_time":60.0,"opening_hours":null,"opening_days":null,"rating":0,"photo_url":null,"description":null,"www":null},{"place_id":"52704660","geometry":{"type":"Point","coordinates":[9.6794359,44.5736433]},"display_name":"Trattoria Solari, SP66, Molino dei Belli, Bardi, PR, EMR, 43050, Italia","category":"eating","type":"restaurant","importance":0.001,"icon":"http://nominatim.openstreetmap.org/images/mapicons/food_restaurant.p.20.png","visiting_time":60.0,"opening_hours":null,"opening_days":null,"rating":0,"photo_url":null,"description":null,"www":null},{"place_id":"26625154","geometry":{"type":"Point","coordinates":[9.7487333,44.6228808]},"display_name":"La Colomba, Strada Monti - Pietrarada, Cà Triballi, Varsi, PR, EMR, 43032, Italia","category":"eating","type":"restaurant","importance":0.001,"icon":"http://nominatim.openstreetmap.org/images/mapicons/food_restaurant.p.20.png","visiting_time":60.0,"opening_hours":null,"opening_days":null,"rating":0,"photo_url":null,"description":null,"www":null},{"place_id":"16383311","geometry":{"type":"Point","coordinates":[9.8157757,44.6225419]},"display_name":"Città d'Umbria, Strada Lamberti - Tosca, Bianchi, Varsi, PR, EMR, 43050, Italia","category":"eating","type":"restaurant","importance":0.001,"icon":"http://nominatim.openstreetmap.org/images/mapicons/food_restaurant.p.20.png","visiting_time":60.0,"opening_hours":null,"opening_days":null,"rating":0,"photo_url":null,"description":null,"www":null},{"place_id":"6876749","geometry":{"type":"Point","coordinates":[9.7448836,44.6801513]},"display_name":"SP359R, Bore, PC, EMR, 43030, Italia","category":"eating","type":"restaurant","importance":0.001,"icon":"http://nominatim.openstreetmap.org/images/mapicons/food_restaurant.p.20.png","visiting_time":60.0,"opening_hours":null,"opening_days":null,"rating":0,"photo_url":null,"description":null,"www":null},{"place_id":"55698114","geometry":{"type":"Point","coordinates":[9.576091,44.6353075]},"display_name":"Osteria Dallavalle, 033, Ferriere, PC, EMR, 29024, Italia","category":"eating","type":"restaurant","importance":0.001,"icon":"http://nominatim.openstreetmap.org/images/mapicons/food_restaurant.p.20.png","visiting_time":60.0,"opening_hours":null,"opening_days":null,"rating":0,"photo_url":null,"description":null,"www":null},{"place_id":"5260803","geometry":{"type":"Point","coordinates":[9.7310953,44.6311333]},"display_name":"Trattoria Pizzeria Il Pellicano, Via Pietro Cella, Pompei, Bardi, PR, EMR, 43032, Italia","category":"eating","type":"restaurant","importance":0.001,"icon":"http://nominatim.openstreetmap.org/images/mapicons/food_restaurant.p.20.png","visiting_time":60.0,"opening_hours":null,"opening_days":null,"rating":0,"photo_url":null,"description":null,"www":null},{"place_id":"7613296","geometry":{"type":"Point","coordinates":[9.7608734,44.5904193]},"display_name":"Da Geppetto, SP21, Case Bagaglia, Bardi, PR, EMR, 43032, Italia","category":"eating","type":"restaurant","importance":0.001,"icon":"http://nominatim.openstreetmap.org/images/mapicons/food_restaurant.p.20.png","visiting_time":60.0,"opening_hours":null,"opening_days":null,"rating":0,"photo_url":null,"description":null,"www":null},{"place_id":"88281620","geometry":{"type":"Point","coordinates":[9.648623176,44.6693794]},"display_name":"035, Linguadà, Bardi, PC, EMR, Italia","category":"eating","type":"restaurant","importance":0.001,"icon":"http://nominatim.openstreetmap.org/images/mapicons/food_restaurant.p.20.png","visiting_time":60.0,"opening_hours":null,"opening_days":null,"rating":0,"photo_url":null,"description":null,"www":null},{"place_id":"52415861","geometry":{"type":"Point","coordinates":[9.7324656,44.6215733]},"display_name":"Ristorante Pizzeria La Baracca, 208, SP21, Ponte al Ceno, Bardi, PR, EMR, 43032, Italia","category":"eating","type":"restaurant","importance":0.001,"icon":"http://nominatim.openstreetmap.org/images/mapicons/food_restaurant.p.20.png","visiting_time":60.0,"opening_hours":null,"opening_days":null,"rating":0,"photo_url":null,"description":null,"www":null},{"place_id":"15251793","geometry":{"type":"Point","coordinates":[9.5834613,44.5962281]},"display_name":"da Milietto, 801b, Vosina, Bardi, PR, EMR, Italia","category":"eating","type":"restaurant","importance":0.001,"icon":"http://nominatim.openstreetmap.org/images/mapicons/food_restaurant.p.20.png","visiting_time":60.0,"opening_hours":null,"opening_days":null,"rating":0,"photo_url":null,"description":null,"www":null},{"place_id":"52837206","geometry":{"type":"Point","coordinates":[9.6354754,44.6024869]},"display_name":"Osteria Ponte Lecca, 60, Strada Comunale Molino Lecca-Santa Giustina, Ponte Lecca, Bardi, PR, EMR, 43032, Italia","category":"eating","type":"restaurant","importance":0.001,"icon":"http://nominatim.openstreetmap.org/images/mapicons/food_restaurant.p.20.png","visiting_time":60.0,"opening_hours":null,"opening_days":null,"rating":0,"photo_url":null,"description":null,"www":null},{"place_id":"20603477","geometry":{"type":"Point","coordinates":[9.7702357,44.5712446]},"display_name":"Ca' del Fuoco, Strada comunale di Osacca, Cerri, Bardi, PR, EMR, Italia","category":"eating","type":"restaurant","importance":0.001,"icon":"http://nominatim.openstreetmap.org/images/mapicons/food_restaurant.p.20.png","visiting_time":60.0,"opening_hours":null,"opening_days":null,"rating":0,"photo_url":null,"description":null,"www":null},{"place_id":"16220886","geometry":{"type":"Point","coordinates":[9.6180046,44.6369793]},"display_name":"035, Case Dantino, Bardi, PR, EMR, Italia","category":"eating","type":"restaurant","importance":0.001,"icon":"http://nominatim.openstreetmap.org/images/mapicons/food_restaurant.p.20.png","visiting_time":60.0,"opening_hours":null,"opening_days":null,"rating":0,"photo_url":null,"description":null,"www":null},{"place_id":"4944580","geometry":{"type":"Point","coordinates":[9.7320789,44.6311889]},"display_name":"Bue Rosso, 10, Piazza martiri d'Ungheria, Cà Gazzini, Bardi, PR, EMR, 43032, Italia","category":"eating","type":"restaurant","importance":0.001,"icon":"http://nominatim.openstreetmap.org/images/mapicons/food_restaurant.p.20.png","visiting_time":60.0,"opening_hours":null,"opening_days":null,"rating":0,"photo_url":null,"description":null,"www":null},{"place_id":"7731537","geometry":{"type":"Point","coordinates":[9.7310708,44.6302539]},"display_name":"Due Spade, 9, Via Giordani, Pompei, Bardi, PR, EMR, 43032, Italia","category":"eating","type":"restaurant","importance":0.001,"icon":"http://nominatim.openstreetmap.org/images/mapicons/food_restaurant.p.20.png","visiting_time":60.0,"opening_hours":null,"opening_days":null,"rating":0,"photo_url":null,"description":null,"www":null},{"place_id":"52704660","geometry":{"type":"Point","coordinates":[9.6794359,44.5736433]},"display_name":"Trattoria Solari, SP66, Molino dei Belli, Bardi, PR, EMR, 43050, Italia","category":"eating","type":"restaurant","importance":0.001,"icon":"http://nominatim.openstreetmap.org/images/mapicons/food_restaurant.p.20.png","visiting_time":60.0,"opening_hours":null,"opening_days":null,"rating":0,"photo_url":null,"description":null,"www":null},{"place_id":"26625154","geometry":{"type":"Point","coordinates":[9.7487333,44.6228808]},"display_name":"La Colomba, Strada Monti - Pietrarada, Cà Triballi, Varsi, PR, EMR, 43032, Italia","category":"eating","type":"restaurant","importance":0.001,"icon":"http://nominatim.openstreetmap.org/images/mapicons/food_restaurant.p.20.png","visiting_time":60.0,"opening_hours":null,"opening_days":null,"rating":0,"photo_url":null,"description":null,"www":null},{"place_id":"16383311","geometry":{"type":"Point","coordinates":[9.8157757,44.6225419]},"display_name":"Città d'Umbria, Strada Lamberti - Tosca, Bianchi, Varsi, PR, EMR, 43050, Italia","category":"eating","type":"restaurant","importance":0.001,"icon":"http://nominatim.openstreetmap.org/images/mapicons/food_restaurant.p.20.png","visiting_time":60.0,"opening_hours":null,"opening_days":null,"rating":0,"photo_url":null,"description":null,"www":null},{"place_id":"6876749","geometry":{"type":"Point","coordinates":[9.7448836,44.6801513]},"display_name":"SP359R, Bore, PC, EMR, 43030, Italia","category":"eating","type":"restaurant","importance":0.001,"icon":"http://nominatim.openstreetmap.org/images/mapicons/food_restaurant.p.20.png","visiting_time":60.0,"opening_hours":null,"opening_days":null,"rating":0,"photo_url":null,"description":null,"www":null},{"place_id":"178623962","geometry":{"type":"Point","coordinates":[9.731631524,44.6291923]},"display_name":"Castello di Bardi, Piazza Vito Fumagalli, Pompei, Bardi, PR, EMR, 43032, Italia","category":"attractions","type":"castle","importance":0.13061965,"icon":"http://nominatim.openstreetmap.org/images/mapicons/tourist_castle.p.20.png","visiting_time":120.0,"opening_hours":null,"opening_days":null,"rating":0,"photo_url":null,"description":null,"www":null},{"place_id":"88336394","geometry":{"type":"Point","coordinates":[9.808661193,44.6042017]},"display_name":"Noveglia-Pianelleto, Bardi, PR, EMR, 43050, Italia","category":"attractions","type":"ruins","importance":0.001,"icon":"http://nominatim.openstreetmap.org/images/mapicons/tourist_ruin.p.20.png","visiting_time":30.0,"opening_hours":null,"opening_days":null,"rating":0,"photo_url":null,"description":null,"www":null},{"place_id":"88084144","geometry":{"type":"Point","coordinates":[9.778237375,44.5942446]},"display_name":"strada comunale di Pianelleto, i Pellegri, Bardi, PR, EMR, Italia","category":"attractions","type":"ruins","importance":0.001,"icon":"http://nominatim.openstreetmap.org/images/mapicons/tourist_ruin.p.20.png","visiting_time":30.0,"opening_hours":null,"opening_days":null,"rating":0,"photo_url":null,"description":null,"www":null},{"place_id":"16506781","geometry":{"type":"Point","coordinates":[9.7801436,44.5884162]},"display_name":"Castello Gravago, 803a, i Pellegri, Bardi, PR, EMR, Italia","category":"attractions","type":"ruins","importance":0.001,"icon":"http://nominatim.openstreetmap.org/images/mapicons/tourist_ruin.p.20.png","visiting_time":30.0,"opening_hours":null,"opening_days":null,"rating":0,"photo_url":null,"description":null,"www":null},{"place_id":"5155072","geometry":{"type":"Point","coordinates":[9.7323248,44.6326352]},"display_name":"Viale Martiri della Libertà, Cà Gazzini, Bardi, PR, EMR, 43032, Italia","category":"lifestyle","type":"bar","importance":0.101,"icon":"http://nominatim.openstreetmap.org/images/mapicons/food_bar.p.20.png","visiting_time":10.0,"opening_hours":null,"opening_days":null,"rating":0,"photo_url":null,"description":null,"www":null},{"place_id":"16905354","geometry":{"type":"Point","coordinates":[9.6485626,44.669342]},"display_name":"035, Linguadà, Bardi, PC, EMR, Italia","category":"lifestyle","type":"bar","importance":0.101,"icon":"http://nominatim.openstreetmap.org/images/mapicons/food_bar.p.20.png","visiting_time":10.0,"opening_hours":null,"opening_days":null,"rating":0,"photo_url":null,"description":null,"www":null},{"place_id":"5165263","geometry":{"type":"Point","coordinates":[9.7309383,44.631199]},"display_name":"Via Pietro Cella, Pompei, Bardi, PR, EMR, 43032, Italia","category":"lifestyle","type":"bar","importance":0.101,"icon":"http://nominatim.openstreetmap.org/images/mapicons/food_bar.p.20.png","visiting_time":10.0,"opening_hours":null,"opening_days":null,"rating":0,"photo_url":null,"description":null,"www":null},{"place_id":"5039477","geometry":{"type":"Point","coordinates":[9.7311096,44.6325501]},"display_name":"Strada Provinciale 359 di Salsomaggiore e Bardi, Cà Rotta, Bardi, PR, EMR, 43032, Italia","category":"lifestyle","type":"bar","importance":0.101,"icon":"http://nominatim.openstreetmap.org/images/mapicons/food_bar.p.20.png","visiting_time":10.0,"opening_hours":null,"opening_days":null,"rating":0,"photo_url":null,"description":null,"www":null},{"place_id":"4954822","geometry":{"type":"Point","coordinates":[9.7312981,44.6318831]},"display_name":"Via Roma, Cà Gazzini, Bardi, PR, EMR, 43032, Italia","category":"lifestyle","type":"bar","importance":0.101,"icon":"http://nominatim.openstreetmap.org/images/mapicons/food_bar.p.20.png","visiting_time":10.0,"opening_hours":null,"opening_days":null,"rating":0,"photo_url":null,"description":null,"www":null},{"place_id":"5198484","geometry":{"type":"Point","coordinates":[9.7315815,44.6311926]},"display_name":"Bar della Piazza, Piazza martiri d'Ungheria, Cà Gazzini, Bardi, PR, EMR, 43032, Italia","category":"lifestyle","type":"bar","importance":0.101,"icon":"http://nominatim.openstreetmap.org/images/mapicons/food_bar.p.20.png","visiting_time":10.0,"opening_hours":null,"opening_days":null,"rating":0,"photo_url":null,"description":null,"www":null},{"place_id":"26138693","geometry":{"type":"Point","coordinates":[9.8158296,44.622609]},"display_name":"Strada Lamberti - Tosca, Bianchi, Varsi, PR, EMR, 43050, Italia","category":"lifestyle","type":"bar","importance":0.001,"icon":"http://nominatim.openstreetmap.org/images/mapicons/food_bar.p.20.png","visiting_time":10.0,"opening_hours":null,"opening_days":null,"rating":0,"photo_url":null,"description":null,"www":null},{"place_id":"52236490","geometry":{"type":"Point","coordinates":[9.8143591,44.6517425]},"display_name":"Papaya, SP28, Case Pratofiorito, Varsi, PR, EMR, 43049, Italia","category":"lifestyle","type":"bar","importance":0.001,"icon":"http://nominatim.openstreetmap.org/images/mapicons/food_bar.p.20.png","visiting_time":10.0,"opening_hours":null,"opening_days":null,"rating":0,"photo_url":null,"description":null,"www":null},{"place_id":"5155072","geometry":{"type":"Point","coordinates":[9.7323248,44.6326352]},"display_name":"Viale Martiri della Libertà, Cà Gazzini, Bardi, PR, EMR, 43032, Italia","category":"lifestyle","type":"bar","importance":0.001,"icon":"http://nominatim.openstreetmap.org/images/mapicons/food_bar.p.20.png","visiting_time":90.0,"opening_hours":null,"opening_days":null,"rating":0,"photo_url":null,"description":null,"www":null},{"place_id":"16905354","geometry":{"type":"Point","coordinates":[9.6485626,44.669342]},"display_name":"035, Linguadà, Bardi, PC, EMR, Italia","category":"lifestyle","type":"bar","importance":0.001,"icon":"http://nominatim.openstreetmap.org/images/mapicons/food_bar.p.20.png","visiting_time":90.0,"opening_hours":null,"opening_days":null,"rating":0,"photo_url":null,"description":null,"www":null},{"place_id":"5165263","geometry":{"type":"Point","coordinates":[9.7309383,44.631199]},"display_name":"Via Pietro Cella, Pompei, Bardi, PR, EMR, 43032, Italia","category":"lifestyle","type":"bar","importance":0.001,"icon":"http://nominatim.openstreetmap.org/images/mapicons/food_bar.p.20.png","visiting_time":90.0,"opening_hours":null,"opening_days":null,"rating":0,"photo_url":null,"description":null,"www":null},{"place_id":"5039477","geometry":{"type":"Point","coordinates":[9.7311096,44.6325501]},"display_name":"Strada Provinciale 359 di Salsomaggiore e Bardi, Cà Rotta, Bardi, PR, EMR, 43032, Italia","category":"lifestyle","type":"bar","importance":0.001,"icon":"http://nominatim.openstreetmap.org/images/mapicons/food_bar.p.20.png","visiting_time":90.0,"opening_hours":null,"opening_days":null,"rating":0,"photo_url":null,"description":null,"www":null},{"place_id":"4954822","geometry":{"type":"Point","coordinates":[9.7312981,44.6318831]},"display_name":"Via Roma, Cà Gazzini, Bardi, PR, EMR, 43032, Italia","category":"lifestyle","type":"bar","importance":0.001,"icon":"http://nominatim.openstreetmap.org/images/mapicons/food_bar.p.20.png","visiting_time":90.0,"opening_hours":null,"opening_days":null,"rating":0,"photo_url":null,"description":null,"www":null},{"place_id":"5198484","geometry":{"type":"Point","coordinates":[9.7315815,44.6311926]},"display_name":"Bar della Piazza, Piazza martiri d'Ungheria, Cà Gazzini, Bardi, PR, EMR, 43032, Italia","category":"lifestyle","type":"bar","importance":0.001,"icon":"http://nominatim.openstreetmap.org/images/mapicons/food_bar.p.20.png","visiting_time":90.0,"opening_hours":null,"opening_days":null,"rating":0,"photo_url":null,"description":null,"www":null},{"place_id":"26138693","geometry":{"type":"Point","coordinates":[9.8158296,44.622609]},"display_name":"Strada Lamberti - Tosca, Bianchi, Varsi, PR, EMR, 43050, Italia","category":"lifestyle","type":"bar","importance":0.001,"icon":"http://nominatim.openstreetmap.org/images/mapicons/food_bar.p.20.png","visiting_time":90.0,"opening_hours":null,"opening_days":null,"rating":0,"photo_url":null,"description":null,"www":null},{"place_id":"52236490","geometry":{"type":"Point","coordinates":[9.8143591,44.6517425]},"display_name":"Papaya, SP28, Case Pratofiorito, Varsi, PR, EMR, 43049, Italia","category":"lifestyle","type":"bar","importance":0.001,"icon":"http://nominatim.openstreetmap.org/images/mapicons/food_bar.p.20.png","visiting_time":90.0,"opening_hours":null,"opening_days":null,"rating":0,"photo_url":null,"description":null,"www":null},{"place_id":"180169053","geometry":{"type":"Point","coordinates":[-8.3350726,43.2233149]},"display_name":"Abegondo, Galicia, CAFE, España","category":"lifestyle","type":"postcode","importance":0.2125,"icon":null,"visiting_time":10.0,"opening_hours":null,"opening_days":null,"rating":0,"photo_url":null,"description":null,"www":null},{"place_id":"16743087","geometry":{"type":"Point","coordinates":[9.68344,44.6824381]},"display_name":"905, Morfasso, PC, EMR, Italia","category":"attractions","type":"memorial","importance":0.001,"icon":"http://nominatim.openstreetmap.org/images/mapicons/tourist_monument.p.20.png","visiting_time":10.0,"opening_hours":null,"opening_days":null,"rating":0,"photo_url":null,"description":null,"www":null},{"place_id":"112444278","geometry":{"type":"Point","coordinates":[9.8089015,44.54737365]},"display_name":"Pradonico, 843-VA, Cà Maiocco, Borgo Val di Taro, PR, EMR, Italia","category":"attractions","type":"memorial","importance":0.001,"icon":"http://nominatim.openstreetmap.org/images/mapicons/tourist_monument.p.20.png","visiting_time":10.0,"opening_hours":null,"opening_days":null,"rating":0,"photo_url":null,"description":null,"www":null},{"place_id":"16743087","geometry":{"type":"Point","coordinates":[9.68344,44.6824381]},"display_name":"905, Morfasso, PC, EMR, Italia","category":"attractions","type":"memorial","importance":0.001,"icon":"http://nominatim.openstreetmap.org/images/mapicons/tourist_monument.p.20.png","visiting_time":10.0,"opening_hours":null,"opening_days":null,"rating":0,"photo_url":null,"description":null,"www":null},{"place_id":"112444278","geometry":{"type":"Point","coordinates":[9.8089015,44.54737365]},"display_name":"Pradonico, 843-VA, Cà Maiocco, Borgo Val di Taro, PR, EMR, Italia","category":"attractions","type":"memorial","importance":0.001,"icon":"http://nominatim.openstreetmap.org/images/mapicons/tourist_monument.p.20.png","visiting_time":10.0,"opening_hours":null,"opening_days":null,"rating":0,"photo_url":null,"description":null,"www":null},{"place_id":"78342114","geometry":{"type":"Point","coordinates":[9.731214294,44.63232015]},"display_name":"Piazza Vittoria, Cà Gazzini, Bardi, PR, EMR, Italia","category":"parks","type":"park","importance":0.15,"icon":null,"visiting_time":90.0,"opening_hours":null,"opening_days":null,"rating":0,"photo_url":null,"description":null,"www":null},{"place_id":"86931588","geometry":{"type":"Point","coordinates":[9.731645876,44.6323186]},"display_name":"Cà Gazzini, Bardi, PR, EMR, Italia","category":"parks","type":"park","importance":0.15,"icon":null,"visiting_time":90.0,"opening_hours":null,"opening_days":null,"rating":0,"photo_url":null,"description":null,"www":null},{"place_id":"112979918","geometry":{"type":"Point","coordinates":[9.577730238,44.6355803]},"display_name":"033, Ferriere, PC, EMR, Italia","category":"attractions","type":"place_of_worship","importance":0.001,"icon":"http://nominatim.openstreetmap.org/images/mapicons/place_of_worship_unknown3.p.20.png","visiting_time":30.0,"opening_hours":null,"opening_days":null,"rating":0,"photo_url":null,"description":null,"www":null},{"place_id":"128890186","geometry":{"type":"Point","coordinates":[9.57511461,44.6294646]},"display_name":"Mestà, 033, Ferriere, PC, EMR, Italia","category":"attractions","type":"place_of_worship","importance":0.001,"icon":"http://nominatim.openstreetmap.org/images/mapicons/place_of_worship_unknown3.p.20.png","visiting_time":30.0,"opening_hours":null,"opening_days":null,"rating":0,"photo_url":null,"description":null,"www":null},{"place_id":"5110585","geometry":{"type":"Point","coordinates":[9.8288877,44.5807017]},"display_name":"Pieve di Mariano, Provinciale del Mozzola, La Rovere di sotto, Valmozzola, PR, EMR, 43050, Italia","category":"attractions","type":"place_of_worship","importance":0.001,"icon":"http://nominatim.openstreetmap.org/images/mapicons/place_of_worship_unknown3.p.20.png","visiting_time":30.0,"opening_hours":null,"opening_days":null,"rating":0,"photo_url":null,"description":null,"www":null},{"place_id":"16789658","geometry":{"type":"Point","coordinates":[9.8120574,44.5660592]},"display_name":"Cappelletta Prato Grande, AVC/811, La Rovere di sotto, Valmozzola, PR, EMR, 43050, Italia","category":"attractions","type":"place_of_worship","importance":0.001,"icon":"http://nominatim.openstreetmap.org/images/mapicons/place_of_worship_unknown3.p.20.png","visiting_time":30.0,"opening_hours":null,"opening_days":null,"rating":0,"photo_url":null,"description":null,"www":null},{"place_id":"133784231","geometry":{"type":"Point","coordinates":[9.739735162,44.63206835]},"display_name":"Madonna delle Grazie, Viale Cardinale Antonio Samorè, Cà Cavanne, Bardi, PR, EMR, 43032, Italia","category":"attractions","type":"place_of_worship","importance":0.001,"icon":"http://nominatim.openstreetmap.org/images/mapicons/place_of_worship_unknown3.p.20.png","visiting_time":30.0,"opening_hours":null,"opening_days":null,"rating":0,"photo_url":null,"description":null,"www":null},{"place_id":"9262441","geometry":{"type":"Point","coordinates":[9.6693405,44.6676704]},"display_name":"SP77, Orsara, Bardi, PR, EMR, Italia","category":"attractions","type":"place_of_worship","importance":0.001,"icon":"http://nominatim.openstreetmap.org/images/mapicons/place_of_worship_unknown3.p.20.png","visiting_time":30.0,"opening_hours":null,"opening_days":null,"rating":0,"photo_url":null,"description":null,"www":null},{"place_id":"112457188","geometry":{"type":"Point","coordinates":[9.765626629,44.5942277]},"display_name":"da verificare, i Pellegri, Bardi, PR, EMR, Italia","category":"attractions","type":"place_of_worship","importance":0.001,"icon":"http://nominatim.openstreetmap.org/images/mapicons/place_of_worship_unknown3.p.20.png","visiting_time":30.0,"opening_hours":null,"opening_days":null,"rating":0,"photo_url":null,"description":null,"www":null},{"place_id":"16855393","geometry":{"type":"Point","coordinates":[9.7820845,44.5917869]},"display_name":"Maestà, 803a, i Pellegri, Bardi, PR, EMR, Italia","category":"attractions","type":"place_of_worship","importance":0.001,"icon":"http://nominatim.openstreetmap.org/images/mapicons/place_of_worship_unknown3.p.20.png","visiting_time":30.0,"opening_hours":null,"opening_days":null,"rating":0,"photo_url":null,"description":null,"www":null},{"place_id":"52170569","geometry":{"type":"Point","coordinates":[9.5920131,44.5922248]},"display_name":"Strada Comunale Pione - Santa Giustina, Vosina, Bardi, PR, EMR, Italia","category":"attractions","type":"place_of_worship","importance":0.001,"icon":"http://nominatim.openstreetmap.org/images/mapicons/place_of_worship_unknown3.p.20.png","visiting_time":30.0,"opening_hours":null,"opening_days":null,"rating":0,"photo_url":null,"description":null,"www":null},{"place_id":"87068212","geometry":{"type":"Point","coordinates":[9.730141078,44.6293741]},"display_name":"San Francesco, Via Principi Landi, Cà Rotta, Bardi, PR, EMR, 43032, Italia","category":"attractions","type":"place_of_worship","importance":0.001,"icon":"http://nominatim.openstreetmap.org/images/mapicons/place_of_worship_unknown3.p.20.png","visiting_time":30.0,"opening_hours":null,"opening_days":null,"rating":0,"photo_url":null,"description":null,"www":null},{"place_id":"112305240","geometry":{"type":"Point","coordinates":[9.719795714,44.6302025]},"display_name":"San Siro, SP77, San Siro, Bardi, PR, EMR, 43032, Italia","category":"attractions","type":"place_of_worship","importance":0.001,"icon":"http://nominatim.openstreetmap.org/images/mapicons/place_of_worship_unknown3.p.20.png","visiting_time":30.0,"opening_hours":null,"opening_days":null,"rating":0,"photo_url":null,"description":null,"www":null},{"place_id":"113310198","geometry":{"type":"Point","coordinates":[9.731935773,44.63084325]},"display_name":"San Giovanni, Piazza martiri d'Ungheria, Cà Gazzini, Bardi, PR, EMR, 43032, Italia","category":"attractions","type":"place_of_worship","importance":0.001,"icon":"http://nominatim.openstreetmap.org/images/mapicons/place_of_worship_unknown3.p.20.png","visiting_time":30.0,"opening_hours":null,"opening_days":null,"rating":0,"photo_url":null,"description":null,"www":null},{"place_id":"16480936","geometry":{"type":"Point","coordinates":[9.7726957,44.5835975]},"display_name":"Pieve di Gravago, 803a, i Pellegri, Bardi, PR, EMR, Italia","category":"attractions","type":"place_of_worship","importance":0.001,"icon":"http://nominatim.openstreetmap.org/images/mapicons/place_of_worship_unknown3.p.20.png","visiting_time":30.0,"opening_hours":null,"opening_days":null,"rating":0,"photo_url":null,"description":null,"www":null},{"place_id":"89068637","geometry":{"type":"Point","coordinates":[9.7821437,44.5918117]},"display_name":"Cappelletta a San Padre Pio, 803a, i Pellegri, Bardi, PR, EMR, Italia","category":"attractions","type":"place_of_worship","importance":0.001,"icon":"http://nominatim.openstreetmap.org/images/mapicons/place_of_worship_unknown3.p.20.png","visiting_time":30.0,"opening_hours":null,"opening_days":null,"rating":0,"photo_url":null,"description":null,"www":null},{"place_id":"16451338","geometry":{"type":"Point","coordinates":[9.6259466,44.6198436]},"display_name":"801d, i Sozzi, Bardi, PR, EMR, Italia","category":"attractions","type":"place_of_worship","importance":0.001,"icon":"http://nominatim.openstreetmap.org/images/mapicons/place_of_worship_unknown3.p.20.png","visiting_time":30.0,"opening_hours":null,"opening_days":null,"rating":0,"photo_url":null,"description":null,"www":null},{"place_id":"7014437","geometry":{"type":"Point","coordinates":[9.7493253,44.6713471]},"display_name":"Cappella di San Giovanni, 801, Bertonazzi, Bardi, PR, EMR, Italia","category":"attractions","type":"place_of_worship","importance":0.001,"icon":"http://nominatim.openstreetmap.org/images/mapicons/place_of_worship_unknown3.p.20.png","visiting_time":30.0,"opening_hours":null,"opening_days":null,"rating":0,"photo_url":null,"description":null,"www":null},{"place_id":"51500498","geometry":{"type":"Point","coordinates":[9.7337887,44.6058686]},"display_name":"SP21, Ronco, Bardi, PR, EMR, 43032, Italia","category":"attractions","type":"place_of_worship","importance":0.001,"icon":"http://nominatim.openstreetmap.org/images/mapicons/place_of_worship_unknown3.p.20.png","visiting_time":30.0,"opening_hours":null,"opening_days":null,"rating":0,"photo_url":null,"description":null,"www":null},{"place_id":"16560942","geometry":{"type":"Point","coordinates":[9.6570638,44.6138966]},"display_name":"807, Scevra, Bardi, PR, EMR, Italia","category":"attractions","type":"place_of_worship","importance":0.001,"icon":"http://nominatim.openstreetmap.org/images/mapicons/place_of_worship_unknown3.p.20.png","visiting_time":30.0,"opening_hours":null,"opening_days":null,"rating":0,"photo_url":null,"description":null,"www":null},{"place_id":"16732209","geometry":{"type":"Point","coordinates":[9.7798068,44.5923329]},"display_name":"strada comunale di Pianelleto, i Pellegri, Bardi, PR, EMR, Italia","category":"attractions","type":"place_of_worship","importance":0.001,"icon":"http://nominatim.openstreetmap.org/images/mapicons/place_of_worship_unknown3.p.20.png","visiting_time":30.0,"opening_hours":null,"opening_days":null,"rating":0,"photo_url":null,"description":null,"www":null},{"place_id":"16759245","geometry":{"type":"Point","coordinates":[9.6317947,44.6176401]},"display_name":"Strada Provinciale delle Pianazze, Castravino, Bardi, PR, EMR, Italia","category":"attractions","type":"place_of_worship","importance":0.001,"icon":"http://nominatim.openstreetmap.org/images/mapicons/place_of_worship_unknown3.p.20.png","visiting_time":30.0,"opening_hours":null,"opening_days":null,"rating":0,"photo_url":null,"description":null,"www":null},{"place_id":"16425102","geometry":{"type":"Point","coordinates":[9.7654073,44.5943103]},"display_name":"Pieve Monastero, da verificare, i Pellegri, Bardi, PR, EMR, Italia","category":"attractions","type":"place_of_worship","importance":0.001,"icon":"http://nominatim.openstreetmap.org/images/mapicons/place_of_worship_unknown3.p.20.png","visiting_time":30.0,"opening_hours":null,"opening_days":null,"rating":0,"photo_url":null,"description":null,"www":null},{"place_id":"112307665","geometry":{"type":"Point","coordinates":[9.731866498,44.63196645]},"display_name":"Santa Maria Addolorata, Piazza martiri d'Ungheria, Cà Gazzini, Bardi, PR, EMR, 43032, Italia","category":"attractions","type":"place_of_worship","importance":0.001,"icon":"http://nominatim.openstreetmap.org/images/mapicons/place_of_worship_unknown3.p.20.png","visiting_time":30.0,"opening_hours":null,"opening_days":null,"rating":0,"photo_url":null,"description":null,"www":null},{"place_id":"7269072","geometry":{"type":"Point","coordinates":[9.6116769,44.6245609]},"display_name":"Chiesa di Faggio, 801d, Pianazze, Bardi, PR, EMR, Italia","category":"attractions","type":"place_of_worship","importance":0.001,"icon":"http://nominatim.openstreetmap.org/images/mapicons/place_of_worship_unknown3.p.20.png","visiting_time":30.0,"opening_hours":null,"opening_days":null,"rating":0,"photo_url":null,"description":null,"www":null},{"place_id":"114497046","geometry":{"type":"Point","coordinates":[9.749925403,44.58048445]},"display_name":"SP21, Case Bagaglia, Bardi, PR, EMR, 43032, Italia","category":"attractions","type":"place_of_worship","importance":0.001,"icon":"http://nominatim.openstreetmap.org/images/mapicons/place_of_worship_unknown3.p.20.png","visiting_time":30.0,"opening_hours":null,"opening_days":null,"rating":0,"photo_url":null,"description":null,"www":null},{"place_id":"116015924","geometry":{"type":"Point","coordinates":[9.832005905,44.6459471]},"display_name":"Strada Provinciale del Mozzola, Le Cascinelle, Varsi, PR, EMR, 43050, Italia","category":"attractions","type":"place_of_worship","importance":0.001,"icon":"http://nominatim.openstreetmap.org/images/mapicons/place_of_worship_unknown3.p.20.png","visiting_time":30.0,"opening_hours":null,"opening_days":null,"rating":0,"photo_url":null,"description":null,"www":null},{"place_id":"16582747","geometry":{"type":"Point","coordinates":[9.813166,44.6247247]},"display_name":"Chiesa Tosca, Strada Tosca - Pietrarada, Cà Pesati, Varsi, PR, EMR, 43050, Italia","category":"attractions","type":"place_of_worship","importance":0.001,"icon":"http://nominatim.openstreetmap.org/images/mapicons/place_of_worship_unknown3.p.20.png","visiting_time":30.0,"opening_hours":null,"opening_days":null,"rating":0,"photo_url":null,"description":null,"www":null},{"place_id":"19815788","geometry":{"type":"Point","coordinates":[9.8276075,44.6793214]},"display_name":"SP28, Cà Casaroli, Varsi, PR, EMR, 43049, Italia","category":"attractions","type":"place_of_worship","importance":0.001,"icon":"http://nominatim.openstreetmap.org/images/mapicons/place_of_worship_unknown3.p.20.png","visiting_time":30.0,"opening_hours":null,"opening_days":null,"rating":0,"photo_url":null,"description":null,"www":null},{"place_id":"6630973","geometry":{"type":"Point","coordinates":[9.8248458,44.5999331]},"display_name":"Santuario della Madonna della Guardia, AVC/811c, Paretti, Varsi, PR, EMR, 43050, Italia","category":"attractions","type":"place_of_worship","importance":0.001,"icon":"http://nominatim.openstreetmap.org/images/mapicons/place_of_worship_unknown3.p.20.png","visiting_time":30.0,"opening_hours":null,"opening_days":null,"rating":0,"photo_url":null,"description":null,"www":null},{"place_id":"114427661","geometry":{"type":"Point","coordinates":[9.610499691,44.6535569]},"display_name":"SP8, Farini, PC, EMR, Italia","category":"attractions","type":"place_of_worship","importance":0.001,"icon":"http://nominatim.openstreetmap.org/images/mapicons/place_of_worship_unknown3.p.20.png","visiting_time":30.0,"opening_hours":null,"opening_days":null,"rating":0,"photo_url":null,"description":null,"www":null},{"place_id":"16541060","geometry":{"type":"Point","coordinates":[9.6409994,44.6604918]},"display_name":"035, Farini, PC, EMR, Italia","category":"attractions","type":"place_of_worship","importance":0.001,"icon":"http://nominatim.openstreetmap.org/images/mapicons/place_of_worship_unknown3.p.20.png","visiting_time":30.0,"opening_hours":null,"opening_days":null,"rating":0,"photo_url":null,"description":null,"www":null},{"place_id":"5075039","geometry":{"type":"Point","coordinates":[9.7969178,44.5539637]},"display_name":"La Maestà di Caffaraccia, 803, Cà Maiocco, Borgo Val di Taro, PR, EMR, Italia","category":"attractions","type":"place_of_worship","importance":0.001,"icon":"http://nominatim.openstreetmap.org/images/mapicons/place_of_worship_unknown3.p.20.png","visiting_time":30.0,"opening_hours":null,"opening_days":null,"rating":0,"photo_url":null,"description":null,"www":null},{"place_id":"112979918","geometry":{"type":"Point","coordinates":[9.577730238,44.6355803]},"display_name":"033, Ferriere, PC, EMR, Italia","category":"attractions","type":"place_of_worship","importance":0.001,"icon":"http://nominatim.openstreetmap.org/images/mapicons/place_of_worship_unknown3.p.20.png","visiting_time":30.0,"opening_hours":null,"opening_days":null,"rating":0,"photo_url":null,"description":null,"www":null},{"place_id":"128890186","geometry":{"type":"Point","coordinates":[9.57511461,44.6294646]},"display_name":"Mestà, 033, Ferriere, PC, EMR, Italia","category":"attractions","type":"place_of_worship","importance":0.001,"icon":"http://nominatim.openstreetmap.org/images/mapicons/place_of_worship_unknown3.p.20.png","visiting_time":30.0,"opening_hours":null,"opening_days":null,"rating":0,"photo_url":null,"description":null,"www":null},{"place_id":"5110585","geometry":{"type":"Point","coordinates":[9.8288877,44.5807017]},"display_name":"Pieve di Mariano, Provinciale del Mozzola, La Rovere di sotto, Valmozzola, PR, EMR, 43050, Italia","category":"attractions","type":"place_of_worship","importance":0.001,"icon":"http://nominatim.openstreetmap.org/images/mapicons/place_of_worship_unknown3.p.20.png","visiting_time":30.0,"opening_hours":null,"opening_days":null,"rating":0,"photo_url":null,"description":null,"www":null},{"place_id":"16789658","geometry":{"type":"Point","coordinates":[9.8120574,44.5660592]},"display_name":"Cappelletta Prato Grande, AVC/811, La Rovere di sotto, Valmozzola, PR, EMR, 43050, Italia","category":"attractions","type":"place_of_worship","importance":0.001,"icon":"http://nominatim.openstreetmap.org/images/mapicons/place_of_worship_unknown3.p.20.png","visiting_time":30.0,"opening_hours":null,"opening_days":null,"rating":0,"photo_url":null,"description":null,"www":null},{"place_id":"133784231","geometry":{"type":"Point","coordinates":[9.739735162,44.63206835]},"display_name":"Madonna delle Grazie, Viale Cardinale Antonio Samorè, Cà Cavanne, Bardi, PR, EMR, 43032, Italia","category":"attractions","type":"place_of_worship","importance":0.001,"icon":"http://nominatim.openstreetmap.org/images/mapicons/place_of_worship_unknown3.p.20.png","visiting_time":30.0,"opening_hours":null,"opening_days":null,"rating":0,"photo_url":null,"description":null,"www":null},{"place_id":"9262441","geometry":{"type":"Point","coordinates":[9.6693405,44.6676704]},"display_name":"SP77, Orsara, Bardi, PR, EMR, Italia","category":"attractions","type":"place_of_worship","importance":0.001,"icon":"http://nominatim.openstreetmap.org/images/mapicons/place_of_worship_unknown3.p.20.png","visiting_time":30.0,"opening_hours":null,"opening_days":null,"rating":0,"photo_url":null,"description":null,"www":null},{"place_id":"112457188","geometry":{"type":"Point","coordinates":[9.765626629,44.5942277]},"display_name":"da verificare, i Pellegri, Bardi, PR, EMR, Italia","category":"attractions","type":"place_of_worship","importance":0.001,"icon":"http://nominatim.openstreetmap.org/images/mapicons/place_of_worship_unknown3.p.20.png","visiting_time":30.0,"opening_hours":null,"opening_days":null,"rating":0,"photo_url":null,"description":null,"www":null},{"place_id":"16855393","geometry":{"type":"Point","coordinates":[9.7820845,44.5917869]},"display_name":"Maestà, 803a, i Pellegri, Bardi, PR, EMR, Italia","category":"attractions","type":"place_of_worship","importance":0.001,"icon":"http://nominatim.openstreetmap.org/images/mapicons/place_of_worship_unknown3.p.20.png","visiting_time":30.0,"opening_hours":null,"opening_days":null,"rating":0,"photo_url":null,"description":null,"www":null},{"place_id":"52170569","geometry":{"type":"Point","coordinates":[9.5920131,44.5922248]},"display_name":"Strada Comunale Pione - Santa Giustina, Vosina, Bardi, PR, EMR, Italia","category":"attractions","type":"place_of_worship","importance":0.001,"icon":"http://nominatim.openstreetmap.org/images/mapicons/place_of_worship_unknown3.p.20.png","visiting_time":30.0,"opening_hours":null,"opening_days":null,"rating":0,"photo_url":null,"description":null,"www":null},{"place_id":"87068212","geometry":{"type":"Point","coordinates":[9.730141078,44.6293741]},"display_name":"San Francesco, Via Principi Landi, Cà Rotta, Bardi, PR, EMR, 43032, Italia","category":"attractions","type":"place_of_worship","importance":0.001,"icon":"http://nominatim.openstreetmap.org/images/mapicons/place_of_worship_unknown3.p.20.png","visiting_time":30.0,"opening_hours":null,"opening_days":null,"rating":0,"photo_url":null,"description":null,"www":null},{"place_id":"112305240","geometry":{"type":"Point","coordinates":[9.719795714,44.6302025]},"display_name":"San Siro, SP77, San Siro, Bardi, PR, EMR, 43032, Italia","category":"attractions","type":"place_of_worship","importance":0.001,"icon":"http://nominatim.openstreetmap.org/images/mapicons/place_of_worship_unknown3.p.20.png","visiting_time":30.0,"opening_hours":null,"opening_days":null,"rating":0,"photo_url":null,"description":null,"www":null},{"place_id":"113310198","geometry":{"type":"Point","coordinates":[9.731935773,44.63084325]},"display_name":"San Giovanni, Piazza martiri d'Ungheria, Cà Gazzini, Bardi, PR, EMR, 43032, Italia","category":"attractions","type":"place_of_worship","importance":0.001,"icon":"http://nominatim.openstreetmap.org/images/mapicons/place_of_worship_unknown3.p.20.png","visiting_time":30.0,"opening_hours":null,"opening_days":null,"rating":0,"photo_url":null,"description":null,"www":null},{"place_id":"16480936","geometry":{"type":"Point","coordinates":[9.7726957,44.5835975]},"display_name":"Pieve di Gravago, 803a, i Pellegri, Bardi, PR, EMR, Italia","category":"attractions","type":"place_of_worship","importance":0.001,"icon":"http://nominatim.openstreetmap.org/images/mapicons/place_of_worship_unknown3.p.20.png","visiting_time":30.0,"opening_hours":null,"opening_days":null,"rating":0,"photo_url":null,"description":null,"www":null},{"place_id":"89068637","geometry":{"type":"Point","coordinates":[9.7821437,44.5918117]},"display_name":"Cappelletta a San Padre Pio, 803a, i Pellegri, Bardi, PR, EMR, Italia","category":"attractions","type":"place_of_worship","importance":0.001,"icon":"http://nominatim.openstreetmap.org/images/mapicons/place_of_worship_unknown3.p.20.png","visiting_time":30.0,"opening_hours":null,"opening_days":null,"rating":0,"photo_url":null,"description":null,"www":null},{"place_id":"16451338","geometry":{"type":"Point","coordinates":[9.6259466,44.6198436]},"display_name":"801d, i Sozzi, Bardi, PR, EMR, Italia","category":"attractions","type":"place_of_worship","importance":0.001,"icon":"http://nominatim.openstreetmap.org/images/mapicons/place_of_worship_unknown3.p.20.png","visiting_time":30.0,"opening_hours":null,"opening_days":null,"rating":0,"photo_url":null,"description":null,"www":null},{"place_id":"7014437","geometry":{"type":"Point","coordinates":[9.7493253,44.6713471]},"display_name":"Cappella di San Giovanni, 801, Bertonazzi, Bardi, PR, EMR, Italia","category":"attractions","type":"place_of_worship","importance":0.001,"icon":"http://nominatim.openstreetmap.org/images/mapicons/place_of_worship_unknown3.p.20.png","visiting_time":30.0,"opening_hours":null,"opening_days":null,"rating":0,"photo_url":null,"description":null,"www":null},{"place_id":"51500498","geometry":{"type":"Point","coordinates":[9.7337887,44.6058686]},"display_name":"SP21, Ronco, Bardi, PR, EMR, 43032, Italia","category":"attractions","type":"place_of_worship","importance":0.001,"icon":"http://nominatim.openstreetmap.org/images/mapicons/place_of_worship_unknown3.p.20.png","visiting_time":30.0,"opening_hours":null,"opening_days":null,"rating":0,"photo_url":null,"description":null,"www":null},{"place_id":"16560942","geometry":{"type":"Point","coordinates":[9.6570638,44.6138966]},"display_name":"807, Scevra, Bardi, PR, EMR, Italia","category":"attractions","type":"place_of_worship","importance":0.001,"icon":"http://nominatim.openstreetmap.org/images/mapicons/place_of_worship_unknown3.p.20.png","visiting_time":30.0,"opening_hours":null,"opening_days":null,"rating":0,"photo_url":null,"description":null,"www":null},{"place_id":"16732209","geometry":{"type":"Point","coordinates":[9.7798068,44.5923329]},"display_name":"strada comunale di Pianelleto, i Pellegri, Bardi, PR, EMR, Italia","category":"attractions","type":"place_of_worship","importance":0.001,"icon":"http://nominatim.openstreetmap.org/images/mapicons/place_of_worship_unknown3.p.20.png","visiting_time":30.0,"opening_hours":null,"opening_days":null,"rating":0,"photo_url":null,"description":null,"www":null},{"place_id":"16759245","geometry":{"type":"Point","coordinates":[9.6317947,44.6176401]},"display_name":"Strada Provinciale delle Pianazze, Castravino, Bardi, PR, EMR, Italia","category":"attractions","type":"place_of_worship","importance":0.001,"icon":"http://nominatim.openstreetmap.org/images/mapicons/place_of_worship_unknown3.p.20.png","visiting_time":30.0,"opening_hours":null,"opening_days":null,"rating":0,"photo_url":null,"description":null,"www":null},{"place_id":"16425102","geometry":{"type":"Point","coordinates":[9.7654073,44.5943103]},"display_name":"Pieve Monastero, da verificare, i Pellegri, Bardi, PR, EMR, Italia","category":"attractions","type":"place_of_worship","importance":0.001,"icon":"http://nominatim.openstreetmap.org/images/mapicons/place_of_worship_unknown3.p.20.png","visiting_time":30.0,"opening_hours":null,"opening_days":null,"rating":0,"photo_url":null,"description":null,"www":null},{"place_id":"112307665","geometry":{"type":"Point","coordinates":[9.731866498,44.63196645]},"display_name":"Santa Maria Addolorata, Piazza martiri d'Ungheria, Cà Gazzini, Bardi, PR, EMR, 43032, Italia","category":"attractions","type":"place_of_worship","importance":0.001,"icon":"http://nominatim.openstreetmap.org/images/mapicons/place_of_worship_unknown3.p.20.png","visiting_time":30.0,"opening_hours":null,"opening_days":null,"rating":0,"photo_url":null,"description":null,"www":null},{"place_id":"7269072","geometry":{"type":"Point","coordinates":[9.6116769,44.6245609]},"display_name":"Chiesa di Faggio, 801d, Pianazze, Bardi, PR, EMR, Italia","category":"attractions","type":"place_of_worship","importance":0.001,"icon":"http://nominatim.openstreetmap.org/images/mapicons/place_of_worship_unknown3.p.20.png","visiting_time":30.0,"opening_hours":null,"opening_days":null,"rating":0,"photo_url":null,"description":null,"www":null},{"place_id":"114497046","geometry":{"type":"Point","coordinates":[9.749925403,44.58048445]},"display_name":"SP21, Case Bagaglia, Bardi, PR, EMR, 43032, Italia","category":"attractions","type":"place_of_worship","importance":0.001,"icon":"http://nominatim.openstreetmap.org/images/mapicons/place_of_worship_unknown3.p.20.png","visiting_time":30.0,"opening_hours":null,"opening_days":null,"rating":0,"photo_url":null,"description":null,"www":null},{"place_id":"116015924","geometry":{"type":"Point","coordinates":[9.832005905,44.6459471]},"display_name":"Strada Provinciale del Mozzola, Le Cascinelle, Varsi, PR, EMR, 43050, Italia","category":"attractions","type":"place_of_worship","importance":0.001,"icon":"http://nominatim.openstreetmap.org/images/mapicons/place_of_worship_unknown3.p.20.png","visiting_time":30.0,"opening_hours":null,"opening_days":null,"rating":0,"photo_url":null,"description":null,"www":null},{"place_id":"16582747","geometry":{"type":"Point","coordinates":[9.813166,44.6247247]},"display_name":"Chiesa Tosca, Strada Tosca - Pietrarada, Cà Pesati, Varsi, PR, EMR, 43050, Italia","category":"attractions","type":"place_of_worship","importance":0.001,"icon":"http://nominatim.openstreetmap.org/images/mapicons/place_of_worship_unknown3.p.20.png","visiting_time":30.0,"opening_hours":null,"opening_days":null,"rating":0,"photo_url":null,"description":null,"www":null},{"place_id":"19815788","geometry":{"type":"Point","coordinates":[9.8276075,44.6793214]},"display_name":"SP28, Cà Casaroli, Varsi, PR, EMR, 43049, Italia","category":"attractions","type":"place_of_worship","importance":0.001,"icon":"http://nominatim.openstreetmap.org/images/mapicons/place_of_worship_unknown3.p.20.png","visiting_time":30.0,"opening_hours":null,"opening_days":null,"rating":0,"photo_url":null,"description":null,"www":null},{"place_id":"6630973","geometry":{"type":"Point","coordinates":[9.8248458,44.5999331]},"display_name":"Santuario della Madonna della Guardia, AVC/811c, Paretti, Varsi, PR, EMR, 43050, Italia","category":"attractions","type":"place_of_worship","importance":0.001,"icon":"http://nominatim.openstreetmap.org/images/mapicons/place_of_worship_unknown3.p.20.png","visiting_time":30.0,"opening_hours":null,"opening_days":null,"rating":0,"photo_url":null,"description":null,"www":null},{"place_id":"114427661","geometry":{"type":"Point","coordinates":[9.610499691,44.6535569]},"display_name":"SP8, Farini, PC, EMR, Italia","category":"attractions","type":"place_of_worship","importance":0.001,"icon":"http://nominatim.openstreetmap.org/images/mapicons/place_of_worship_unknown3.p.20.png","visiting_time":30.0,"opening_hours":null,"opening_days":null,"rating":0,"photo_url":null,"description":null,"www":null},{"place_id":"16541060","geometry":{"type":"Point","coordinates":[9.6409994,44.6604918]},"display_name":"035, Farini, PC, EMR, Italia","category":"attractions","type":"place_of_worship","importance":0.001,"icon":"http://nominatim.openstreetmap.org/images/mapicons/place_of_worship_unknown3.p.20.png","visiting_time":30.0,"opening_hours":null,"opening_days":null,"rating":0,"photo_url":null,"description":null,"www":null},{"place_id":"5075039","geometry":{"type":"Point","coordinates":[9.7969178,44.5539637]},"display_name":"La Maestà di Caffaraccia, 803, Cà Maiocco, Borgo Val di Taro, PR, EMR, Italia","category":"attractions","type":"place_of_worship","importance":0.001,"icon":"http://nominatim.openstreetmap.org/images/mapicons/place_of_worship_unknown3.p.20.png","visiting_time":30.0,"opening_hours":null,"opening_days":null,"rating":0,"photo_url":null,"description":null,"www":null}]