[{"place_id":"celi10646","geometry":{"type":"Point","coordinates":[12.6523754,43.9957742]},"display_name":"Gelateria King Cremeria","category":"eating","type":"celiachia","importance":1.0,"icon":"","visiting_time":0.0,"opening_hours":"ok","opening_days":"ok","rating":0,"photo_url":null,"description":"Glutine","www":"www.gelateriakingriccione.it"},{"place_id":"celi12438","geometry":{"type":"Point","coordinates":[12.6332735,44.001628]},"display_name":"La Macelleria","category":"eating","type":"celiachia","importance":1.0,"icon":"","visiting_time":0.0,"opening_hours":"ok","opening_days":"ok","rating":0,"photo_url":null,"description":"Glutine","www":"null"},{"place_id":"celi13762","geometry":{"type":"Point","coordinates":[12.657581,44.0048178]},"display_name":"Zara","category":"eating","type":"celiachia","importance":1.0,"icon":"","visiting_time":0.0,"opening_hours":"ok","opening_days":"ok","rating":0,"photo_url":null,"description":"Glutine","www":"www.hotelzarariccione.it"},{"place_id":"celi13671","geometry":{"type":"Point","coordinates":[12.635702,44.0054164]},"display_name":"Gimmi's Grill American Restaurant","category":"eating","type":"celiachia","importance":1.0,"icon":"","visiting_time":0.0,"opening_hours":"ok","opening_days":"ok","rating":0,"photo_url":null,"description":"Glutine","www":"null"},{"place_id":"celi6941","geometry":{"type":"Point","coordinates":[12.6531414,44.0002324]},"display_name":"22 Garibaldi Home","category":"eating","type":"celiachia","importance":1.0,"icon":"","visiting_time":0.0,"opening_hours":"ok","opening_days":"ok","rating":0,"photo_url":null,"description":"Glutine","www":"www.riccionebedandbrekfast.it"},{"place_id":"celi401","geometry":{"type":"Point","coordinates":[12.6422124,44.0158354]},"display_name":"Sirena","category":"eating","type":"celiachia","importance":1.0,"icon":"","visiting_time":0.0,"opening_hours":"ok","opening_days":"ok","rating":0,"photo_url":null,"description":"Glutine","www":"www.sirenariccione.it"},{"place_id":"celi4475","geometry":{"type":"Point","coordinates":[12.6448046,44.01329]},"display_name":"Trieste","category":"eating","type":"celiachia","importance":1.0,"icon":"","visiting_time":0.0,"opening_hours":"ok","opening_days":"ok","rating":0,"photo_url":null,"description":"Glutine","www":"www.hoteltriestericcione.com"},{"place_id":"celi2810","geometry":{"type":"Point","coordinates":[12.649089,44.0087223]},"display_name":"Niagara","category":"eating","type":"celiachia","importance":1.0,"icon":"","visiting_time":0.0,"opening_hours":"ok","opening_days":"ok","rating":0,"photo_url":null,"description":"Glutine","www":"www.hotelniagara-riccione.it"},{"place_id":"celi8165","geometry":{"type":"Point","coordinates":[12.6546355,44.0054141]},"display_name":"Cremeria Vanilla","category":"eating","type":"celiachia","importance":1.0,"icon":"","visiting_time":0.0,"opening_hours":"ok","opening_days":"ok","rating":0,"photo_url":null,"description":"Senza Glutine","www":"null"},{"place_id":"celi2078","geometry":{"type":"Point","coordinates":[12.6608355,44.0027782]},"display_name":"Nuovo Fiore","category":"eating","type":"celiachia","importance":1.0,"icon":"","visiting_time":0.0,"opening_hours":"ok","opening_days":"ok","rating":0,"photo_url":null,"description":"Senza Glutine","www":"null"},{"place_id":"celi3527","geometry":{"type":"Point","coordinates":[12.6849584,43.9799476]},"display_name":"L'Angelo Azzurro","category":"eating","type":"celiachia","importance":1.0,"icon":"","visiting_time":0.0,"opening_hours":"ok","opening_days":"ok","rating":0,"photo_url":null,"description":"Glutine","www":"null"}]