[{"place_id":"43,83326903909510","geometry":{"type":"Point","coordinates":[11.958611329,43.833269039]},"display_name":"Archivio storico comunale di Bagno di Romagna,from:IBC","category":"attractions","type":"HolderOfArchives","importance":0.0,"icon":"","visiting_time":0.0,"opening_hours":"ok","opening_days":"ok","rating":0,"photo_url":null,"description":null,"www":"http://dati.emilia-romagna.it/id/ibc/condition/040001-001"},{"place_id":"43,91690876754420","geometry":{"type":"Point","coordinates":[11.990882878,43.916908768]},"display_name":"Comune di Santa Sofia,from:IBC","category":"attractions","type":"HolderOfArchives","importance":0.0,"icon":"","visiting_time":0.0,"opening_hours":"ok","opening_days":"ok","rating":0,"photo_url":null,"description":null,"www":"http://www.comune.santa-sofia.fc.it"},{"place_id":"43,79562260494550","geometry":{"type":"Point","coordinates":[12.005882754,43.795622605]},"display_name":"Comune di Verghereto,from:IBC","category":"attractions","type":"HolderOfArchives","importance":0.0,"icon":"","visiting_time":0.0,"opening_hours":"ok","opening_days":"ok","rating":0,"photo_url":null,"description":null,"www":"http://www.comunic.it/vallesavio/fumaiolo/index.html"},{"place_id":"43,79562260494550","geometry":{"type":"Point","coordinates":[12.005882754,43.795622605]},"display_name":"Comune di Verghereto,from:IBC","category":"attractions","type":"HolderOfArchives","importance":0.0,"icon":"","visiting_time":0.0,"opening_hours":"ok","opening_days":"ok","rating":0,"photo_url":null,"description":null,"www":"http://www.comune.verghereto.fc.it"},{"place_id":"43,83326903909510","geometry":{"type":"Point","coordinates":[11.958611329,43.833269039]},"display_name":"Biblioteca comunale di Palazzo del Capitano,from:IBC","category":"attractions","type":"Library","importance":0.0,"icon":"","visiting_time":0.0,"opening_hours":"ok","opening_days":"ok","rating":0,"photo_url":null,"description":null,"www":"http://www.bagnodiromagnaturismo.it/biblioteca-comunale"},{"place_id":"43,945995","geometry":{"type":"Point","coordinates":[11.906992,43.945995]},"display_name":"Biblioteca comunale,from:IBC","category":"attractions","type":"Library","importance":0.0,"icon":"","visiting_time":0.0,"opening_hours":"ok","opening_days":"ok","rating":0,"photo_url":null,"description":null,"www":"http://www.comune.santa-sofia.fo.it/index.php?option=com_content&task=view&id=29&Itemid=92"},{"place_id":"43,94421675551740","geometry":{"type":"Point","coordinates":[11.908608269,43.944216756]},"display_name":"Galleria d'Arte Contemporanea V. Stoppioni,from:IBC","category":"attractions","type":"Museum","importance":0.0,"icon":"","visiting_time":0.0,"opening_hours":"ok","opening_days":"ok","rating":0,"photo_url":null,"description":null,"www":"http://www.comune.santa-sofia.fc.it/"},{"place_id":"43,88493831689320","geometry":{"type":"Point","coordinates":[11.83599713,43.884938317]},"display_name":"IDRO - Ecomuseo delle Acque di Ridracoli,from:IBC","category":"attractions","type":"Museum","importance":0.0,"icon":"","visiting_time":0.0,"opening_hours":"ok","opening_days":"ok","rating":0,"photo_url":null,"description":null,"www":"http://www.atlantide.net/jsps/296/MenuSX/352/Idro_Ecomuseo_br_delle_Acque_di_Ridracoli.jsp"},{"place_id":"Una Roverella Bagno di Romagna Fraz. Vessa Loc. Campo Savino 250","geometry":{"type":"Point","coordinates":[12.02671296,43.89477397]},"display_name":"Una Roverella Bagno di Romagna Fraz. Vessa Loc. Campo Savino,from:IBC","category":"tree","type":"tree","importance":0.0,"icon":"","visiting_time":0.0,"opening_hours":"ok","opening_days":"ok","rating":0,"photo_url":"http://online.ibc.regione.emilia-romagna.it/mtrees/image/322.jpg","description":null,"www":null},{"place_id":"Un Faggio Verghereto Fraz. Cà Monticino 346","geometry":{"type":"Point","coordinates":[12.07903969,43.80393026]},"display_name":"Un Faggio Verghereto Fraz. Cà Monticino,from:IBC","category":"tree","type":"tree","importance":0.0,"icon":"","visiting_time":0.0,"opening_hours":"ok","opening_days":"ok","rating":0,"photo_url":"http://online.ibc.regione.emilia-romagna.it/mtrees/image/366.jpg","description":null,"www":null},{"place_id":"Un Faggio Verghereto Fraz. M.te Fumaiolo Eremo di Sant'Alberico 360","geometry":{"type":"Point","coordinates":[12.09920148,43.7933373]},"display_name":"Un Faggio Verghereto Fraz. M.te Fumaiolo Eremo di Sant'Alberico,from:IBC","category":"tree","type":"tree","importance":0.0,"icon":"","visiting_time":0.0,"opening_hours":"ok","opening_days":"ok","rating":0,"photo_url":"http://online.ibc.regione.emilia-romagna.it/mtrees/image/371.jpg","description":null,"www":null},{"place_id":"Un Faggio Verghereto Fraz. M. te Fumaiolo La Casetta 371","geometry":{"type":"Point","coordinates":[12.05413681,43.80995595]},"display_name":"Un Faggio Verghereto Fraz. M. te Fumaiolo La Casetta,from:IBC","category":"tree","type":"tree","importance":0.0,"icon":"","visiting_time":0.0,"opening_hours":"ok","opening_days":"ok","rating":0,"photo_url":"http://online.ibc.regione.emilia-romagna.it/mtrees/image/363.jpg","description":null,"www":null},{"place_id":"Un Faggio Verghereto Fraz. M.te Fumaiolo Sentiero per sorgente Tevere 556","geometry":{"type":"Point","coordinates":[12.06442192,43.81415483]},"display_name":"Un Faggio Verghereto Fraz. M.te Fumaiolo Sentiero per sorgente Tevere,from:IBC","category":"tree","type":"tree","importance":0.0,"icon":"","visiting_time":0.0,"opening_hours":"ok","opening_days":"ok","rating":0,"photo_url":"http://online.ibc.regione.emilia-romagna.it/mtrees/image/368.jpg","description":null,"www":null},{"place_id":"Un Cerro Verghereto Fraz. Nasseto Loc. Casanova 667","geometry":{"type":"Point","coordinates":[12.09566487,43.82013611]},"display_name":"Un Cerro Verghereto Fraz. Nasseto Loc. Casanova,from:IBC","category":"tree","type":"tree","importance":0.0,"icon":"","visiting_time":0.0,"opening_hours":"ok","opening_days":"ok","rating":0,"photo_url":"http://online.ibc.regione.emilia-romagna.it/mtrees/image/374.jpg","description":null,"www":null},{"place_id":"Un Salice bianco Bagno di Romagna Fraz. Lago Pontini Loc. Cà Rivoloni 775","geometry":{"type":"Point","coordinates":[12.00307517,43.83717606]},"display_name":"Un Salice bianco Bagno di Romagna Fraz. Lago Pontini Loc. Cà Rivoloni,from:IBC","category":"tree","type":"tree","importance":0.0,"icon":"","visiting_time":0.0,"opening_hours":"ok","opening_days":"ok","rating":0,"photo_url":"http://online.ibc.regione.emilia-romagna.it/mtrees/image/5535.jpg","description":null,"www":null},{"place_id":"Una Roverella Bagno di Romagna Poggio la Lastra Loc. Il Poggetto 789","geometry":{"type":"Point","coordinates":[11.90336807,43.89343975]},"display_name":"Una Roverella Bagno di Romagna Poggio la Lastra Loc. Il Poggetto,from:IBC","category":"tree","type":"tree","importance":0.0,"icon":"","visiting_time":0.0,"opening_hours":"ok","opening_days":"ok","rating":0,"photo_url":"http://online.ibc.regione.emilia-romagna.it/mtrees/image/318.jpg","description":null,"www":null},{"place_id":"Una Roverella Bagno di Romagna Case Bruciate 955","geometry":{"type":"Point","coordinates":[11.96284758,43.81878062]},"display_name":"Una Roverella Bagno di Romagna Case Bruciate,from:IBC","category":"tree","type":"tree","importance":0.0,"icon":"","visiting_time":0.0,"opening_hours":"ok","opening_days":"ok","rating":0,"photo_url":"http://online.ibc.regione.emilia-romagna.it/mtrees/image/286.jpg","description":null,"www":null}]