[{"place_id":"44,12030661881790","geometry":{"type":"Point","coordinates":[11.88659855,44.120306619]},"display_name":"Archivio storico comunale di Dovadola,from:IBC","category":"attractions","type":"HolderOfArchives","importance":0.0,"icon":"","visiting_time":0.0,"opening_hours":"ok","opening_days":"ok","rating":0,"photo_url":null,"description":null,"www":"http://dati.emilia-romagna.it/id/ibc/condition/040011-001"},{"place_id":"44,22377794336680","geometry":{"type":"Point","coordinates":[11.772154913,44.223777943]},"display_name":"Comune di Brisighella,from:IBC","category":"attractions","type":"HolderOfArchives","importance":0.0,"icon":"","visiting_time":0.0,"opening_hours":"ok","opening_days":"ok","rating":0,"photo_url":null,"description":null,"www":"http://www.comune.brisighella.ra.it"},{"place_id":"44,22346580249660","geometry":{"type":"Point","coordinates":[11.623109425,44.223465802]},"display_name":"Comune di Casola Valsenio,from:IBC","category":"attractions","type":"HolderOfArchives","importance":0.0,"icon":"","visiting_time":0.0,"opening_hours":"ok","opening_days":"ok","rating":0,"photo_url":null,"description":null,"www":"http://www.comune.casolavalsenio.ra.it"},{"place_id":"44,27737923202520","geometry":{"type":"Point","coordinates":[11.589140955,44.277379232]},"display_name":"Comune di Borgo Tossignano,from:IBC","category":"attractions","type":"HolderOfArchives","importance":0.0,"icon":"","visiting_time":0.0,"opening_hours":"ok","opening_days":"ok","rating":0,"photo_url":null,"description":null,"www":"http://www.comune.borgotossignano.bo.it"},{"place_id":"44,27607531816840","geometry":{"type":"Point","coordinates":[11.724630521,44.276075318]},"display_name":"Comune di Riolo Terme,from:IBC","category":"attractions","type":"HolderOfArchives","importance":0.0,"icon":"","visiting_time":0.0,"opening_hours":"ok","opening_days":"ok","rating":0,"photo_url":null,"description":null,"www":"http://www.comune.rioloterme.ra.it"},{"place_id":"44,15687460408380","geometry":{"type":"Point","coordinates":[11.792448911,44.156874604]},"display_name":"Biblioteca comunale Don Giovanni Verità del Comune e dell'Accademia degli Incamminati di Modigliana,from:IBC","category":"attractions","type":"HolderOfArchives","importance":0.0,"icon":"","visiting_time":0.0,"opening_hours":"ok","opening_days":"ok","rating":0,"photo_url":null,"description":null,"www":"http://www.comune.modigliana.fc.it"},{"place_id":"44,22233924609460","geometry":{"type":"Point","coordinates":[11.768837352,44.222339246]},"display_name":"Biblioteca comunale Carlo Pasini,from:IBC","category":"attractions","type":"Library","importance":0.0,"icon":"","visiting_time":0.0,"opening_hours":"ok","opening_days":"ok","rating":0,"photo_url":null,"description":null,"www":"http://dati.emilia-romagna.it/id/ibc/condition/IT-RA0003_orari"},{"place_id":"44,15687460408380","geometry":{"type":"Point","coordinates":[11.792448911,44.156874604]},"display_name":"Biblioteca comunale Don Giovanni Verità del Comune e dell'Accademia degli Incamminati,from:IBC","category":"attractions","type":"Library","importance":0.0,"icon":"","visiting_time":0.0,"opening_hours":"ok","opening_days":"ok","rating":0,"photo_url":null,"description":null,"www":"http://www.comune.modigliana.fc.it/main/index.php?id_pag=166"},{"place_id":"44,27759552351570","geometry":{"type":"Point","coordinates":[11.726457978,44.277595524]},"display_name":"Biblioteca comunale,from:IBC","category":"attractions","type":"Library","importance":0.0,"icon":"","visiting_time":0.0,"opening_hours":"ok","opening_days":"ok","rating":0,"photo_url":null,"description":null,"www":"http://dati.emilia-romagna.it/id/ibc/condition/IT-RA0041_orari"},{"place_id":"44,22325059441070","geometry":{"type":"Point","coordinates":[11.623937145,44.223250594]},"display_name":"Biblioteca comunale Giuseppe Pittàno,from:IBC","category":"attractions","type":"Library","importance":0.0,"icon":"","visiting_time":0.0,"opening_hours":"ok","opening_days":"ok","rating":0,"photo_url":null,"description":null,"www":"http://www.comune.casolavalsenio.ra.it"},{"place_id":"44,15535061989740","geometry":{"type":"Point","coordinates":[11.795214111,44.15535062]},"display_name":"Pinacoteca Comunale S. Lega,from:IBC","category":"attractions","type":"Museum","importance":0.0,"icon":"","visiting_time":0.0,"opening_hours":"ok","opening_days":"ok","rating":0,"photo_url":null,"description":null,"www":"http://www.comune.modigliana.fc.it/pinacoteca-comunale-silvestro-lega"},{"place_id":"44,12204515895110","geometry":{"type":"Point","coordinates":[11.887000947,44.122045159]},"display_name":"Museo di Benedetta,from:IBC","category":"attractions","type":"Museum","importance":0.0,"icon":"","visiting_time":0.0,"opening_hours":"ok","opening_days":"ok","rating":0,"photo_url":null,"description":null,"www":"http://www.turismoforlivese.it/servizi/menu/dinamica.aspx?ID=4777"},{"place_id":"44,21440543355680","geometry":{"type":"Point","coordinates":[11.753030751,44.214405434]},"display_name":"Museo della Pieve del Tho',from:IBC","category":"attractions","type":"Museum","importance":0.0,"icon":"","visiting_time":0.0,"opening_hours":"ok","opening_days":"ok","rating":0,"photo_url":null,"description":null,"www":"http://dati.emilia-romagna.it/id/ibc/condition/IT-ER-RA035"},{"place_id":"44,27227988229160","geometry":{"type":"Point","coordinates":[11.603223049,44.272279882]},"display_name":"Centro Visite I Gessi e il Fiume,from:IBC","category":"attractions","type":"Museum","importance":0.0,"icon":"","visiting_time":0.0,"opening_hours":"ok","opening_days":"ok","rating":0,"photo_url":null,"description":null,"www":"http://www.ecosistema.it/gessifiume/1000.htm"},{"place_id":"44,23364209193180","geometry":{"type":"Point","coordinates":[11.635096502,44.233642092]},"display_name":"Il Cardello,from:IBC","category":"attractions","type":"Museum","importance":0.0,"icon":"","visiting_time":0.0,"opening_hours":"ok","opening_days":"ok","rating":0,"photo_url":null,"description":null,"www":"http://www.fondazionecasadioriani.it/"},{"place_id":"44,27523809536610","geometry":{"type":"Point","coordinates":[11.722476817,44.275238095]},"display_name":"Museo del Paesaggio dell'Appennino Faentino,from:IBC","category":"attractions","type":"Museum","importance":0.0,"icon":"","visiting_time":0.0,"opening_hours":"ok","opening_days":"ok","rating":0,"photo_url":null,"description":null,"www":"http://www.atlantide.net/roccadiriolo"},{"place_id":"44,15661370437540","geometry":{"type":"Point","coordinates":[11.792569164,44.156613704]},"display_name":"Museo Civico Don Giovanni Verità,from:IBC","category":"attractions","type":"Museum","importance":0.0,"icon":"","visiting_time":0.0,"opening_hours":"ok","opening_days":"ok","rating":0,"photo_url":null,"description":null,"www":"http://www.comune.modigliana.fc.it/museo-don-giovanni-verita1"},{"place_id":"44,23251394258340","geometry":{"type":"Point","coordinates":[11.615304774,44.232513943]},"display_name":"Giardino delle Erbe A. Rinaldi Ceroni,from:IBC","category":"attractions","type":"Museum","importance":0.0,"icon":"","visiting_time":0.0,"opening_hours":"ok","opening_days":"ok","rating":0,"photo_url":null,"description":null,"www":"http://www.ilgiardinodelleerbe.it"},{"place_id":"44,22364114414820","geometry":{"type":"Point","coordinates":[11.773773699,44.223641144]},"display_name":"Museo Civico G. Ugonia,from:IBC","category":"attractions","type":"Museum","importance":0.0,"icon":"","visiting_time":0.0,"opening_hours":"ok","opening_days":"ok","rating":0,"photo_url":null,"description":null,"www":"http://dati.emilia-romagna.it/id/ibc/condition/IT-ER-RA027"},{"place_id":"44,24704158256590","geometry":{"type":"Point","coordinates":[11.799651863,44.247041583]},"display_name":"Museo della Resistenza Ca' Malanca,from:IBC","category":"attractions","type":"Museum","importance":0.0,"icon":"","visiting_time":0.0,"opening_hours":"ok","opening_days":"ok","rating":0,"photo_url":null,"description":null,"www":"http://www.camalanca.it"},{"place_id":"44,27227988229160","geometry":{"type":"Point","coordinates":[11.603223049,44.272279882]},"display_name":"Museo della Cultura Materiale,from:IBC","category":"attractions","type":"Museum","importance":0.0,"icon":"","visiting_time":0.0,"opening_hours":"ok","opening_days":"ok","rating":0,"photo_url":null,"description":null,"www":"http://dati.emilia-romagna.it/id/ibc/condition/IT-ER-BO035"},{"place_id":"Cerro-sughera (Quercus pseudosuber) Brisighella Serra di croce Daniele fraz. Monte Romano 9","geometry":{"type":"Point","coordinates":[11.63535983,44.14300941]},"display_name":"Cerro-sughera (Quercus pseudosuber) Brisighella Serra di croce Daniele fraz. Monte Romano,from:IBC","category":"tree","type":"tree","importance":0.0,"icon":"","visiting_time":0.0,"opening_hours":"ok","opening_days":"ok","rating":0,"photo_url":"http://online.ibc.regione.emilia-romagna.it/mtrees/image/1150.jpg","description":null,"www":null},{"place_id":"Una Quercia Casola Valsenio La Cà, Via Senio 49","geometry":{"type":"Point","coordinates":[11.65060272,44.24319863]},"display_name":"Una Quercia Casola Valsenio La Cà, Via Senio,from:IBC","category":"tree","type":"tree","importance":0.0,"icon":"","visiting_time":0.0,"opening_hours":"ok","opening_days":"ok","rating":0,"photo_url":"http://online.ibc.regione.emilia-romagna.it/mtrees/image/1165.jpg","description":null,"www":null},{"place_id":"Sorbo (Sorbus domestica) Brisighella Gebania di Monte Romano 102","geometry":{"type":"Point","coordinates":[11.64982941,44.24159611]},"display_name":"Sorbo (Sorbus domestica) Brisighella Gebania di Monte Romano,from:IBC","category":"tree","type":"tree","importance":0.0,"icon":"","visiting_time":0.0,"opening_hours":"ok","opening_days":"ok","rating":0,"photo_url":"http://online.ibc.regione.emilia-romagna.it/mtrees/image/6698.12.06.pdf","description":null,"www":null},{"place_id":"Una Roverella Casola Valsenio Campoloro sotto 252","geometry":{"type":"Point","coordinates":[11.66957497,44.20886166]},"display_name":"Una Roverella Casola Valsenio Campoloro sotto,from:IBC","category":"tree","type":"tree","importance":0.0,"icon":"","visiting_time":0.0,"opening_hours":"ok","opening_days":"ok","rating":0,"photo_url":"http://online.ibc.regione.emilia-romagna.it/mtrees/image/1175.jpg","description":null,"www":null},{"place_id":"Tre Roverelle Casola Valsenio Val Sintria Podere Valgemiglia Vecchia 272","geometry":{"type":"Point","coordinates":[11.62295297,44.16377639]},"display_name":"Tre Roverelle Casola Valsenio Val Sintria Podere Valgemiglia Vecchia,from:IBC","category":"tree","type":"tree","importance":0.0,"icon":"","visiting_time":0.0,"opening_hours":"ok","opening_days":"ok","rating":0,"photo_url":"http://online.ibc.regione.emilia-romagna.it/mtrees/image/10964.jpg","description":null,"www":null},{"place_id":"Una Roverella Modigliana Miano Via Trebbio (Campopiano) 376","geometry":{"type":"Point","coordinates":[11.81583308,44.14701937]},"display_name":"Una Roverella Modigliana Miano Via Trebbio (Campopiano),from:IBC","category":"tree","type":"tree","importance":0.0,"icon":"","visiting_time":0.0,"opening_hours":"ok","opening_days":"ok","rating":0,"photo_url":"http://online.ibc.regione.emilia-romagna.it/mtrees/image/282.jpg","description":null,"www":null},{"place_id":"Roverella (Quercus pubescens) Brisighella La Valle di Ghiozzano fraz. Fognano 412","geometry":{"type":"Point","coordinates":[11.72651041,44.20721905]},"display_name":"Roverella (Quercus pubescens) Brisighella La Valle di Ghiozzano fraz. Fognano,from:IBC","category":"tree","type":"tree","importance":0.0,"icon":"","visiting_time":0.0,"opening_hours":"ok","opening_days":"ok","rating":0,"photo_url":"http://online.ibc.regione.emilia-romagna.it/mtrees/image/1142.jpg","description":null,"www":null},{"place_id":"Una Roverella Casola Valsenio Via Macello 428","geometry":{"type":"Point","coordinates":[11.62374204,44.22635396]},"display_name":"Una Roverella Casola Valsenio Via Macello,from:IBC","category":"tree","type":"tree","importance":0.0,"icon":"","visiting_time":0.0,"opening_hours":"ok","opening_days":"ok","rating":0,"photo_url":"http://online.ibc.regione.emilia-romagna.it/mtrees/image/1170.jpg","description":null,"www":null},{"place_id":"Olmo Ulmus carpinifolia Brisighella Cà di Po' fraz. Monte Romano 558","geometry":{"type":"Point","coordinates":[11.63361645,44.14204132]},"display_name":"Olmo Ulmus carpinifolia Brisighella Cà di Po' fraz. Monte Romano,from:IBC","category":"tree","type":"tree","importance":0.0,"icon":"","visiting_time":0.0,"opening_hours":"ok","opening_days":"ok","rating":0,"photo_url":"http://online.ibc.regione.emilia-romagna.it/mtrees/image/6700.12.06.pdf","description":null,"www":null},{"place_id":"Una Roverella Faenza Via Castel Raniero 564","geometry":{"type":"Point","coordinates":[11.81370983,44.26133338]},"display_name":"Una Roverella Faenza Via Castel Raniero,from:IBC","category":"tree","type":"tree","importance":0.0,"icon":"","visiting_time":0.0,"opening_hours":"ok","opening_days":"ok","rating":0,"photo_url":"http://online.ibc.regione.emilia-romagna.it/mtrees/image/1197.jpg","description":null,"www":null},{"place_id":"Biancospino (Crataegus monogyna) Brisighella Fontanamoneta fraz. Monte Romano 857","geometry":{"type":"Point","coordinates":[11.604389,44.13072899]},"display_name":"Biancospino (Crataegus monogyna) Brisighella Fontanamoneta fraz. Monte Romano,from:IBC","category":"tree","type":"tree","importance":0.0,"icon":"","visiting_time":0.0,"opening_hours":"ok","opening_days":"ok","rating":0,"photo_url":"http://online.ibc.regione.emilia-romagna.it/mtrees/image/1140.jpg","description":null,"www":null},{"place_id":"Una Quercia Borgo Tossignano Campiuno Ca' Querceto 893","geometry":{"type":"Point","coordinates":[11.61604401,44.2591471]},"display_name":"Una Quercia Borgo Tossignano Campiuno Ca' Querceto,from:IBC","category":"tree","type":"tree","importance":0.0,"icon":"","visiting_time":0.0,"opening_hours":"ok","opening_days":"ok","rating":0,"photo_url":"http://online.ibc.regione.emilia-romagna.it/mtrees/image/6644.12.06.pdf","description":null,"www":null}]