[{"place_id":"2234","geometry":{"type":"Point","coordinates":[10.784167279,44.715256348]},"display_name":"Parrocchia di San Damaso,from:MIBACT","category":"attractions","type":"Chiesa","importance":0.7,"icon":"","visiting_time":0.0,"opening_hours":"ok","opening_days":"ok","rating":0,"photo_url":null,"description":null,"www":"http://vincoliinrete.beniculturali.it/VincoliInRete/vir/bene/dettagliobene216671"},{"place_id":"17277","geometry":{"type":"Point","coordinates":[10.929008687,44.64803608]},"display_name":"Piazza Roma,from:MIBACT","category":"attractions","type":"Piazza","importance":0.7,"icon":"","visiting_time":0.0,"opening_hours":"ok","opening_days":"ok","rating":0,"photo_url":null,"description":null,"www":null},{"place_id":"17903","geometry":{"type":"Point","coordinates":[10.997022025,44.622707355]},"display_name":"Ponte di Sant'Ambrogio,from:MIBACT","category":"attractions","type":"Ponte","importance":0.7,"icon":"","visiting_time":0.0,"opening_hours":"ok","opening_days":"ok","rating":0,"photo_url":null,"description":null,"www":"http://vincoliinrete.beniculturali.it/VincoliInRete/vir/bene/dettagliobene182099"},{"place_id":"17901","geometry":{"type":"Point","coordinates":[10.923094903,44.647996384]},"display_name":"Monumento a Ludovico Antonio Muratori,from:MIBACT","category":"attractions","type":"Elemento","importance":0.7,"icon":"","visiting_time":0.0,"opening_hours":"ok","opening_days":"ok","rating":0,"photo_url":null,"description":null,"www":"http://vincoliinrete.beniculturali.it/VincoliInRete/vir/bene/dettagliobene176908"},{"place_id":"17730","geometry":{"type":"Point","coordinates":[10.899417081,44.669617597]},"display_name":"Ponte Alto sul Fiume Secchia,from:MIBACT","category":"attractions","type":"Ponte","importance":0.7,"icon":"","visiting_time":0.0,"opening_hours":"ok","opening_days":"ok","rating":0,"photo_url":null,"description":null,"www":null},{"place_id":"17284","geometry":{"type":"Point","coordinates":[10.926085447,44.646524747]},"display_name":"Monumento ad Alessandro Tassoni,from:MIBACT","category":"attractions","type":"Elemento","importance":0.7,"icon":"","visiting_time":0.0,"opening_hours":"ok","opening_days":"ok","rating":0,"photo_url":null,"description":null,"www":null},{"place_id":"17283","geometry":{"type":"Point","coordinates":[10.929394909,44.642617352]},"display_name":"Sede della Prefettura e dell'Amministrazione provinciale,from:MIBACT","category":"attractions","type":"Palazzo","importance":0.7,"icon":"","visiting_time":0.0,"opening_hours":"ok","opening_days":"ok","rating":0,"photo_url":null,"description":null,"www":null},{"place_id":"4970","geometry":{"type":"Point","coordinates":[10.850182175,44.571946307]},"display_name":"Villa e parco della ex Villa Gandini oggi Aggazzotti,from:MIBACT","category":"attractions","type":"Villa","importance":0.4,"icon":"","visiting_time":0.0,"opening_hours":"ok","opening_days":"ok","rating":0,"photo_url":null,"description":null,"www":"http://vincoliinrete.beniculturali.it/VincoliInRete/vir/bene/dettagliobene266101"},{"place_id":"5016","geometry":{"type":"Point","coordinates":[10.922361673,44.651358214]},"display_name":"Ex Ippodromo,from:MIBACT","category":"attractions","type":"Impianto","importance":0.4,"icon":"","visiting_time":0.0,"opening_hours":"ok","opening_days":"ok","rating":0,"photo_url":null,"description":null,"www":"http://vincoliinrete.beniculturali.it/VincoliInRete/vir/bene/dettagliobene170677"},{"place_id":"5043","geometry":{"type":"Point","coordinates":[10.924106621,44.644424826]},"display_name":"Palazzo Agazzotti ed ex Chiostro del Monastero dei Serviti,from:MIBACT","category":"attractions","type":"Convento","importance":0.7,"icon":"","visiting_time":0.0,"opening_hours":"ok","opening_days":"ok","rating":0,"photo_url":null,"description":null,"www":"http://vincoliinrete.beniculturali.it/VincoliInRete/vir/bene/dettagliobene345901"},{"place_id":"5045","geometry":{"type":"Point","coordinates":[10.873910506,44.683940838]},"display_name":"\"Villa Vandelli-Dallari, parco e pertinenze\",from:MIBACT","category":"attractions","type":"Villa","importance":0.7,"icon":"","visiting_time":0.0,"opening_hours":"ok","opening_days":"ok","rating":0,"photo_url":null,"description":null,"www":"http://vincoliinrete.beniculturali.it/VincoliInRete/vir/bene/dettagliobene235718"},{"place_id":"5056","geometry":{"type":"Point","coordinates":[10.863810335,44.611396142]},"display_name":"Villa Montecuccoli,from:MIBACT","category":"attractions","type":"Villa","importance":0.7,"icon":"","visiting_time":0.0,"opening_hours":"ok","opening_days":"ok","rating":0,"photo_url":null,"description":null,"www":"http://vincoliinrete.beniculturali.it/VincoliInRete/vir/bene/dettagliobene486089"},{"place_id":"5057","geometry":{"type":"Point","coordinates":[10.924762223,44.641493709]},"display_name":"Parco delle Rimembranze,from:MIBACT","category":"parks","type":"Parco","importance":0.7,"icon":"","visiting_time":0.0,"opening_hours":"ok","opening_days":"ok","rating":0,"photo_url":null,"description":null,"www":"\"http://vincoliinrete.beniculturali.it/VincoliInRete/vir/bene/dettagliobene176902,http://vincoliinrete.beniculturali.it/VincoliInRete/vir/bene/dettagliobene430228\""},{"place_id":"5082","geometry":{"type":"Point","coordinates":[10.930074012,44.646203951]},"display_name":"Palazzo sede della Banca d'Italia (già Boschetti),from:MIBACT","category":"attractions","type":"Palazzo","importance":0.7,"icon":"","visiting_time":0.0,"opening_hours":"ok","opening_days":"ok","rating":0,"photo_url":null,"description":null,"www":"http://vincoliinrete.beniculturali.it/VincoliInRete/vir/bene/dettagliobene400639"},{"place_id":"5114","geometry":{"type":"Point","coordinates":[10.925579998,44.647661404]},"display_name":"Casa Castelvetro,from:MIBACT","category":"attractions","type":"Palazzo","importance":0.7,"icon":"","visiting_time":0.0,"opening_hours":"ok","opening_days":"ok","rating":0,"photo_url":null,"description":null,"www":"http://vincoliinrete.beniculturali.it/VincoliInRete/vir/bene/dettagliobene346014"},{"place_id":"5125","geometry":{"type":"Point","coordinates":[10.926366718,44.644016454]},"display_name":"Palazzo Carandini - Bastogi,from:MIBACT","category":"attractions","type":"Palazzo","importance":0.7,"icon":"","visiting_time":0.0,"opening_hours":"ok","opening_days":"ok","rating":0,"photo_url":null,"description":null,"www":"http://vincoliinrete.beniculturali.it/VincoliInRete/vir/bene/dettagliobene346019"},{"place_id":"5142","geometry":{"type":"Point","coordinates":[10.926282617,44.642454064]},"display_name":"Ex Caserma Fanti,from:MIBACT","category":"attractions","type":"Caserma","importance":0.4,"icon":"","visiting_time":0.0,"opening_hours":"ok","opening_days":"ok","rating":0,"photo_url":null,"description":null,"www":"http://vincoliinrete.beniculturali.it/VincoliInRete/vir/bene/dettagliobene321426"},{"place_id":"5143","geometry":{"type":"Point","coordinates":[10.923735913,44.646952184]},"display_name":"Caserma Carabinieri S. Eufemia,from:MIBACT","category":"attractions","type":"Convento","importance":0.4,"icon":"","visiting_time":0.0,"opening_hours":"ok","opening_days":"ok","rating":0,"photo_url":null,"description":null,"www":"http://vincoliinrete.beniculturali.it/VincoliInRete/vir/bene/dettagliobene321029"},{"place_id":"5144","geometry":{"type":"Point","coordinates":[10.921596033,44.645646937]},"display_name":"Ex Convento di S. Chiara,from:MIBACT","category":"attractions","type":"Convento","importance":0.7,"icon":"","visiting_time":0.0,"opening_hours":"ok","opening_days":"ok","rating":0,"photo_url":null,"description":null,"www":"\"http://vincoliinrete.beniculturali.it/VincoliInRete/vir/bene/dettagliobene321413,http://vincoliinrete.beniculturali.it/VincoliInRete/vir/bene/dettagliobene321408\""},{"place_id":"5148","geometry":{"type":"Point","coordinates":[10.92369199,44.646552976]},"display_name":"Istituti biologici,from:MIBACT","category":"attractions","type":"Convento","importance":0.4,"icon":"","visiting_time":0.0,"opening_hours":"ok","opening_days":"ok","rating":0,"photo_url":null,"description":null,"www":"http://vincoliinrete.beniculturali.it/VincoliInRete/vir/bene/dettagliobene196121"},{"place_id":"16005","geometry":{"type":"Point","coordinates":[10.932228662,44.643718043]},"display_name":"Fontana dei due fiumi modenesi,from:MIBACT","category":"attractions","type":"Elemento","importance":0.7,"icon":"","visiting_time":0.0,"opening_hours":"ok","opening_days":"ok","rating":0,"photo_url":null,"description":null,"www":"http://vincoliinrete.beniculturali.it/VincoliInRete/vir/bene/dettagliobene170665"},{"place_id":"15957","geometry":{"type":"Point","coordinates":[10.927888648,44.643403462]},"display_name":"Santa Maria delle Assi,from:MIBACT","category":"attractions","type":"Chiesa","importance":0.7,"icon":"","visiting_time":0.0,"opening_hours":"ok","opening_days":"ok","rating":0,"photo_url":null,"description":null,"www":"http://vincoliinrete.beniculturali.it/VincoliInRete/vir/bene/dettagliobene140777"},{"place_id":"13964","geometry":{"type":"Point","coordinates":[10.9952974,44.669912456]},"display_name":"Ponte Vecchio sul Panaro a Navicello,from:MIBACT","category":"attractions","type":"Ponte","importance":0.9,"icon":"","visiting_time":0.0,"opening_hours":"ok","opening_days":"ok","rating":0,"photo_url":null,"description":null,"www":null},{"place_id":"13026","geometry":{"type":"Point","coordinates":[10.933755286,44.648303698]},"display_name":"Orto Botanico (Palazzina Storica),from:MIBACT","category":"attractions","type":"Palazzo","importance":0.7,"icon":"","visiting_time":0.0,"opening_hours":"ok","opening_days":"ok","rating":0,"photo_url":null,"description":null,"www":"http://vincoliinrete.beniculturali.it/VincoliInRete/vir/bene/dettagliobene208321"},{"place_id":"7089","geometry":{"type":"Point","coordinates":[10.925079665,44.647674132]},"display_name":"Comparto Piazza Matteotti,from:MIBACT","category":"attractions","type":"Piazza","importance":0.7,"icon":"","visiting_time":0.0,"opening_hours":"ok","opening_days":"ok","rating":0,"photo_url":null,"description":null,"www":"http://vincoliinrete.beniculturali.it/VincoliInRete/vir/bene/dettagliobene169162"},{"place_id":"1763","geometry":{"type":"Point","coordinates":[10.930736132,44.647246829]},"display_name":"Palazzo già Convento di Santa Margherita,from:MIBACT","category":"attractions","type":"Palazzo","importance":0.7,"icon":"","visiting_time":0.0,"opening_hours":"ok","opening_days":"ok","rating":0,"photo_url":null,"description":null,"www":"\"http://vincoliinrete.beniculturali.it/VincoliInRete/vir/bene/dettagliobene225035,http://vincoliinrete.beniculturali.it/VincoliInRete/vir/bene/dettagliobene141014,http://vincoliinrete.beniculturali.it/VincoliInRete/vir/bene/dettagliobene345920,http://vincoliinrete.beniculturali.it/VincoliInRete/vir/bene/dettagliobene345885\""},{"place_id":"1805","geometry":{"type":"Point","coordinates":[10.923102738,44.649992872]},"display_name":"Foro Boario,from:MIBACT","category":"attractions","type":"Mercato","importance":0.7,"icon":"","visiting_time":0.0,"opening_hours":"ok","opening_days":"ok","rating":0,"photo_url":null,"description":null,"www":"http://vincoliinrete.beniculturali.it/VincoliInRete/vir/bene/dettagliobene346091"},{"place_id":"1808","geometry":{"type":"Point","coordinates":[10.933648227,44.651493381]},"display_name":"Tempio Monumentale dei Caduti,from:MIBACT","category":"attractions","type":"Chiesa","importance":0.7,"icon":"","visiting_time":0.0,"opening_hours":"ok","opening_days":"ok","rating":0,"photo_url":null,"description":null,"www":"http://vincoliinrete.beniculturali.it/VincoliInRete/vir/bene/dettagliobene286445"},{"place_id":"1809","geometry":{"type":"Point","coordinates":[10.930188861,44.646651799]},"display_name":"Teatro comunale Pavarotti,from:MIBACT","category":"attractions","type":"Teatro","importance":0.7,"icon":"","visiting_time":0.0,"opening_hours":"ok","opening_days":"ok","rating":0,"photo_url":null,"description":null,"www":"http://vincoliinrete.beniculturali.it/VincoliInRete/vir/bene/dettagliobene231827"},{"place_id":"1815","geometry":{"type":"Point","coordinates":[10.931443125,44.643759848]},"display_name":"Teatro Storchi,from:MIBACT","category":"attractions","type":"Teatro","importance":0.9,"icon":"","visiting_time":0.0,"opening_hours":"ok","opening_days":"ok","rating":0,"photo_url":null,"description":null,"www":"http://vincoliinrete.beniculturali.it/VincoliInRete/vir/bene/dettagliobene231828"},{"place_id":"1816","geometry":{"type":"Point","coordinates":[10.927918789,44.649989803]},"display_name":"Archivio di Stato già Convento Domenicano,from:MIBACT","category":"attractions","type":"Convento","importance":0.7,"icon":"","visiting_time":0.0,"opening_hours":"ok","opening_days":"ok","rating":0,"photo_url":null,"description":null,"www":"http://vincoliinrete.beniculturali.it/VincoliInRete/vir/bene/dettagliobene166288"},{"place_id":"1885","geometry":{"type":"Point","coordinates":[10.927349049,44.647139948]},"display_name":"Sinagoga,from:MIBACT","category":"attractions","type":"Sinagoga","importance":0.7,"icon":"","visiting_time":0.0,"opening_hours":"ok","opening_days":"ok","rating":0,"photo_url":null,"description":null,"www":"http://vincoliinrete.beniculturali.it/VincoliInRete/vir/bene/dettagliobene274134"},{"place_id":"1506","geometry":{"type":"Point","coordinates":[10.840083421,44.690221761]},"display_name":"Torre del Palazzo Comunale,from:MIBACT","category":"attractions","type":"Torre","importance":0.7,"icon":"","visiting_time":0.0,"opening_hours":"ok","opening_days":"ok","rating":0,"photo_url":null,"description":null,"www":"http://vincoliinrete.beniculturali.it/VincoliInRete/vir/bene/dettagliobene273277"},{"place_id":"1573","geometry":{"type":"Point","coordinates":[10.841085982,44.690034732]},"display_name":"Complesso parrocchiale della parrocchia di Campogalliano,from:MIBACT","category":"attractions","type":"Chiesa","importance":0.7,"icon":"","visiting_time":0.0,"opening_hours":"ok","opening_days":"ok","rating":0,"photo_url":null,"description":null,"www":"\"http://vincoliinrete.beniculturali.it/VincoliInRete/vir/bene/dettagliobene140996,http://vincoliinrete.beniculturali.it/VincoliInRete/vir/bene/dettagliobene491026\""},{"place_id":"1579","geometry":{"type":"Point","coordinates":[11.005122357,44.713678518]},"display_name":"Chiesa della Madonna delle Grazie di San Clemente e pertinenze,from:MIBACT","category":"attractions","type":"Chiesa","importance":0.7,"icon":"","visiting_time":0.0,"opening_hours":"ok","opening_days":"ok","rating":0,"photo_url":null,"description":null,"www":"\"http://vincoliinrete.beniculturali.it/VincoliInRete/vir/bene/dettagliobene27142,http://vincoliinrete.beniculturali.it/VincoliInRete/vir/bene/dettagliobene93598,http://vincoliinrete.beniculturali.it/VincoliInRete/vir/bene/dettagliobene227671\""},{"place_id":"1585","geometry":{"type":"Point","coordinates":[10.92505597,44.73861022]},"display_name":"Chiesa e canonica di San Giovanni Battista e pertinenze,from:MIBACT","category":"attractions","type":"Chiesa","importance":0.7,"icon":"","visiting_time":0.0,"opening_hours":"ok","opening_days":"ok","rating":0,"photo_url":null,"description":null,"www":"http://vincoliinrete.beniculturali.it/VincoliInRete/vir/bene/dettagliobene273281"},{"place_id":"1729","geometry":{"type":"Point","coordinates":[10.92481233,44.644181209]},"display_name":"Ex Collegio dei Gesuiti - Istituto d'Arte Adolfo Venturi,from:MIBACT","category":"attractions","type":"Palazzo","importance":0.4,"icon":"","visiting_time":0.0,"opening_hours":"ok","opening_days":"ok","rating":0,"photo_url":null,"description":null,"www":"http://vincoliinrete.beniculturali.it/VincoliInRete/vir/bene/dettagliobene224479"},{"place_id":"1762","geometry":{"type":"Point","coordinates":[10.921774158,44.64334915]},"display_name":"Seminario Arcivescovile,from:MIBACT","category":"attractions","type":"Palazzo","importance":0.7,"icon":"","visiting_time":0.0,"opening_hours":"ok","opening_days":"ok","rating":0,"photo_url":null,"description":null,"www":"\"http://vincoliinrete.beniculturali.it/VincoliInRete/vir/bene/dettagliobene446050,http://vincoliinrete.beniculturali.it/VincoliInRete/vir/bene/dettagliobene225025\""},{"place_id":"1764","geometry":{"type":"Point","coordinates":[10.928176038,44.648602372]},"display_name":"Accademia Militare,from:MIBACT","category":"attractions","type":"Palazzo","importance":1.0,"icon":"","visiting_time":0.0,"opening_hours":"ok","opening_days":"ok","rating":0,"photo_url":null,"description":null,"www":"\"http://vincoliinrete.beniculturali.it/VincoliInRete/vir/bene/dettagliobene162167,http://vincoliinrete.beniculturali.it/VincoliInRete/vir/bene/dettagliobene196187,http://vincoliinrete.beniculturali.it/VincoliInRete/vir/bene/dettagliobene345936,http://vincoliinrete.beniculturali.it/VincoliInRete/vir/bene/dettagliobene182705\""},{"place_id":"1765","geometry":{"type":"Point","coordinates":[10.926112792,44.646231192]},"display_name":"Antico Palazzo Comunale,from:MIBACT","category":"attractions","type":"Palazzo","importance":0.9,"icon":"","visiting_time":0.0,"opening_hours":"ok","opening_days":"ok","rating":0,"photo_url":null,"description":null,"www":"http://vincoliinrete.beniculturali.it/VincoliInRete/vir/bene/dettagliobene273256"},{"place_id":"1800","geometry":{"type":"Point","coordinates":[10.925412024,44.647116543]},"display_name":"Chiesa del Voto,from:MIBACT","category":"attractions","type":"Chiesa","importance":0.9,"icon":"","visiting_time":0.0,"opening_hours":"ok","opening_days":"ok","rating":0,"photo_url":null,"description":null,"www":null},{"place_id":"1802","geometry":{"type":"Point","coordinates":[10.924620816,44.649118264]},"display_name":"Chiesa e Canonica di Santa Maria della Pomposa,from:MIBACT","category":"attractions","type":"Chiesa","importance":0.9,"icon":"","visiting_time":0.0,"opening_hours":"ok","opening_days":"ok","rating":0,"photo_url":null,"description":null,"www":"http://vincoliinrete.beniculturali.it/VincoliInRete/vir/bene/dettagliobene166129"},{"place_id":"1804","geometry":{"type":"Point","coordinates":[10.933575512,44.649671807]},"display_name":"Palazzina dei Giardini Pubblici,from:MIBACT","category":"attractions","type":"Palazzo","importance":0.7,"icon":"","visiting_time":0.0,"opening_hours":"ok","opening_days":"ok","rating":0,"photo_url":null,"description":null,"www":"http://vincoliinrete.beniculturali.it/VincoliInRete/vir/bene/dettagliobene156471"},{"place_id":"1807","geometry":{"type":"Point","coordinates":[10.927439264,44.649169671]},"display_name":"Istituto d'arte Venturi,from:MIBACT","category":"attractions","type":"Convento","importance":0.7,"icon":"","visiting_time":0.0,"opening_hours":"ok","opening_days":"ok","rating":0,"photo_url":null,"description":null,"www":"\"http://vincoliinrete.beniculturali.it/VincoliInRete/vir/bene/dettagliobene225030,http://vincoliinrete.beniculturali.it/VincoliInRete/vir/bene/dettagliobene196152\""},{"place_id":"1818","geometry":{"type":"Point","coordinates":[10.929912109,44.645064836]},"display_name":"Chiesa del Carmine,from:MIBACT","category":"attractions","type":"Chiesa","importance":0.9,"icon":"","visiting_time":0.0,"opening_hours":"ok","opening_days":"ok","rating":0,"photo_url":null,"description":null,"www":"\"http://vincoliinrete.beniculturali.it/VincoliInRete/vir/bene/dettagliobene158409,http://vincoliinrete.beniculturali.it/VincoliInRete/vir/bene/dettagliobene140898\""},{"place_id":"1819","geometry":{"type":"Point","coordinates":[10.922030157,44.645601329]},"display_name":"Chiesa di San Barnaba,from:MIBACT","category":"attractions","type":"Chiesa","importance":0.7,"icon":"","visiting_time":0.0,"opening_hours":"ok","opening_days":"ok","rating":0,"photo_url":null,"description":null,"www":"http://vincoliinrete.beniculturali.it/VincoliInRete/vir/bene/dettagliobene140853"},{"place_id":"1830","geometry":{"type":"Point","coordinates":[10.924410041,44.647612683]},"display_name":"Chiesa di S. Giovanni Battista della Buona Morte,from:MIBACT","category":"attractions","type":"Chiesa","importance":0.7,"icon":"","visiting_time":0.0,"opening_hours":"ok","opening_days":"ok","rating":0,"photo_url":null,"description":null,"www":"http://vincoliinrete.beniculturali.it/VincoliInRete/vir/bene/dettagliobene140855"},{"place_id":"1831","geometry":{"type":"Point","coordinates":[10.92809107,44.647543838]},"display_name":"Chiesa di San Giorgio,from:MIBACT","category":"attractions","type":"Chiesa","importance":0.9,"icon":"","visiting_time":0.0,"opening_hours":"ok","opening_days":"ok","rating":0,"photo_url":null,"description":null,"www":"http://vincoliinrete.beniculturali.it/VincoliInRete/vir/bene/dettagliobene140960"},{"place_id":"1864","geometry":{"type":"Point","coordinates":[10.923055775,44.64765838]},"display_name":"Palazzo Montecuccoli degli Erri,from:MIBACT","category":"attractions","type":"Palazzo","importance":0.7,"icon":"","visiting_time":0.0,"opening_hours":"ok","opening_days":"ok","rating":0,"photo_url":null,"description":null,"www":"http://vincoliinrete.beniculturali.it/VincoliInRete/vir/bene/dettagliobene345981"},{"place_id":"1871","geometry":{"type":"Point","coordinates":[10.927860268,44.645012017]},"display_name":"Palazzo dell'Università degli Studi,from:MIBACT","category":"attractions","type":"Palazzo","importance":0.7,"icon":"","visiting_time":0.0,"opening_hours":"ok","opening_days":"ok","rating":0,"photo_url":null,"description":null,"www":"http://vincoliinrete.beniculturali.it/VincoliInRete/vir/bene/dettagliobene345914"},{"place_id":"1908","geometry":{"type":"Point","coordinates":[10.921681406,44.649036178]},"display_name":"Ex Ospedale di Sant'Agostino e pertinenze,from:MIBACT","category":"attractions","type":"Ospedale","importance":0.7,"icon":"","visiting_time":0.0,"opening_hours":"ok","opening_days":"ok","rating":0,"photo_url":null,"description":null,"www":"http://vincoliinrete.beniculturali.it/VincoliInRete/vir/bene/dettagliobene275369"},{"place_id":"1912","geometry":{"type":"Point","coordinates":[10.924089837,44.642665276]},"display_name":"Ex Chiesa ed Ex Convento di San Paolo,from:MIBACT","category":"attractions","type":"Chiesa","importance":0.7,"icon":"","visiting_time":0.0,"opening_hours":"ok","opening_days":"ok","rating":0,"photo_url":null,"description":null,"www":"\"http://vincoliinrete.beniculturali.it/VincoliInRete/vir/bene/dettagliobene276932,http://vincoliinrete.beniculturali.it/VincoliInRete/vir/bene/dettagliobene140798,http://vincoliinrete.beniculturali.it/VincoliInRete/vir/bene/dettagliobene140884,http://vincoliinrete.beniculturali.it/VincoliInRete/vir/bene/dettagliobene472949\""},{"place_id":"2006","geometry":{"type":"Point","coordinates":[10.783120256,44.653045123]},"display_name":"Oratorio della Santissima Annunziata,from:MIBACT","category":"attractions","type":"Chiesa","importance":0.7,"icon":"","visiting_time":0.0,"opening_hours":"ok","opening_days":"ok","rating":0,"photo_url":null,"description":null,"www":"http://vincoliinrete.beniculturali.it/VincoliInRete/vir/bene/dettagliobene137513"},{"place_id":"2009","geometry":{"type":"Point","coordinates":[10.785098634,44.731953741]},"display_name":"Chiesa parrocchiale di San Martino Vescovo,from:MIBACT","category":"attractions","type":"Chiesa","importance":0.7,"icon":"","visiting_time":0.0,"opening_hours":"ok","opening_days":"ok","rating":0,"photo_url":null,"description":null,"www":"http://vincoliinrete.beniculturali.it/VincoliInRete/vir/bene/dettagliobene216690"},{"place_id":"4968","geometry":{"type":"Point","coordinates":[10.84756838,44.575252251]},"display_name":"Chiesa di San Bartolomeo e pertinenze,from:MIBACT","category":"attractions","type":"Chiesa","importance":0.7,"icon":"","visiting_time":0.0,"opening_hours":"ok","opening_days":"ok","rating":0,"photo_url":null,"description":null,"www":"\"http://vincoliinrete.beniculturali.it/VincoliInRete/vir/bene/dettagliobene216963,http://vincoliinrete.beniculturali.it/VincoliInRete/vir/bene/dettagliobene453809\""},{"place_id":"5014","geometry":{"type":"Point","coordinates":[10.930383893,44.650665793]},"display_name":"Palazzo Boschetti,from:MIBACT","category":"attractions","type":"Palazzo","importance":0.7,"icon":"","visiting_time":0.0,"opening_hours":"ok","opening_days":"ok","rating":0,"photo_url":null,"description":null,"www":"http://vincoliinrete.beniculturali.it/VincoliInRete/vir/bene/dettagliobene386467"},{"place_id":"5017","geometry":{"type":"Point","coordinates":[10.928907519,44.645550795]},"display_name":"Palazzo Agazzotti ora Rossi Barattini,from:MIBACT","category":"attractions","type":"Palazzo","importance":0.7,"icon":"","visiting_time":0.0,"opening_hours":"ok","opening_days":"ok","rating":0,"photo_url":null,"description":null,"www":"http://vincoliinrete.beniculturali.it/VincoliInRete/vir/bene/dettagliobene346117"},{"place_id":"5018","geometry":{"type":"Point","coordinates":[10.928381196,44.647943561]},"display_name":"Palazzo Rabitti,from:MIBACT","category":"attractions","type":"Palazzo","importance":0.4,"icon":"","visiting_time":0.0,"opening_hours":"ok","opening_days":"ok","rating":0,"photo_url":null,"description":null,"www":"http://vincoliinrete.beniculturali.it/VincoliInRete/vir/bene/dettagliobene345921"},{"place_id":"5020","geometry":{"type":"Point","coordinates":[10.927319775,44.645552741]},"display_name":"Palazzo del Collegio San Carlo e Chiesa di San Carlo,from:MIBACT","category":"attractions","type":"Chiesa","importance":0.7,"icon":"","visiting_time":0.0,"opening_hours":"ok","opening_days":"ok","rating":0,"photo_url":null,"description":null,"www":"\"http://vincoliinrete.beniculturali.it/VincoliInRete/vir/bene/dettagliobene229319,http://vincoliinrete.beniculturali.it/VincoliInRete/vir/bene/dettagliobene140959,http://vincoliinrete.beniculturali.it/VincoliInRete/vir/bene/dettagliobene229317\""},{"place_id":"5030","geometry":{"type":"Point","coordinates":[10.925348644,44.644105344]},"display_name":"Chiesa di S. Bartolomeo,from:MIBACT","category":"attractions","type":"Chiesa","importance":0.9,"icon":"","visiting_time":0.0,"opening_hours":"ok","opening_days":"ok","rating":0,"photo_url":null,"description":null,"www":"http://vincoliinrete.beniculturali.it/VincoliInRete/vir/bene/dettagliobene140822"},{"place_id":"5038","geometry":{"type":"Point","coordinates":[10.929164544,44.645983244]},"display_name":"Chiesa di S. Vincenzo,from:MIBACT","category":"attractions","type":"Chiesa","importance":0.9,"icon":"","visiting_time":0.0,"opening_hours":"ok","opening_days":"ok","rating":0,"photo_url":null,"description":null,"www":"\"http://vincoliinrete.beniculturali.it/VincoliInRete/vir/bene/dettagliobene146529,http://vincoliinrete.beniculturali.it/VincoliInRete/vir/bene/dettagliobene162162\""},{"place_id":"5040","geometry":{"type":"Point","coordinates":[10.927727771,44.646388839]},"display_name":"Palazzo Rangoni Macchiavelli,from:MIBACT","category":"attractions","type":"Palazzo","importance":0.7,"icon":"","visiting_time":0.0,"opening_hours":"ok","opening_days":"ok","rating":0,"photo_url":null,"description":null,"www":"http://vincoliinrete.beniculturali.it/VincoliInRete/vir/bene/dettagliobene346087"},{"place_id":"5047","geometry":{"type":"Point","coordinates":[10.920874687,44.64667111]},"display_name":"\"Divisione Urologia del complesso Ospedaliero di via S. Agostino, n.18\",from:MIBACT","category":"attractions","type":"Palazzo","importance":0.7,"icon":"","visiting_time":0.0,"opening_hours":"ok","opening_days":"ok","rating":0,"photo_url":null,"description":null,"www":"http://vincoliinrete.beniculturali.it/VincoliInRete/vir/bene/dettagliobene278538"},{"place_id":"5091","geometry":{"type":"Point","coordinates":[10.925598436,44.649835785]},"display_name":"Istituto Orsoline Sacro Cuore e pertinenze,from:MIBACT","category":"attractions","type":"Palazzo","importance":0.7,"icon":"","visiting_time":0.0,"opening_hours":"ok","opening_days":"ok","rating":0,"photo_url":null,"description":null,"www":null},{"place_id":"5092","geometry":{"type":"Point","coordinates":[10.922188421,44.645696907]},"display_name":"Ex Convento dei Frati Minimi di San Francesco di Paola,from:MIBACT","category":"attractions","type":"Convento","importance":0.7,"icon":"","visiting_time":0.0,"opening_hours":"ok","opening_days":"ok","rating":0,"photo_url":null,"description":null,"www":"http://vincoliinrete.beniculturali.it/VincoliInRete/vir/bene/dettagliobene225027"},{"place_id":"5101","geometry":{"type":"Point","coordinates":[10.923849535,44.646864747]},"display_name":"Chiesa di S. Eufemia,from:MIBACT","category":"attractions","type":"Chiesa","importance":0.7,"icon":"","visiting_time":0.0,"opening_hours":"ok","opening_days":"ok","rating":0,"photo_url":null,"description":null,"www":"http://vincoliinrete.beniculturali.it/VincoliInRete/vir/bene/dettagliobene140946"},{"place_id":"5111","geometry":{"type":"Point","coordinates":[10.930544679,44.646764025]},"display_name":"Casa di Ciro Menotti,from:MIBACT","category":"attractions","type":"Palazzo","importance":0.7,"icon":"","visiting_time":0.0,"opening_hours":"ok","opening_days":"ok","rating":0,"photo_url":null,"description":null,"www":"http://vincoliinrete.beniculturali.it/VincoliInRete/vir/bene/dettagliobene330213"},{"place_id":"5123","geometry":{"type":"Point","coordinates":[10.927323426,44.643149921]},"display_name":"Palazzo Schedoni già Convento agostiniano,from:MIBACT","category":"attractions","type":"Palazzo","importance":0.7,"icon":"","visiting_time":0.0,"opening_hours":"ok","opening_days":"ok","rating":0,"photo_url":null,"description":null,"www":"\"http://vincoliinrete.beniculturali.it/VincoliInRete/vir/bene/dettagliobene158044,http://vincoliinrete.beniculturali.it/VincoliInRete/vir/bene/dettagliobene225029\""},{"place_id":"5131","geometry":{"type":"Point","coordinates":[10.923263097,44.648695925]},"display_name":"Palazzo ex Scuderie Taccoli,from:MIBACT","category":"attractions","type":"Palazzo","importance":0.7,"icon":"","visiting_time":0.0,"opening_hours":"ok","opening_days":"ok","rating":0,"photo_url":null,"description":null,"www":"http://vincoliinrete.beniculturali.it/VincoliInRete/vir/bene/dettagliobene346120"},{"place_id":"5133","geometry":{"type":"Point","coordinates":[10.92836028,44.647296843]},"display_name":"Palazzo Pignatti Morano,from:MIBACT","category":"attractions","type":"Palazzo","importance":0.7,"icon":"","visiting_time":0.0,"opening_hours":"ok","opening_days":"ok","rating":0,"photo_url":null,"description":null,"www":"http://vincoliinrete.beniculturali.it/VincoliInRete/vir/bene/dettagliobene346089"},{"place_id":"5134","geometry":{"type":"Point","coordinates":[10.930335776,44.646524087]},"display_name":"Palazzo Cesis,from:MIBACT","category":"attractions","type":"Palazzo","importance":0.7,"icon":"","visiting_time":0.0,"opening_hours":"ok","opening_days":"ok","rating":0,"photo_url":null,"description":null,"www":"http://vincoliinrete.beniculturali.it/VincoliInRete/vir/bene/dettagliobene345995"},{"place_id":"5136","geometry":{"type":"Point","coordinates":[10.926407963,44.650774556]},"display_name":"Palazzo Molza,from:MIBACT","category":"attractions","type":"Palazzo","importance":0.7,"icon":"","visiting_time":0.0,"opening_hours":"ok","opening_days":"ok","rating":0,"photo_url":null,"description":null,"www":"http://vincoliinrete.beniculturali.it/VincoliInRete/vir/bene/dettagliobene345954"},{"place_id":"5140","geometry":{"type":"Point","coordinates":[10.930603951,44.65125859]},"display_name":"Palazzo Coccapani,from:MIBACT","category":"attractions","type":"Palazzo","importance":0.7,"icon":"","visiting_time":0.0,"opening_hours":"ok","opening_days":"ok","rating":0,"photo_url":null,"description":null,"www":"http://vincoliinrete.beniculturali.it/VincoliInRete/vir/bene/dettagliobene386464"},{"place_id":"5141","geometry":{"type":"Point","coordinates":[10.930448526,44.649955109]},"display_name":"Caserma Montecuccoli,from:MIBACT","category":"attractions","type":"Convento","importance":0.7,"icon":"","visiting_time":0.0,"opening_hours":"ok","opening_days":"ok","rating":0,"photo_url":null,"description":null,"www":"\"http://vincoliinrete.beniculturali.it/VincoliInRete/vir/bene/dettagliobene276930,http://vincoliinrete.beniculturali.it/VincoliInRete/vir/bene/dettagliobene321414\""},{"place_id":"5150","geometry":{"type":"Point","coordinates":[10.928157276,44.644064329]},"display_name":"Casa Seghizzi,from:MIBACT","category":"attractions","type":"Casa","importance":0.7,"icon":"","visiting_time":0.0,"opening_hours":"ok","opening_days":"ok","rating":0,"photo_url":null,"description":null,"www":"http://vincoliinrete.beniculturali.it/VincoliInRete/vir/bene/dettagliobene130091"},{"place_id":"5151","geometry":{"type":"Point","coordinates":[10.920444411,44.645650547]},"display_name":"Chiesa di S. Maria delle Grazie,from:MIBACT","category":"attractions","type":"Chiesa","importance":0.7,"icon":"","visiting_time":0.0,"opening_hours":"ok","opening_days":"ok","rating":0,"photo_url":null,"description":null,"www":"http://vincoliinrete.beniculturali.it/VincoliInRete/vir/bene/dettagliobene140829"},{"place_id":"5157","geometry":{"type":"Point","coordinates":[10.93124625,44.647455883]},"display_name":"Scuderie Ducali,from:MIBACT","category":"attractions","type":"Stalla","importance":0.7,"icon":"","visiting_time":0.0,"opening_hours":"ok","opening_days":"ok","rating":0,"photo_url":null,"description":null,"www":"http://vincoliinrete.beniculturali.it/VincoliInRete/vir/bene/dettagliobene321421"},{"place_id":"14328","geometry":{"type":"Point","coordinates":[10.92999477,44.646406034]},"display_name":"Palazzo Sabbatini,from:MIBACT","category":"attractions","type":"Palazzo","importance":0.7,"icon":"","visiting_time":0.0,"opening_hours":"ok","opening_days":"ok","rating":0,"photo_url":null,"description":null,"www":"http://vincoliinrete.beniculturali.it/VincoliInRete/vir/bene/dettagliobene341113"},{"place_id":"14330","geometry":{"type":"Point","coordinates":[10.929615698,44.646030472]},"display_name":"Palazzo di Giustizia,from:MIBACT","category":"attractions","type":"Palazzo","importance":0.7,"icon":"","visiting_time":0.0,"opening_hours":"ok","opening_days":"ok","rating":0,"photo_url":null,"description":null,"www":"http://vincoliinrete.beniculturali.it/VincoliInRete/vir/bene/dettagliobene225034"},{"place_id":"17905","geometry":{"type":"Point","coordinates":[10.839618706,44.68043907]},"display_name":"Santuario della Madonna della Sassola,from:MIBACT","category":"attractions","type":"Chiesa","importance":0.7,"icon":"","visiting_time":0.0,"opening_hours":"ok","opening_days":"ok","rating":0,"photo_url":null,"description":null,"www":"http://vincoliinrete.beniculturali.it/VincoliInRete/vir/bene/dettagliobene347368"},{"place_id":"5159","geometry":{"type":"Point","coordinates":[10.866692635,44.616110006]},"display_name":"Torrazzo di Baggiovara e pertinenze,from:MIBACT","category":"attractions","type":"Torre","importance":0.7,"icon":"","visiting_time":0.0,"opening_hours":"ok","opening_days":"ok","rating":0,"photo_url":null,"description":null,"www":"http://vincoliinrete.beniculturali.it/VincoliInRete/vir/bene/dettagliobene196136"},{"place_id":"5145","geometry":{"type":"Point","coordinates":[10.928468473,44.650172564]},"display_name":"Chiesa detta del Paradiso,from:MIBACT","category":"attractions","type":"Chiesa","importance":0.7,"icon":"","visiting_time":0.0,"opening_hours":"ok","opening_days":"ok","rating":0,"photo_url":null,"description":null,"www":"http://vincoliinrete.beniculturali.it/VincoliInRete/vir/bene/dettagliobene140846"},{"place_id":"5121","geometry":{"type":"Point","coordinates":[10.921275168,44.64583411]},"display_name":"Palazzo Castelvetro,from:MIBACT","category":"attractions","type":"Palazzo","importance":0.7,"icon":"","visiting_time":0.0,"opening_hours":"ok","opening_days":"ok","rating":0,"photo_url":null,"description":null,"www":"http://vincoliinrete.beniculturali.it/VincoliInRete/vir/bene/dettagliobene330240"},{"place_id":"5118","geometry":{"type":"Point","coordinates":[10.921201686,44.645502848]},"display_name":"Casa già Sertorio,from:MIBACT","category":"attractions","type":"Palazzo","importance":0.7,"icon":"","visiting_time":0.0,"opening_hours":"ok","opening_days":"ok","rating":0,"photo_url":null,"description":null,"www":"http://vincoliinrete.beniculturali.it/VincoliInRete/vir/bene/dettagliobene341085"},{"place_id":"5112","geometry":{"type":"Point","coordinates":[10.923585426,44.644533943]},"display_name":"Casa Valle,from:MIBACT","category":"attractions","type":"Palazzo","importance":0.7,"icon":"","visiting_time":0.0,"opening_hours":"ok","opening_days":"ok","rating":0,"photo_url":null,"description":null,"www":"http://vincoliinrete.beniculturali.it/VincoliInRete/vir/bene/dettagliobene330233"},{"place_id":"5109","geometry":{"type":"Point","coordinates":[10.921633368,44.646815558]},"display_name":"Palazzo Ferrari Moreno,from:MIBACT","category":"attractions","type":"Palazzo","importance":0.7,"icon":"","visiting_time":0.0,"opening_hours":"ok","opening_days":"ok","rating":0,"photo_url":null,"description":null,"www":"http://vincoliinrete.beniculturali.it/VincoliInRete/vir/bene/dettagliobene345958"},{"place_id":"5103","geometry":{"type":"Point","coordinates":[10.923347027,44.645386381]},"display_name":"Casa Fogliani,from:MIBACT","category":"attractions","type":"Casa","importance":0.7,"icon":"","visiting_time":0.0,"opening_hours":"ok","opening_days":"ok","rating":0,"photo_url":null,"description":null,"www":"http://vincoliinrete.beniculturali.it/VincoliInRete/vir/bene/dettagliobene378333"},{"place_id":"5065","geometry":{"type":"Point","coordinates":[10.922313587,44.644386102]},"display_name":"Stabile già Chiesa dei SS. Filippo e Giacomo,from:MIBACT","category":"attractions","type":"Chiesa","importance":0.7,"icon":"","visiting_time":0.0,"opening_hours":"ok","opening_days":"ok","rating":0,"photo_url":null,"description":null,"www":"\"http://vincoliinrete.beniculturali.it/VincoliInRete/vir/bene/dettagliobene140763,http://vincoliinrete.beniculturali.it/VincoliInRete/vir/bene/dettagliobene138574\""},{"place_id":"7344","geometry":{"type":"Point","coordinates":[10.784400655,44.653024803]},"display_name":"Palazzo ex Municipale,from:MIBACT","category":"attractions","type":"Palazzo","importance":0.7,"icon":"","visiting_time":0.0,"opening_hours":"ok","opening_days":"ok","rating":0,"photo_url":null,"description":null,"www":"http://vincoliinrete.beniculturali.it/VincoliInRete/vir/bene/dettagliobene339637"},{"place_id":"7342","geometry":{"type":"Point","coordinates":[10.783198031,44.653332965]},"display_name":"Palazzo Sacrati,from:MIBACT","category":"attractions","type":"Palazzo","importance":0.7,"icon":"","visiting_time":0.0,"opening_hours":"ok","opening_days":"ok","rating":0,"photo_url":null,"description":null,"www":"http://vincoliinrete.beniculturali.it/VincoliInRete/vir/bene/dettagliobene389647"},{"place_id":"1913","geometry":{"type":"Point","coordinates":[10.923586568,44.647369887]},"display_name":"Palazzo Rangoni,from:MIBACT","category":"attractions","type":"Palazzo","importance":0.7,"icon":"","visiting_time":0.0,"opening_hours":"ok","opening_days":"ok","rating":0,"photo_url":null,"description":null,"www":"http://vincoliinrete.beniculturali.it/VincoliInRete/vir/bene/dettagliobene341084"},{"place_id":"1806","geometry":{"type":"Point","coordinates":[10.927385362,44.641942439]},"display_name":"Chiesa parrocchiale di San Pietro,from:MIBACT","category":"attractions","type":"Chiesa","importance":1.0,"icon":"","visiting_time":0.0,"opening_hours":"ok","opening_days":"ok","rating":0,"photo_url":null,"description":null,"www":"\"http://vincoliinrete.beniculturali.it/VincoliInRete/vir/bene/dettagliobene140814,http://vincoliinrete.beniculturali.it/VincoliInRete/vir/bene/dettagliobene155418\""},{"place_id":"1760","geometry":{"type":"Point","coordinates":[10.897734762,44.70931886]},"display_name":"Chiesa di San Giorgio Martire e pertinenze,from:MIBACT","category":"attractions","type":"Chiesa","importance":0.7,"icon":"","visiting_time":0.0,"opening_hours":"ok","opening_days":"ok","rating":0,"photo_url":null,"description":null,"www":"\"http://vincoliinrete.beniculturali.it/VincoliInRete/vir/bene/dettagliobene155597,http://vincoliinrete.beniculturali.it/VincoliInRete/vir/bene/dettagliobene140847\""},{"place_id":"1713","geometry":{"type":"Point","coordinates":[10.927110321,44.652057277]},"display_name":"Chiesa di Santa Croce e Convento dei Padri Cappuccini,from:MIBACT","category":"attractions","type":"Chiesa","importance":0.7,"icon":"","visiting_time":0.0,"opening_hours":"ok","opening_days":"ok","rating":0,"photo_url":null,"description":null,"www":"\"http://vincoliinrete.beniculturali.it/VincoliInRete/vir/bene/dettagliobene138586,http://vincoliinrete.beniculturali.it/VincoliInRete/vir/bene/dettagliobene224480\""},{"place_id":"1712","geometry":{"type":"Point","coordinates":[10.92245357,44.643366023]},"display_name":"Chiesa di San Francesco d'Assisi e pertinenze,from:MIBACT","category":"attractions","type":"Chiesa","importance":0.9,"icon":"","visiting_time":0.0,"opening_hours":"ok","opening_days":"ok","rating":0,"photo_url":null,"description":null,"www":"http://vincoliinrete.beniculturali.it/VincoliInRete/vir/bene/dettagliobene140953"},{"place_id":"1704","geometry":{"type":"Point","coordinates":[10.926212004,44.642607863]},"display_name":"Ex Monastero del Corpus Domini e pertinenze,from:MIBACT","category":"attractions","type":"Convento","importance":0.7,"icon":"","visiting_time":0.0,"opening_hours":"ok","opening_days":"ok","rating":0,"photo_url":null,"description":null,"www":"http://vincoliinrete.beniculturali.it/VincoliInRete/vir/bene/dettagliobene225024"},{"place_id":"11955","geometry":{"type":"Point","coordinates":[10.789322049,44.660585677]},"display_name":"\"Gruppo di edifici con annessa Chiesa denominato \"\"Corte Ospitale\"\"\",from:MIBACT","category":"attractions","type":"Ospitale","importance":0.7,"icon":"","visiting_time":0.0,"opening_hours":"ok","opening_days":"ok","rating":0,"photo_url":null,"description":null,"www":"http://vincoliinrete.beniculturali.it/VincoliInRete/vir/bene/dettagliobene194711"},{"place_id":"1602","geometry":{"type":"Point","coordinates":[11.000319287,44.727219039]},"display_name":"Antico mulino,from:MIBACT","category":"attractions","type":"Mulino","importance":0.7,"icon":"","visiting_time":0.0,"opening_hours":"ok","opening_days":"ok","rating":0,"photo_url":null,"description":null,"www":"http://vincoliinrete.beniculturali.it/VincoliInRete/vir/bene/dettagliobene330949"},{"place_id":"14415","geometry":{"type":"Point","coordinates":[10.78223547,44.660574167]},"display_name":"Palazzo Rainusso,from:MIBACT","category":"attractions","type":"Convento","importance":0.7,"icon":"","visiting_time":0.0,"opening_hours":"ok","opening_days":"ok","rating":0,"photo_url":null,"description":null,"www":"http://vincoliinrete.beniculturali.it/VincoliInRete/vir/bene/dettagliobene224298"},{"place_id":"5124","geometry":{"type":"Point","coordinates":[10.926052925,44.643319904]},"display_name":"Monastero di S. Geminiano,from:MIBACT","category":"attractions","type":"Convento","importance":0.7,"icon":"","visiting_time":0.0,"opening_hours":"ok","opening_days":"ok","rating":0,"photo_url":null,"description":null,"www":"http://vincoliinrete.beniculturali.it/VincoliInRete/vir/bene/dettagliobene194944"},{"place_id":"5117","geometry":{"type":"Point","coordinates":[10.947420314,44.637484626]},"display_name":"Chiesa di S. Lazzaro,from:MIBACT","category":"attractions","type":"Chiesa","importance":0.7,"icon":"","visiting_time":0.0,"opening_hours":"ok","opening_days":"ok","rating":0,"photo_url":null,"description":null,"www":"http://vincoliinrete.beniculturali.it/VincoliInRete/vir/bene/dettagliobene140954"},{"place_id":"1766","geometry":{"type":"Point","coordinates":[10.925930709,44.646369631]},"display_name":"Torre Ghirlandina,from:MIBACT","category":"attractions","type":"Campanile","importance":1.0,"icon":"","visiting_time":0.0,"opening_hours":"ok","opening_days":"ok","rating":0,"photo_url":null,"description":null,"www":"http://vincoliinrete.beniculturali.it/VincoliInRete/vir/bene/dettagliobene273271"},{"place_id":"1758","geometry":{"type":"Point","coordinates":[10.925493017,44.646306859]},"display_name":"Duomo,from:MIBACT","category":"attractions","type":"Chiesa","importance":1.0,"icon":"","visiting_time":0.0,"opening_hours":"ok","opening_days":"ok","rating":0,"photo_url":null,"description":null,"www":"\"http://vincoliinrete.beniculturali.it/VincoliInRete/vir/bene/dettagliobene158408,http://vincoliinrete.beniculturali.it/VincoliInRete/vir/bene/dettagliobene268664,http://vincoliinrete.beniculturali.it/VincoliInRete/vir/bene/dettagliobene288107,http://vincoliinrete.beniculturali.it/VincoliInRete/vir/bene/dettagliobene196165,http://vincoliinrete.beniculturali.it/VincoliInRete/vir/bene/dettagliobene288103,http://vincoliinrete.beniculturali.it/VincoliInRete/vir/bene/dettagliobene288100,http://vincoliinrete.beniculturali.it/VincoliInRete/vir/bene/dettagliobene288101\""},{"place_id":"17265","geometry":{"type":"Point","coordinates":[10.925622955,44.645925332]},"display_name":"Piazza Grande,from:MIBACT","category":"attractions","type":"Piazza","importance":0.7,"icon":"","visiting_time":0.0,"opening_hours":"ok","opening_days":"ok","rating":0,"photo_url":null,"description":null,"www":null},{"place_id":"4966","geometry":{"type":"Point","coordinates":[10.845970205,44.575256734]},"display_name":"Castello,from:MIBACT","category":"attractions","type":"Rocca","importance":0.9,"icon":"","visiting_time":0.0,"opening_hours":"ok","opening_days":"ok","rating":0,"photo_url":null,"description":null,"www":"http://vincoliinrete.beniculturali.it/VincoliInRete/vir/bene/dettagliobene279656"},{"place_id":"1468","geometry":{"type":"Point","coordinates":[10.924879289,44.738145473]},"display_name":"Castello dei Pio,from:MIBACT","category":"attractions","type":"Rocca","importance":0.7,"icon":"","visiting_time":0.0,"opening_hours":"ok","opening_days":"ok","rating":0,"photo_url":null,"description":null,"www":"http://vincoliinrete.beniculturali.it/VincoliInRete/vir/bene/dettagliobene207237"},{"place_id":"2055","geometry":{"type":"Point","coordinates":[10.784667917,44.7324376]},"display_name":"Rocca Estense e relative pertinenze,from:MIBACT","category":"attractions","type":"Rocca","importance":0.9,"icon":"","visiting_time":0.0,"opening_hours":"ok","opening_days":"ok","rating":0,"photo_url":null,"description":null,"www":"\"http://vincoliinrete.beniculturali.it/VincoliInRete/vir/bene/dettagliobene279496,http://vincoliinrete.beniculturali.it/VincoliInRete/vir/bene/dettagliobene137491\""}]