[{"place_id":"44,56145597350920","geometry":{"type":"Point","coordinates":[11.033769151,44.561455974]},"display_name":"Comune di San Cesario sul Panaro,from:IBC","category":"attractions","type":"HolderOfArchives","importance":0.0,"icon":"","visiting_time":0.0,"opening_hours":"ok","opening_days":"ok","rating":0,"photo_url":null,"description":null,"www":"http://www.comune.sancesariosulpanaro.mo.it"},{"place_id":"44,47030725267510","geometry":{"type":"Point","coordinates":[11.100213475,44.470307253]},"display_name":"Comune di Monteveglio,from:IBC","category":"attractions","type":"HolderOfArchives","importance":0.0,"icon":"","visiting_time":0.0,"opening_hours":"ok","opening_days":"ok","rating":0,"photo_url":null,"description":null,"www":"http://www.comune.monteveglio.bo.it"},{"place_id":"44,34629641408250","geometry":{"type":"Point","coordinates":[10.993527945,44.346296414]},"display_name":"Comune di Zocca,from:IBC","category":"attractions","type":"HolderOfArchives","importance":0.0,"icon":"","visiting_time":0.0,"opening_hours":"ok","opening_days":"ok","rating":0,"photo_url":null,"description":null,"www":"http://www.comune.zocca.mo.it"},{"place_id":"44,38946880218310","geometry":{"type":"Point","coordinates":[11.073783482,44.389468802]},"display_name":"Comune di Savigno,from:IBC","category":"attractions","type":"HolderOfArchives","importance":0.0,"icon":"","visiting_time":0.0,"opening_hours":"ok","opening_days":"ok","rating":0,"photo_url":null,"description":null,"www":"http://www.comunedisavigno.it"},{"place_id":"44,51366505667370","geometry":{"type":"Point","coordinates":[11.12831088,44.513665057]},"display_name":"Comune di Crespellano,from:IBC","category":"attractions","type":"HolderOfArchives","importance":0.0,"icon":"","visiting_time":0.0,"opening_hours":"ok","opening_days":"ok","rating":0,"photo_url":null,"description":null,"www":"http://www.comune.crespellano.bo.it"},{"place_id":"44,53542200286240","geometry":{"type":"Point","coordinates":[11.02449224,44.535422003]},"display_name":"Comune di Spilamberto,from:IBC","category":"attractions","type":"HolderOfArchives","importance":0.0,"icon":"","visiting_time":0.0,"opening_hours":"ok","opening_days":"ok","rating":0,"photo_url":null,"description":null,"www":"http://www.comune.spilamberto.mo.it"},{"place_id":"44,44077419437420","geometry":{"type":"Point","coordinates":[11.065402026,44.440774194]},"display_name":"Comune di Castello di Serravalle,from:IBC","category":"attractions","type":"HolderOfArchives","importance":0.0,"icon":"","visiting_time":0.0,"opening_hours":"ok","opening_days":"ok","rating":0,"photo_url":null,"description":null,"www":"http://www.comune.castellodiserravalle.bo.it"},{"place_id":"44,47987980279400","geometry":{"type":"Point","coordinates":[11.006582126,44.479879803]},"display_name":"Biblioteca Comunale Francesco Selmi di Vignola,from:IBC","category":"attractions","type":"HolderOfArchives","importance":0.0,"icon":"","visiting_time":0.0,"opening_hours":"ok","opening_days":"ok","rating":0,"photo_url":null,"description":null,"www":"http://www.comune.vignola.mo.it/uffici/biblioteca__auris__francesco_selmi_e_archivio_storico/index.htm"},{"place_id":"44,47987980279400","geometry":{"type":"Point","coordinates":[11.006582126,44.479879803]},"display_name":"Biblioteca Comunale Francesco Selmi di Vignola,from:IBC","category":"attractions","type":"HolderOfArchives","importance":0.0,"icon":"","visiting_time":0.0,"opening_hours":"ok","opening_days":"ok","rating":0,"photo_url":null,"description":null,"www":"http://www.auris.it/"},{"place_id":"44,48113279283430","geometry":{"type":"Point","coordinates":[11.032078807,44.481132793]},"display_name":"Comune di Savignano sul Panaro,from:IBC","category":"attractions","type":"HolderOfArchives","importance":0.0,"icon":"","visiting_time":0.0,"opening_hours":"ok","opening_days":"ok","rating":0,"photo_url":null,"description":null,"www":"http://www.comune.savignano-sul-panaro.mo.it"},{"place_id":"44,50474072072750","geometry":{"type":"Point","coordinates":[11.083066381,44.504740721]},"display_name":"Comune di Bazzano,from:IBC","category":"attractions","type":"HolderOfArchives","importance":0.0,"icon":"","visiting_time":0.0,"opening_hours":"ok","opening_days":"ok","rating":0,"photo_url":null,"description":null,"www":"http://www.comune.bazzano.bo.it"},{"place_id":"44,34629641408250","geometry":{"type":"Point","coordinates":[10.993527945,44.346296414]},"display_name":"Biblioteca comunale Zosimo Marinelli,from:IBC","category":"attractions","type":"Library","importance":0.0,"icon":"","visiting_time":0.0,"opening_hours":"ok","opening_days":"ok","rating":0,"photo_url":null,"description":null,"www":"http://www.comune.zocca.mo.it/uffici/pag125.aspx"},{"place_id":"44,47987980279400","geometry":{"type":"Point","coordinates":[11.006582126,44.479879803]},"display_name":"Biblioteca comunale Francesco Selmi,from:IBC","category":"attractions","type":"Library","importance":0.0,"icon":"","visiting_time":0.0,"opening_hours":"ok","opening_days":"ok","rating":0,"photo_url":null,"description":null,"www":"http://www.comune.vignola.mo.it/uffici/biblioteca__auris__francesco_selmi_e_archivio_storico/index.htm"},{"place_id":"44,47987980279400","geometry":{"type":"Point","coordinates":[11.006582126,44.479879803]},"display_name":"Biblioteca comunale Francesco Selmi,from:IBC","category":"attractions","type":"Library","importance":0.0,"icon":"","visiting_time":0.0,"opening_hours":"ok","opening_days":"ok","rating":0,"photo_url":null,"description":null,"www":"http://www.auris.it"},{"place_id":"44,53257095763160","geometry":{"type":"Point","coordinates":[11.024450744,44.532570958]},"display_name":"Biblioteca comunale Peppino Impastato,from:IBC","category":"attractions","type":"Library","importance":0.0,"icon":"","visiting_time":0.0,"opening_hours":"ok","opening_days":"ok","rating":0,"photo_url":null,"description":null,"www":"http://www.cedoc.mo.it/biblioteca_spilamberto.php"},{"place_id":"44,53257095763160","geometry":{"type":"Point","coordinates":[11.024450744,44.532570958]},"display_name":"Biblioteca comunale Peppino Impastato,from:IBC","category":"attractions","type":"Library","importance":0.0,"icon":"","visiting_time":0.0,"opening_hours":"ok","opening_days":"ok","rating":0,"photo_url":null,"description":null,"www":"http://www.comune.spilamberto.mo.it/comune/uffici/biblioteca/index.htm"},{"place_id":"44,480117","geometry":{"type":"Point","coordinates":[11.033497,44.480117]},"display_name":"Biblioteca comunale,from:IBC","category":"attractions","type":"Library","importance":0.0,"icon":"","visiting_time":0.0,"opening_hours":"ok","opening_days":"ok","rating":0,"photo_url":null,"description":null,"www":"http://www.savignano.it/manifestazioni__eventi/biblioteca/index.htm"},{"place_id":"44,51458425033800","geometry":{"type":"Point","coordinates":[11.128901228,44.51458425]},"display_name":"Biblioteca comunale,from:IBC","category":"attractions","type":"Library","importance":0.0,"icon":"","visiting_time":0.0,"opening_hours":"ok","opening_days":"ok","rating":0,"photo_url":null,"description":null,"www":"http://dati.emilia-romagna.it/id/ibc/condition/IT-BO0187_orari"},{"place_id":"44,47007578591870","geometry":{"type":"Point","coordinates":[11.10063966,44.470075786]},"display_name":"Biblioteca comunale Mauro Zagnoni,from:IBC","category":"attractions","type":"Library","importance":0.0,"icon":"","visiting_time":0.0,"opening_hours":"ok","opening_days":"ok","rating":0,"photo_url":null,"description":null,"www":"http://www.comune.monteveglio.bo.it"},{"place_id":"44,44071080947160","geometry":{"type":"Point","coordinates":[11.065332688,44.440710809]},"display_name":"Biblioteca comunale,from:IBC","category":"attractions","type":"Library","importance":0.0,"icon":"","visiting_time":0.0,"opening_hours":"ok","opening_days":"ok","rating":0,"photo_url":null,"description":null,"www":"http://www.comune.castellodiserravalle.bo.it/index.php?option=com_content&view=category&layout=blog&id=135&Itemid=396"},{"place_id":"44,50324174472330","geometry":{"type":"Point","coordinates":[11.083505315,44.503241745]},"display_name":"Mediateca intercomunale di Bazzano,from:IBC","category":"attractions","type":"Library","importance":0.0,"icon":"","visiting_time":0.0,"opening_hours":"ok","opening_days":"ok","rating":0,"photo_url":null,"description":null,"www":"http://www.roccadeibentivoglio.it/index.php/mediateca-intercomunale"},{"place_id":"44,38872689758050","geometry":{"type":"Point","coordinates":[11.073639522,44.388726898]},"display_name":"Biblioteca comunale,from:IBC","category":"attractions","type":"Library","importance":0.0,"icon":"","visiting_time":0.0,"opening_hours":"ok","opening_days":"ok","rating":0,"photo_url":null,"description":null,"www":"http://www.comune.savigno.bo.it/index.php?option=com_content&view=category&id=135%3Abiblioteca&Itemid=53"},{"place_id":"44,56085606302810","geometry":{"type":"Point","coordinates":[11.035118588,44.560856063]},"display_name":"Biblioteca comunale,from:IBC","category":"attractions","type":"Library","importance":0.0,"icon":"","visiting_time":0.0,"opening_hours":"ok","opening_days":"ok","rating":0,"photo_url":null,"description":null,"www":"http://dati.emilia-romagna.it/id/ibc/condition/IT-MO0113_orari"},{"place_id":"44,47873211200620","geometry":{"type":"Point","coordinates":[11.008594851,44.478732112]},"display_name":"Museo Civico,from:IBC","category":"attractions","type":"Museum","importance":0.0,"icon":"","visiting_time":0.0,"opening_hours":"ok","opening_days":"ok","rating":0,"photo_url":null,"description":null,"www":"http://webtest.allegri.unimo.it/78228/"},{"place_id":"44,53496236965210","geometry":{"type":"Point","coordinates":[11.02331751,44.53496237]},"display_name":"Museo del Balsamico Tradizionale,from:IBC","category":"attractions","type":"Museum","importance":0.0,"icon":"","visiting_time":0.0,"opening_hours":"ok","opening_days":"ok","rating":0,"photo_url":null,"description":null,"www":"http://www.museodelbalsamicotradizionale.org"},{"place_id":"44,33990695632990","geometry":{"type":"Point","coordinates":[11.016326097,44.339906956]},"display_name":"Museo del Castagno,from:IBC","category":"attractions","type":"Museum","importance":0.0,"icon":"","visiting_time":0.0,"opening_hours":"ok","opening_days":"ok","rating":0,"photo_url":null,"description":null,"www":"http://museodelcastagno.promappennino.it"},{"place_id":"Una Roverella Monte San Pietro S. Lorenzo in Collina 79","geometry":{"type":"Point","coordinates":[11.16193655,44.46707934]},"display_name":"Una Roverella Monte San Pietro S. Lorenzo in Collina,from:IBC","category":"tree","type":"tree","importance":0.0,"icon":"","visiting_time":0.0,"opening_hours":"ok","opening_days":"ok","rating":0,"photo_url":"http://online.ibc.regione.emilia-romagna.it/mtrees/image/119.jpg","description":null,"www":null},{"place_id":"Una Farnia Soliera Via Serrasina, 114 84","geometry":{"type":"Point","coordinates":[11.02422667,44.32354776]},"display_name":"Una Farnia Soliera Via Serrasina, 114,from:IBC","category":"tree","type":"tree","importance":0.0,"icon":"","visiting_time":0.0,"opening_hours":"ok","opening_days":"ok","rating":0,"photo_url":"http://online.ibc.regione.emilia-romagna.it/mtrees/image/6648.12.06.pdf","description":null,"www":null},{"place_id":"Una Quercia San Cesario sul Panaro Via Pioppe, 177 93","geometry":{"type":"Point","coordinates":[11.03120068,44.55415667]},"display_name":"Una Quercia San Cesario sul Panaro Via Pioppe, 177,from:IBC","category":"tree","type":"tree","importance":0.0,"icon":"","visiting_time":0.0,"opening_hours":"ok","opening_days":"ok","rating":0,"photo_url":"http://online.ibc.regione.emilia-romagna.it/mtrees/image/564.jpg","description":null,"www":null},{"place_id":"Una Quercia Monte San Pietro Ca' dei Cicchetti 141","geometry":{"type":"Point","coordinates":[11.15663511,44.38387075]},"display_name":"Una Quercia Monte San Pietro Ca' dei Cicchetti,from:IBC","category":"tree","type":"tree","importance":0.0,"icon":"","visiting_time":0.0,"opening_hours":"ok","opening_days":"ok","rating":0,"photo_url":"http://online.ibc.regione.emilia-romagna.it/mtrees/image/105.jpg","description":null,"www":null},{"place_id":"Una Roverella Savignano sul Panaro Via Basilicata, 8 155","geometry":{"type":"Point","coordinates":[11.0504745,44.47235047]},"display_name":"Una Roverella Savignano sul Panaro Via Basilicata, 8,from:IBC","category":"tree","type":"tree","importance":0.0,"icon":"","visiting_time":0.0,"opening_hours":"ok","opening_days":"ok","rating":0,"photo_url":"http://online.ibc.regione.emilia-romagna.it/mtrees/image/626.jpg","description":null,"www":null},{"place_id":"Una Quercia San Cesario sul Panaro Via Barozzi 168","geometry":{"type":"Point","coordinates":[11.05042819,44.56389561]},"display_name":"Una Quercia San Cesario sul Panaro Via Barozzi,from:IBC","category":"tree","type":"tree","importance":0.0,"icon":"","visiting_time":0.0,"opening_hours":"ok","opening_days":"ok","rating":0,"photo_url":"http://online.ibc.regione.emilia-romagna.it/mtrees/image/6634.12.06.pdf","description":null,"www":null},{"place_id":"Una Quercia Savignano sul Panaro Via Castello, 22 195","geometry":{"type":"Point","coordinates":[11.04171852,44.48480454]},"display_name":"Una Quercia Savignano sul Panaro Via Castello, 22,from:IBC","category":"tree","type":"tree","importance":0.0,"icon":"","visiting_time":0.0,"opening_hours":"ok","opening_days":"ok","rating":0,"photo_url":"http://online.ibc.regione.emilia-romagna.it/mtrees/image/7648.jpg","description":null,"www":null},{"place_id":"Una Quercia Monte San Pietro Bivio Via Rasilio 227","geometry":{"type":"Point","coordinates":[11.15940462,44.38100955]},"display_name":"Una Quercia Monte San Pietro Bivio Via Rasilio,from:IBC","category":"tree","type":"tree","importance":0.0,"icon":"","visiting_time":0.0,"opening_hours":"ok","opening_days":"ok","rating":0,"photo_url":"http://online.ibc.regione.emilia-romagna.it/mtrees/image/104.jpg","description":null,"www":null},{"place_id":"Una Roverella Savignano sul Panaro Via Mostino 256","geometry":{"type":"Point","coordinates":[11.00954442,44.45164343]},"display_name":"Una Roverella Savignano sul Panaro Via Mostino,from:IBC","category":"tree","type":"tree","importance":0.0,"icon":"","visiting_time":0.0,"opening_hours":"ok","opening_days":"ok","rating":0,"photo_url":"http://online.ibc.regione.emilia-romagna.it/mtrees/image/625.jpg","description":null,"www":null},{"place_id":"Una Quercia Monte San Pietro Ca' dei Cicchetti 271","geometry":{"type":"Point","coordinates":[11.15556253,44.38406207]},"display_name":"Una Quercia Monte San Pietro Ca' dei Cicchetti,from:IBC","category":"tree","type":"tree","importance":0.0,"icon":"","visiting_time":0.0,"opening_hours":"ok","opening_days":"ok","rating":0,"photo_url":"http://online.ibc.regione.emilia-romagna.it/mtrees/image/106.jpg","description":null,"www":null},{"place_id":"Una Roverella Savignano sul Panaro Via Monticelli, 8 294","geometry":{"type":"Point","coordinates":[11.05318598,44.49086456]},"display_name":"Una Roverella Savignano sul Panaro Via Monticelli, 8,from:IBC","category":"tree","type":"tree","importance":0.0,"icon":"","visiting_time":0.0,"opening_hours":"ok","opening_days":"ok","rating":0,"photo_url":"http://online.ibc.regione.emilia-romagna.it/mtrees/image/624.jpg","description":null,"www":null},{"place_id":"Una Farnia San Cesario sul Panaro Via Verdi 354","geometry":{"type":"Point","coordinates":[11.03758379,44.56641204]},"display_name":"Una Farnia San Cesario sul Panaro Via Verdi,from:IBC","category":"tree","type":"tree","importance":0.0,"icon":"","visiting_time":0.0,"opening_hours":"ok","opening_days":"ok","rating":0,"photo_url":"http://online.ibc.regione.emilia-romagna.it/mtrees/image/562.jpg","description":null,"www":null},{"place_id":"Un Olmo San Cesario sul Panaro Via Martiri Artioli, 1864 404","geometry":{"type":"Point","coordinates":[11.05280238,44.53473967]},"display_name":"Un Olmo San Cesario sul Panaro Via Martiri Artioli, 1864,from:IBC","category":"tree","type":"tree","importance":0.0,"icon":"","visiting_time":0.0,"opening_hours":"ok","opening_days":"ok","rating":0,"photo_url":"http://online.ibc.regione.emilia-romagna.it/mtrees/image/6688.12.06.pdf","description":null,"www":null},{"place_id":"Una Farnia San Cesario sul Panaro Via Imperiale, 1 410","geometry":{"type":"Point","coordinates":[11.05072087,44.54499464]},"display_name":"Una Farnia San Cesario sul Panaro Via Imperiale, 1,from:IBC","category":"tree","type":"tree","importance":0.0,"icon":"","visiting_time":0.0,"opening_hours":"ok","opening_days":"ok","rating":0,"photo_url":"http://online.ibc.regione.emilia-romagna.it/mtrees/image/561.jpg","description":null,"www":null},{"place_id":"Una Roverella Savignano sul Panaro Via Mombrina, 17 449","geometry":{"type":"Point","coordinates":[11.05192215,44.48638612]},"display_name":"Una Roverella Savignano sul Panaro Via Mombrina, 17,from:IBC","category":"tree","type":"tree","importance":0.0,"icon":"","visiting_time":0.0,"opening_hours":"ok","opening_days":"ok","rating":0,"photo_url":"http://online.ibc.regione.emilia-romagna.it/mtrees/image/627.jpg","description":null,"www":null},{"place_id":"Un Acero montano Zocca Montetortore Via S. Rocco 475","geometry":{"type":"Point","coordinates":[11.02705716,44.32198508]},"display_name":"Un Acero montano Zocca Montetortore Via S. Rocco,from:IBC","category":"tree","type":"tree","importance":0.0,"icon":"","visiting_time":0.0,"opening_hours":"ok","opening_days":"ok","rating":0,"photo_url":"http://online.ibc.regione.emilia-romagna.it/mtrees/image/603.jpg","description":null,"www":null},{"place_id":"Una Quercia Monte San Pietro Ca' del Maestro 482","geometry":{"type":"Point","coordinates":[11.15512814,44.38761729]},"display_name":"Una Quercia Monte San Pietro Ca' del Maestro,from:IBC","category":"tree","type":"tree","importance":0.0,"icon":"","visiting_time":0.0,"opening_hours":"ok","opening_days":"ok","rating":0,"photo_url":"http://online.ibc.regione.emilia-romagna.it/mtrees/image/107.jpg","description":null,"www":null},{"place_id":"Due Roverelle Savignano sul Panaro Via Friuli, 400 494","geometry":{"type":"Point","coordinates":[11.03118389,44.46859914]},"display_name":"Due Roverelle Savignano sul Panaro Via Friuli, 400,from:IBC","category":"tree","type":"tree","importance":0.0,"icon":"","visiting_time":0.0,"opening_hours":"ok","opening_days":"ok","rating":0,"photo_url":"http://online.ibc.regione.emilia-romagna.it/mtrees/image/6543.jpg","description":null,"www":null},{"place_id":"Una Roverella Savignano sul Panaro Via Mombrina 538","geometry":{"type":"Point","coordinates":[11.04348927,44.48689742]},"display_name":"Una Roverella Savignano sul Panaro Via Mombrina,from:IBC","category":"tree","type":"tree","importance":0.0,"icon":"","visiting_time":0.0,"opening_hours":"ok","opening_days":"ok","rating":0,"photo_url":"http://online.ibc.regione.emilia-romagna.it/mtrees/image/618.jpg","description":null,"www":null},{"place_id":"Una Farnia San Cesario sul Panaro Via Vittorio Veneto, 2 590","geometry":{"type":"Point","coordinates":[11.03518185,44.55639937]},"display_name":"Una Farnia San Cesario sul Panaro Via Vittorio Veneto, 2,from:IBC","category":"tree","type":"tree","importance":0.0,"icon":"","visiting_time":0.0,"opening_hours":"ok","opening_days":"ok","rating":0,"photo_url":"http://online.ibc.regione.emilia-romagna.it/mtrees/image/563.jpg","description":null,"www":null},{"place_id":"Una Quercia Crespellano Via S. Savino, 34 620","geometry":{"type":"Point","coordinates":[11.11749509,44.50316604]},"display_name":"Una Quercia Crespellano Via S. Savino, 34,from:IBC","category":"tree","type":"tree","importance":0.0,"icon":"","visiting_time":0.0,"opening_hours":"ok","opening_days":"ok","rating":0,"photo_url":"http://online.ibc.regione.emilia-romagna.it/mtrees/image/57.jpg","description":null,"www":null},{"place_id":"Una Quercia Monte San Pietro La Guardia 627","geometry":{"type":"Point","coordinates":[11.16060751,44.4037993]},"display_name":"Una Quercia Monte San Pietro La Guardia,from:IBC","category":"tree","type":"tree","importance":0.0,"icon":"","visiting_time":0.0,"opening_hours":"ok","opening_days":"ok","rating":0,"photo_url":"http://online.ibc.regione.emilia-romagna.it/mtrees/image/7909.jpg","description":null,"www":null},{"place_id":"Un Platano Castelfranco Emilia Piumazzo Via Fossa Vecchia, 3 646","geometry":{"type":"Point","coordinates":[11.09912392,44.53838044]},"display_name":"Un Platano Castelfranco Emilia Piumazzo Via Fossa Vecchia, 3,from:IBC","category":"tree","type":"tree","importance":0.0,"icon":"","visiting_time":0.0,"opening_hours":"ok","opening_days":"ok","rating":0,"photo_url":"http://online.ibc.regione.emilia-romagna.it/mtrees/image/495.jpg","description":null,"www":null},{"place_id":"Una Quercia Savignano sul Panaro Via Mostino 651","geometry":{"type":"Point","coordinates":[11.01319079,44.44730308]},"display_name":"Una Quercia Savignano sul Panaro Via Mostino,from:IBC","category":"tree","type":"tree","importance":0.0,"icon":"","visiting_time":0.0,"opening_hours":"ok","opening_days":"ok","rating":0,"photo_url":"http://online.ibc.regione.emilia-romagna.it/mtrees/image/628.jpg","description":null,"www":null},{"place_id":"Due Farnie e una Roverella Savignano sul Panaro Via Claudia, 2228 659","geometry":{"type":"Point","coordinates":[11.04368625,44.50297203]},"display_name":"Due Farnie e una Roverella Savignano sul Panaro Via Claudia, 2228,from:IBC","category":"tree","type":"tree","importance":0.0,"icon":"","visiting_time":0.0,"opening_hours":"ok","opening_days":"ok","rating":0,"photo_url":null,"description":null,"www":null},{"place_id":"Una Quercia Savignano sul Panaro Via Basilicata, 8 665","geometry":{"type":"Point","coordinates":[11.04864032,44.4716722]},"display_name":"Una Quercia Savignano sul Panaro Via Basilicata, 8,from:IBC","category":"tree","type":"tree","importance":0.0,"icon":"","visiting_time":0.0,"opening_hours":"ok","opening_days":"ok","rating":0,"photo_url":"http://online.ibc.regione.emilia-romagna.it/mtrees/image/619.jpg","description":null,"www":null},{"place_id":"Due Roverelle Savignano sul Panaro Via Friuli, 400 678","geometry":{"type":"Point","coordinates":[11.03101775,44.46852108]},"display_name":"Due Roverelle Savignano sul Panaro Via Friuli, 400,from:IBC","category":"tree","type":"tree","importance":0.0,"icon":"","visiting_time":0.0,"opening_hours":"ok","opening_days":"ok","rating":0,"photo_url":"http://online.ibc.regione.emilia-romagna.it/mtrees/image/6541.jpg","description":null,"www":null},{"place_id":"Una Quercia Savignano sul Panaro Via Mombrina, 19 736","geometry":{"type":"Point","coordinates":[11.05040324,44.49041043]},"display_name":"Una Quercia Savignano sul Panaro Via Mombrina, 19,from:IBC","category":"tree","type":"tree","importance":0.0,"icon":"","visiting_time":0.0,"opening_hours":"ok","opening_days":"ok","rating":0,"photo_url":"http://online.ibc.regione.emilia-romagna.it/mtrees/image/7867.jpg","description":null,"www":null},{"place_id":"Castagno Vergato Tolè Via Basabue 793","geometry":{"type":"Point","coordinates":[11.04660797,44.32885648]},"display_name":"Castagno Vergato Tolè Via Basabue,from:IBC","category":"tree","type":"tree","importance":0.0,"icon":"","visiting_time":0.0,"opening_hours":"ok","opening_days":"ok","rating":0,"photo_url":"http://online.ibc.regione.emilia-romagna.it/mtrees/image/154.jpg","description":null,"www":null},{"place_id":"Una Quercia Monte San Pietro Molinello 805","geometry":{"type":"Point","coordinates":[11.15861369,44.39397923]},"display_name":"Una Quercia Monte San Pietro Molinello,from:IBC","category":"tree","type":"tree","importance":0.0,"icon":"","visiting_time":0.0,"opening_hours":"ok","opening_days":"ok","rating":0,"photo_url":"http://online.ibc.regione.emilia-romagna.it/mtrees/image/116.jpg","description":null,"www":null},{"place_id":"Un Platano Monte San Pietro Via Landa, 55 (Villa Peli) 815","geometry":{"type":"Point","coordinates":[11.17760614,44.46418863]},"display_name":"Un Platano Monte San Pietro Via Landa, 55 (Villa Peli),from:IBC","category":"tree","type":"tree","importance":0.0,"icon":"","visiting_time":0.0,"opening_hours":"ok","opening_days":"ok","rating":0,"photo_url":"http://online.ibc.regione.emilia-romagna.it/mtrees/image/120.jpg","description":null,"www":null},{"place_id":"Una Quercia Zocca Montetortore Via S. Rocco, 990 826","geometry":{"type":"Point","coordinates":[11.02422667,44.32354776]},"display_name":"Una Quercia Zocca Montetortore Via S. Rocco, 990,from:IBC","category":"tree","type":"tree","importance":0.0,"icon":"","visiting_time":0.0,"opening_hours":"ok","opening_days":"ok","rating":0,"photo_url":"http://online.ibc.regione.emilia-romagna.it/mtrees/image/605.jpg","description":null,"www":null},{"place_id":"Due Farnie e una Roverella Savignano sul Panaro Via Claudia, 2228 834","geometry":{"type":"Point","coordinates":[11.04357231,44.49395375]},"display_name":"Due Farnie e una Roverella Savignano sul Panaro Via Claudia, 2228,from:IBC","category":"tree","type":"tree","importance":0.0,"icon":"","visiting_time":0.0,"opening_hours":"ok","opening_days":"ok","rating":0,"photo_url":null,"description":null,"www":null},{"place_id":"Due Querce Monte San Pietro Faeda 906","geometry":{"type":"Point","coordinates":[11.14971238,44.39674006]},"display_name":"Due Querce Monte San Pietro Faeda,from:IBC","category":"tree","type":"tree","importance":0.0,"icon":"","visiting_time":0.0,"opening_hours":"ok","opening_days":"ok","rating":0,"photo_url":"http://online.ibc.regione.emilia-romagna.it/mtrees/image/8011.jpg","description":null,"www":null},{"place_id":"Due Querce Monte San Pietro Faeda 929","geometry":{"type":"Point","coordinates":[11.14973254,44.39660464]},"display_name":"Due Querce Monte San Pietro Faeda,from:IBC","category":"tree","type":"tree","importance":0.0,"icon":"","visiting_time":0.0,"opening_hours":"ok","opening_days":"ok","rating":0,"photo_url":"http://online.ibc.regione.emilia-romagna.it/mtrees/image/8009.jpg","description":null,"www":null},{"place_id":"Una Quercia  Monte San Pietro - La Guarda  978","geometry":{"type":"Point","coordinates":[11.16048202,44.40380167]},"display_name":"Una Quercia  Monte San Pietro - La Guarda ,from:IBC","category":"tree","type":"tree","importance":0.0,"icon":"","visiting_time":0.0,"opening_hours":"ok","opening_days":"ok","rating":0,"photo_url":"http://online.ibc.regione.emilia-romagna.it/mtrees/image/114.jpg","description":null,"www":null},{"place_id":"Una Cerro-sughera Guiglia Monteorsello Guastadino 1001","geometry":{"type":"Point","coordinates":[10.99252948,44.40512891]},"display_name":"Una Cerro-sughera Guiglia Monteorsello Guastadino,from:IBC","category":"tree","type":"tree","importance":0.0,"icon":"","visiting_time":0.0,"opening_hours":"ok","opening_days":"ok","rating":0,"photo_url":"http://online.ibc.regione.emilia-romagna.it/mtrees/image/591.jpg","description":null,"www":null},{"place_id":"Una Quercia San Cesario sul Panaro Via per Spilamberto, 217 1026","geometry":{"type":"Point","coordinates":[11.03630598,44.55397574]},"display_name":"Una Quercia San Cesario sul Panaro Via per Spilamberto, 217,from:IBC","category":"tree","type":"tree","importance":0.0,"icon":"","visiting_time":0.0,"opening_hours":"ok","opening_days":"ok","rating":0,"photo_url":"http://online.ibc.regione.emilia-romagna.it/mtrees/image/565.jpg","description":null,"www":null},{"place_id":"Una Quercia Savignano sul Panaro Via Friuli, 80 1029","geometry":{"type":"Point","coordinates":[11.02568962,44.46785952]},"display_name":"Una Quercia Savignano sul Panaro Via Friuli, 80,from:IBC","category":"tree","type":"tree","importance":0.0,"icon":"","visiting_time":0.0,"opening_hours":"ok","opening_days":"ok","rating":0,"photo_url":"http://online.ibc.regione.emilia-romagna.it/mtrees/image/630.jpg","description":null,"www":null},{"place_id":"Una Cerro-sughera Zocca Montetortore Via Mavore 1034","geometry":{"type":"Point","coordinates":[11.01162917,44.33655427]},"display_name":"Una Cerro-sughera Zocca Montetortore Via Mavore,from:IBC","category":"tree","type":"tree","importance":0.0,"icon":"","visiting_time":0.0,"opening_hours":"ok","opening_days":"ok","rating":0,"photo_url":"http://online.ibc.regione.emilia-romagna.it/mtrees/image/607.jpg","description":null,"www":null},{"place_id":"Un Olivo Monte San Pietro La Guarda 1043","geometry":{"type":"Point","coordinates":[11.16203976,44.40381717]},"display_name":"Un Olivo Monte San Pietro La Guarda,from:IBC","category":"tree","type":"tree","importance":0.0,"icon":"","visiting_time":0.0,"opening_hours":"ok","opening_days":"ok","rating":0,"photo_url":"http://online.ibc.regione.emilia-romagna.it/mtrees/image/115.jpg","description":null,"www":null},{"place_id":"Una Quercia Monte San Pietro Faeda 1045","geometry":{"type":"Point","coordinates":[11.14898954,44.39723082]},"display_name":"Una Quercia Monte San Pietro Faeda,from:IBC","category":"tree","type":"tree","importance":0.0,"icon":"","visiting_time":0.0,"opening_hours":"ok","opening_days":"ok","rating":0,"photo_url":"http://online.ibc.regione.emilia-romagna.it/mtrees/image/109.jpg","description":null,"www":null}]