[{"place_id":"10148","geometry":{"type":"Point","coordinates":[9.412158537,44.967036786]},"display_name":"Chiesa e Borgo di Corano e Piazza della Chiesa di Corano,from:MIBACT","category":"attractions","type":"Chiesa","importance":0.7,"icon":"","visiting_time":0.0,"opening_hours":"ok","opening_days":"ok","rating":0,"photo_url":null,"description":null,"www":"http://vincoliinrete.beniculturali.it/VincoliInRete/vir/bene/dettagliobene197762"},{"place_id":"10601","geometry":{"type":"Point","coordinates":[9.39571641,44.949791512]},"display_name":"Chiesa Parrocchiale di S. Maria Assunta in Cielo,from:MIBACT","category":"attractions","type":"Chiesa","importance":0.9,"icon":"","visiting_time":0.0,"opening_hours":"ok","opening_days":"ok","rating":0,"photo_url":null,"description":null,"www":"http://vincoliinrete.beniculturali.it/VincoliInRete/vir/bene/dettagliobene140457"},{"place_id":"17716","geometry":{"type":"Point","coordinates":[9.329634311,44.904131609]},"display_name":"Chiese Parrocchiale di San Pietro,from:MIBACT","category":"attractions","type":"Chiesa","importance":0.4,"icon":"","visiting_time":0.0,"opening_hours":"ok","opening_days":"ok","rating":0,"photo_url":null,"description":null,"www":null},{"place_id":"10603","geometry":{"type":"Point","coordinates":[9.405462411,44.94833403]},"display_name":"Antico Castello detto anche Rocca,from:MIBACT","category":"attractions","type":"Rocca","importance":0.7,"icon":"","visiting_time":0.0,"opening_hours":"ok","opening_days":"ok","rating":0,"photo_url":null,"description":null,"www":"http://vincoliinrete.beniculturali.it/VincoliInRete/vir/bene/dettagliobene279598"},{"place_id":"10166","geometry":{"type":"Point","coordinates":[9.393732646,44.913851433]},"display_name":"Rocca d'Olgisio,from:MIBACT","category":"attractions","type":"Rocca","importance":0.9,"icon":"","visiting_time":0.0,"opening_hours":"ok","opening_days":"ok","rating":0,"photo_url":null,"description":null,"www":"http://vincoliinrete.beniculturali.it/VincoliInRete/vir/bene/dettagliobene279612"},{"place_id":"10669","geometry":{"type":"Point","coordinates":[9.404300993,44.947863345]},"display_name":"Chiesa Parrocchiale di S. Maurizio,from:MIBACT","category":"attractions","type":"Chiesa","importance":0.7,"icon":"","visiting_time":0.0,"opening_hours":"ok","opening_days":"ok","rating":0,"photo_url":null,"description":null,"www":"http://vincoliinrete.beniculturali.it/VincoliInRete/vir/bene/dettagliobene216897"},{"place_id":"10241","geometry":{"type":"Point","coordinates":[9.328996877,44.903807988]},"display_name":"Pusterla dell'ex Castello,from:MIBACT","category":"attractions","type":"Rocca","importance":0.7,"icon":"","visiting_time":0.0,"opening_hours":"ok","opening_days":"ok","rating":0,"photo_url":null,"description":null,"www":"http://vincoliinrete.beniculturali.it/VincoliInRete/vir/bene/dettagliobene199907"}]