[{"place_id":"celi12545","geometry":{"type":"Point","coordinates":[11.2893735,44.7279212]},"display_name":"Gelateria Leone & Katia","category":"eating","type":"celiachia","importance":0.1,"icon":"","visiting_time":0.0,"opening_hours":"ok","opening_days":"ok","rating":0,"photo_url":null,"description":"Senza Glutine","www":"null"},{"place_id":"celi321","geometry":{"type":"Point","coordinates":[11.273828,44.769071]},"display_name":"La Pergola","category":"eating","type":"celiachia","importance":0.1,"icon":"","visiting_time":0.0,"opening_hours":"ok","opening_days":"ok","rating":0,"photo_url":null,"description":"Glutine","www":"www.pizzeriapergola.it"},{"place_id":"celi3970","geometry":{"type":"Point","coordinates":[11.2981291,44.7150545]},"display_name":"Minelli","category":"eating","type":"celiachia","importance":0.1,"icon":"","visiting_time":0.0,"opening_hours":"ok","opening_days":"ok","rating":0,"photo_url":null,"description":"Glutine","www":"www.ristorantepizzeriaminelli.it"},{"place_id":"celi8207","geometry":{"type":"Point","coordinates":[11.29015,44.832006]},"display_name":"Pasta per Celia","category":"eating","type":"celiachia","importance":0.1,"icon":"","visiting_time":0.0,"opening_hours":"ok","opening_days":"ok","rating":0,"photo_url":null,"description":"Glutine","www":"null"},{"place_id":"celi13432","geometry":{"type":"Point","coordinates":[11.2914791,44.7618101]},"display_name":"Pizzeria Condor","category":"eating","type":"celiachia","importance":0.1,"icon":"","visiting_time":0.0,"opening_hours":"ok","opening_days":"ok","rating":0,"photo_url":null,"description":"Glutine","www":"www.pizzeriacondor.com"}]