[{"place_id":"44,64711020380170","geometry":{"type":"Point","coordinates":[11.53454369,44.647110204]},"display_name":"Comune di Baricella,from:IBC","category":"attractions","type":"HolderOfArchives","importance":0.0,"icon":"","visiting_time":0.0,"opening_hours":"ok","opening_days":"ok","rating":0,"photo_url":null,"description":null,"www":"http://www.comune.baricella.bo.it"},{"place_id":"44,621394","geometry":{"type":"Point","coordinates":[11.4858813,44.621394]},"display_name":"Comune di Minerbio,from:IBC","category":"attractions","type":"HolderOfArchives","importance":0.0,"icon":"","visiting_time":0.0,"opening_hours":"ok","opening_days":"ok","rating":0,"photo_url":null,"description":null,"www":"http://www.comune.minerbio.bo.it"},{"place_id":"44,61924231657970","geometry":{"type":"Point","coordinates":[11.49105623,44.619242317]},"display_name":"Biblioteca comunale Prometeo,from:IBC","category":"attractions","type":"Library","importance":0.0,"icon":"","visiting_time":0.0,"opening_hours":"ok","opening_days":"ok","rating":0,"photo_url":null,"description":null,"www":"http://www.bibliotecheassociate.it/BiblioSchede/BA-minerbio-fr.html"},{"place_id":"44,61924231657970","geometry":{"type":"Point","coordinates":[11.49105623,44.619242317]},"display_name":"Biblioteca comunale Prometeo,from:IBC","category":"attractions","type":"Library","importance":0.0,"icon":"","visiting_time":0.0,"opening_hours":"ok","opening_days":"ok","rating":0,"photo_url":null,"description":null,"www":"http://www.comune.minerbio.bo.it/uffici_servizi/-categoria7/pagina44.html"},{"place_id":"44,64443545951390","geometry":{"type":"Point","coordinates":[11.53248168,44.64443546]},"display_name":"Biblioteca comunale Antonio Gramsci,from:IBC","category":"attractions","type":"Library","importance":0.0,"icon":"","visiting_time":0.0,"opening_hours":"ok","opening_days":"ok","rating":0,"photo_url":null,"description":null,"www":"http://www.bibliotecheassociate.it/BiblioSchede/BA-baricella-fr.html"},{"place_id":"44,64443545951390","geometry":{"type":"Point","coordinates":[11.53248168,44.64443546]},"display_name":"Biblioteca comunale Antonio Gramsci,from:IBC","category":"attractions","type":"Library","importance":0.0,"icon":"","visiting_time":0.0,"opening_hours":"ok","opening_days":"ok","rating":0,"photo_url":null,"description":null,"www":"http://www.comune.baricella.bo.it/biblioteca/index.htm"},{"place_id":"44,58870498223120","geometry":{"type":"Point","coordinates":[11.565062774,44.588704982]},"display_name":"Sala di lettura di Mezzolara,from:IBC","category":"attractions","type":"Library","importance":0.0,"icon":"","visiting_time":0.0,"opening_hours":"ok","opening_days":"ok","rating":0,"photo_url":null,"description":null,"www":"http://www.comune.budrio.bo.it"},{"place_id":"Un Pioppo nero Budrio Armarolo Via San Donato 183","geometry":{"type":"Point","coordinates":[11.47173186,44.5974966]},"display_name":"Un Pioppo nero Budrio Armarolo Via San Donato,from:IBC","category":"tree","type":"tree","importance":0.0,"icon":"","visiting_time":0.0,"opening_hours":"ok","opening_days":"ok","rating":0,"photo_url":"http://online.ibc.regione.emilia-romagna.it/mtrees/image/33.jpg","description":null,"www":null},{"place_id":"Un Pioppo nero Minerbio S. Martino in Soverzano Via S. Donato, 58 290","geometry":{"type":"Point","coordinates":[11.52434219,44.61219747]},"display_name":"Un Pioppo nero Minerbio S. Martino in Soverzano Via S. Donato, 58,from:IBC","category":"tree","type":"tree","importance":0.0,"icon":"","visiting_time":0.0,"opening_hours":"ok","opening_days":"ok","rating":0,"photo_url":"http://online.ibc.regione.emilia-romagna.it/mtrees/image/101.jpg","description":null,"www":null},{"place_id":"Due Farnie Budrio Armarolo Via Armarolo, 34 344","geometry":{"type":"Point","coordinates":[11.46383171,44.58974553]},"display_name":"Due Farnie Budrio Armarolo Via Armarolo, 34,from:IBC","category":"tree","type":"tree","importance":0.0,"icon":"","visiting_time":0.0,"opening_hours":"ok","opening_days":"ok","rating":0,"photo_url":"http://online.ibc.regione.emilia-romagna.it/mtrees/image/6704.12.06.pdf","description":null,"www":null},{"place_id":"Una Farnia Minerbio S. Martino in Soverzano Via Cantalupo 671","geometry":{"type":"Point","coordinates":[11.52179689,44.61046233]},"display_name":"Una Farnia Minerbio S. Martino in Soverzano Via Cantalupo,from:IBC","category":"tree","type":"tree","importance":0.0,"icon":"","visiting_time":0.0,"opening_hours":"ok","opening_days":"ok","rating":0,"photo_url":"http://online.ibc.regione.emilia-romagna.it/mtrees/image/6662.12.06.pdf","description":null,"www":null}]