[{"place_id":"38824232","geometry":{"type":"Point","coordinates":[9.2085517,44.7159036]},"display_name":"Pratone dei Milanesi 10, SP90, La Valletta, Santa Margherita di Staffora, PV, LOM, Italia","category":"attractions","type":"viewpoint","importance":0.001,"icon":"http://nominatim.openstreetmap.org/images/mapicons/tourist_view_point.p.20.png","visiting_time":10.0,"opening_hours":null,"opening_days":null,"rating":0,"photo_url":null,"description":null,"www":null},{"place_id":"39724111","geometry":{"type":"Point","coordinates":[9.2053097,44.6696056]},"display_name":"Capanne di Cosola 12, 101, Ottone, PC, EMR, Italia","category":"attractions","type":"viewpoint","importance":0.001,"icon":"http://nominatim.openstreetmap.org/images/mapicons/tourist_view_point.p.20.png","visiting_time":10.0,"opening_hours":null,"opening_days":null,"rating":0,"photo_url":null,"description":null,"www":null},{"place_id":"14881474","geometry":{"type":"Point","coordinates":[9.260214,44.69661]},"display_name":"9, Rifugio Nibbiano, Brallo di Pregola, PV, LOM, Italia","category":"eating","type":"restaurant","importance":0.001,"icon":"http://nominatim.openstreetmap.org/images/mapicons/food_restaurant.p.20.png","visiting_time":60.0,"opening_hours":null,"opening_days":null,"rating":0,"photo_url":null,"description":null,"www":null},{"place_id":"14881474","geometry":{"type":"Point","coordinates":[9.260214,44.69661]},"display_name":"9, Rifugio Nibbiano, Brallo di Pregola, PV, LOM, Italia","category":"eating","type":"restaurant","importance":0.001,"icon":"http://nominatim.openstreetmap.org/images/mapicons/food_restaurant.p.20.png","visiting_time":60.0,"opening_hours":null,"opening_days":null,"rating":0,"photo_url":null,"description":null,"www":null},{"place_id":"47689669","geometry":{"type":"Point","coordinates":[9.3070771,44.6876317]},"display_name":"La Fragolina, SP186, Pianezza, Brallo di Pregola, PC, LOM, Italia","category":"lifestyle","type":"bar","importance":0.001,"icon":"http://nominatim.openstreetmap.org/images/mapicons/food_bar.p.20.png","visiting_time":10.0,"opening_hours":null,"opening_days":null,"rating":0,"photo_url":null,"description":null,"www":null},{"place_id":"47689669","geometry":{"type":"Point","coordinates":[9.3070771,44.6876317]},"display_name":"La Fragolina, SP186, Pianezza, Brallo di Pregola, PC, LOM, Italia","category":"lifestyle","type":"bar","importance":0.001,"icon":"http://nominatim.openstreetmap.org/images/mapicons/food_bar.p.20.png","visiting_time":90.0,"opening_hours":null,"opening_days":null,"rating":0,"photo_url":null,"description":null,"www":null},{"place_id":"180169053","geometry":{"type":"Point","coordinates":[-8.3350726,43.2233149]},"display_name":"Abegondo, Galicia, CAFE, España","category":"lifestyle","type":"postcode","importance":0.2125,"icon":null,"visiting_time":10.0,"opening_hours":null,"opening_days":null,"rating":0,"photo_url":null,"description":null,"www":null},{"place_id":"13497706","geometry":{"type":"Point","coordinates":[9.2006458,44.6864949]},"display_name":"San Giuseppe, Via del Sale, Passo del Giovà, Santa Margherita di Staffora, PV, LOM, Italia","category":"attractions","type":"monument","importance":0.001,"icon":"http://nominatim.openstreetmap.org/images/mapicons/tourist_monument.p.20.png","visiting_time":10.0,"opening_hours":null,"opening_days":null,"rating":0,"photo_url":null,"description":null,"www":null},{"place_id":"46965202","geometry":{"type":"Point","coordinates":[9.2733754,44.7035484]},"display_name":"Oratorio di Sant'Anna, 132, Rifugio Nibbiano, Brallo di Pregola, PV, LOM, Italia","category":"attractions","type":"place_of_worship","importance":0.001,"icon":"http://nominatim.openstreetmap.org/images/mapicons/place_of_worship_unknown3.p.20.png","visiting_time":30.0,"opening_hours":null,"opening_days":null,"rating":0,"photo_url":null,"description":null,"www":null},{"place_id":"46791459","geometry":{"type":"Point","coordinates":[9.2733858,44.7085292]},"display_name":"Chiesa dei Santi Marziano e Colombano, 131, Rifugio Nibbiano, Brallo di Pregola, PV, LOM, Italia","category":"attractions","type":"place_of_worship","importance":0.001,"icon":"http://nominatim.openstreetmap.org/images/mapicons/place_of_worship_unknown3.p.20.png","visiting_time":30.0,"opening_hours":null,"opening_days":null,"rating":0,"photo_url":null,"description":null,"www":null},{"place_id":"47925795","geometry":{"type":"Point","coordinates":[9.2273809,44.6958662]},"display_name":"Chiesa di San Lorenzo Martire, SP48, Passo del Giovà, Santa Margherita di Staffora, PV, LOM, Italia","category":"attractions","type":"place_of_worship","importance":0.001,"icon":"http://nominatim.openstreetmap.org/images/mapicons/place_of_worship_unknown3.p.20.png","visiting_time":30.0,"opening_hours":null,"opening_days":null,"rating":0,"photo_url":null,"description":null,"www":null},{"place_id":"46004039","geometry":{"type":"Point","coordinates":[9.2167229,44.7157629]},"display_name":"Chiesa di San Bartolomeo, 140, Passo del Giovà, Santa Margherita di Staffora, PV, LOM, Italia","category":"attractions","type":"place_of_worship","importance":0.001,"icon":"http://nominatim.openstreetmap.org/images/mapicons/place_of_worship_unknown3.p.20.png","visiting_time":30.0,"opening_hours":null,"opening_days":null,"rating":0,"photo_url":null,"description":null,"www":null},{"place_id":"112440139","geometry":{"type":"Point","coordinates":[9.28391939,44.66802005]},"display_name":"SP18, Zerba, PC, LOM, Italia","category":"attractions","type":"place_of_worship","importance":0.001,"icon":"http://nominatim.openstreetmap.org/images/mapicons/place_of_worship_unknown3.p.20.png","visiting_time":30.0,"opening_hours":null,"opening_days":null,"rating":0,"photo_url":null,"description":null,"www":null},{"place_id":"46183520","geometry":{"type":"Point","coordinates":[9.3067987,44.6849764]},"display_name":"Oratorio di San Carlo, SS45, Ottone, PC, EMR, Italia","category":"attractions","type":"place_of_worship","importance":0.001,"icon":"http://nominatim.openstreetmap.org/images/mapicons/place_of_worship_unknown3.p.20.png","visiting_time":30.0,"opening_hours":null,"opening_days":null,"rating":0,"photo_url":null,"description":null,"www":null},{"place_id":"113873762","geometry":{"type":"Point","coordinates":[9.284813351,44.65250545]},"display_name":"San Giovanni Battista, 117, Ottone, PC, EMR, Italia","category":"attractions","type":"place_of_worship","importance":0.001,"icon":"http://nominatim.openstreetmap.org/images/mapicons/place_of_worship_unknown3.p.20.png","visiting_time":30.0,"opening_hours":null,"opening_days":null,"rating":0,"photo_url":null,"description":null,"www":null},{"place_id":"113393636","geometry":{"type":"Point","coordinates":[9.222852392,44.6444066]},"display_name":"Chiesetta di San Rocco, Strada Bogli, Ottone, PC, EMR, Italia","category":"attractions","type":"place_of_worship","importance":0.001,"icon":"http://nominatim.openstreetmap.org/images/mapicons/place_of_worship_unknown3.p.20.png","visiting_time":30.0,"opening_hours":null,"opening_days":null,"rating":0,"photo_url":null,"description":null,"www":null},{"place_id":"46965202","geometry":{"type":"Point","coordinates":[9.2733754,44.7035484]},"display_name":"Oratorio di Sant'Anna, 132, Rifugio Nibbiano, Brallo di Pregola, PV, LOM, Italia","category":"attractions","type":"place_of_worship","importance":0.001,"icon":"http://nominatim.openstreetmap.org/images/mapicons/place_of_worship_unknown3.p.20.png","visiting_time":30.0,"opening_hours":null,"opening_days":null,"rating":0,"photo_url":null,"description":null,"www":null},{"place_id":"46791459","geometry":{"type":"Point","coordinates":[9.2733858,44.7085292]},"display_name":"Chiesa dei Santi Marziano e Colombano, 131, Rifugio Nibbiano, Brallo di Pregola, PV, LOM, Italia","category":"attractions","type":"place_of_worship","importance":0.001,"icon":"http://nominatim.openstreetmap.org/images/mapicons/place_of_worship_unknown3.p.20.png","visiting_time":30.0,"opening_hours":null,"opening_days":null,"rating":0,"photo_url":null,"description":null,"www":null},{"place_id":"47925795","geometry":{"type":"Point","coordinates":[9.2273809,44.6958662]},"display_name":"Chiesa di San Lorenzo Martire, SP48, Passo del Giovà, Santa Margherita di Staffora, PV, LOM, Italia","category":"attractions","type":"place_of_worship","importance":0.001,"icon":"http://nominatim.openstreetmap.org/images/mapicons/place_of_worship_unknown3.p.20.png","visiting_time":30.0,"opening_hours":null,"opening_days":null,"rating":0,"photo_url":null,"description":null,"www":null},{"place_id":"46004039","geometry":{"type":"Point","coordinates":[9.2167229,44.7157629]},"display_name":"Chiesa di San Bartolomeo, 140, Passo del Giovà, Santa Margherita di Staffora, PV, LOM, Italia","category":"attractions","type":"place_of_worship","importance":0.001,"icon":"http://nominatim.openstreetmap.org/images/mapicons/place_of_worship_unknown3.p.20.png","visiting_time":30.0,"opening_hours":null,"opening_days":null,"rating":0,"photo_url":null,"description":null,"www":null},{"place_id":"112440139","geometry":{"type":"Point","coordinates":[9.28391939,44.66802005]},"display_name":"SP18, Zerba, PC, LOM, Italia","category":"attractions","type":"place_of_worship","importance":0.001,"icon":"http://nominatim.openstreetmap.org/images/mapicons/place_of_worship_unknown3.p.20.png","visiting_time":30.0,"opening_hours":null,"opening_days":null,"rating":0,"photo_url":null,"description":null,"www":null},{"place_id":"46183520","geometry":{"type":"Point","coordinates":[9.3067987,44.6849764]},"display_name":"Oratorio di San Carlo, SS45, Ottone, PC, EMR, Italia","category":"attractions","type":"place_of_worship","importance":0.001,"icon":"http://nominatim.openstreetmap.org/images/mapicons/place_of_worship_unknown3.p.20.png","visiting_time":30.0,"opening_hours":null,"opening_days":null,"rating":0,"photo_url":null,"description":null,"www":null},{"place_id":"113873762","geometry":{"type":"Point","coordinates":[9.284813351,44.65250545]},"display_name":"San Giovanni Battista, 117, Ottone, PC, EMR, Italia","category":"attractions","type":"place_of_worship","importance":0.001,"icon":"http://nominatim.openstreetmap.org/images/mapicons/place_of_worship_unknown3.p.20.png","visiting_time":30.0,"opening_hours":null,"opening_days":null,"rating":0,"photo_url":null,"description":null,"www":null},{"place_id":"113393636","geometry":{"type":"Point","coordinates":[9.222852392,44.6444066]},"display_name":"Chiesetta di San Rocco, Strada Bogli, Ottone, PC, EMR, Italia","category":"attractions","type":"place_of_worship","importance":0.001,"icon":"http://nominatim.openstreetmap.org/images/mapicons/place_of_worship_unknown3.p.20.png","visiting_time":30.0,"opening_hours":null,"opening_days":null,"rating":0,"photo_url":null,"description":null,"www":null},{"place_id":"84807885","geometry":{"type":"Point","coordinates":[9.259817143,44.6967747]},"display_name":"Agriturismo  sulla via del sale, 9, Rifugio Nibbiano, Brallo di Pregola, PV, LOM, Italia","category":"resting","type":"hotel","importance":0.001,"icon":"http://nominatim.openstreetmap.org/images/mapicons/accommodation_hotel2.p.20.png","visiting_time":10.0,"opening_hours":null,"opening_days":null,"rating":0,"photo_url":null,"description":null,"www":null},{"place_id":"113873770","geometry":{"type":"Point","coordinates":[9.2014348,44.67276745]},"display_name":"Albergo ristorante Capanne di Cosola, SP140, Zerba, PC, PIE, Italia","category":"resting","type":"hotel","importance":0.001,"icon":"http://nominatim.openstreetmap.org/images/mapicons/accommodation_hotel2.p.20.png","visiting_time":10.0,"opening_hours":null,"opening_days":null,"rating":0,"photo_url":null,"description":null,"www":null},{"place_id":"15174321","geometry":{"type":"Point","coordinates":[9.2606212,44.6964121]},"display_name":"9, Rifugio Nibbiano, Brallo di Pregola, PV, LOM, Italia","category":"resting","type":"camp_site","importance":0.001,"icon":null,"visiting_time":10.0,"opening_hours":null,"opening_days":null,"rating":0,"photo_url":null,"description":null,"www":null}]