[{"place_id":"16523","geometry":{"type":"Point","coordinates":[9.931075918,44.996740736]},"display_name":"Municipio,from:MIBACT","category":"attractions","type":"Palazzo","importance":0.7,"icon":"","visiting_time":0.0,"opening_hours":"ok","opening_days":"ok","rating":0,"photo_url":null,"description":null,"www":"http://vincoliinrete.beniculturali.it/VincoliInRete/vir/bene/dettagliobene167265"},{"place_id":"18506","geometry":{"type":"Point","coordinates":[9.928346007,44.989696049]},"display_name":"Palazzine ENI e pertinenze,from:MIBACT","category":"attractions","type":"Palazzo","importance":0.7,"icon":"","visiting_time":0.0,"opening_hours":"ok","opening_days":"ok","rating":0,"photo_url":null,"description":null,"www":null},{"place_id":"10258","geometry":{"type":"Point","coordinates":[9.93066507,44.995288934]},"display_name":"Oratorio di S. Giovanni,from:MIBACT","category":"attractions","type":"Chiesa","importance":0.7,"icon":"","visiting_time":0.0,"opening_hours":"ok","opening_days":"ok","rating":0,"photo_url":null,"description":null,"www":"http://vincoliinrete.beniculturali.it/VincoliInRete/vir/bene/dettagliobene227646"},{"place_id":"10339","geometry":{"type":"Point","coordinates":[9.851936415,44.965064309]},"display_name":"Santuario della Madonna del Carmine,from:MIBACT","category":"attractions","type":"Chiesa","importance":0.7,"icon":"","visiting_time":0.0,"opening_hours":"ok","opening_days":"ok","rating":0,"photo_url":null,"description":null,"www":"http://vincoliinrete.beniculturali.it/VincoliInRete/vir/bene/dettagliobene347358"},{"place_id":"10213","geometry":{"type":"Point","coordinates":[9.950062831,45.022173038]},"display_name":"Castello Barattieri e giardino annesso,from:MIBACT","category":"attractions","type":"Rocca","importance":0.4,"icon":"","visiting_time":0.0,"opening_hours":"ok","opening_days":"ok","rating":0,"photo_url":null,"description":null,"www":"http://vincoliinrete.beniculturali.it/VincoliInRete/vir/bene/dettagliobene206953"},{"place_id":"10487","geometry":{"type":"Point","coordinates":[9.93213243,44.99610885]},"display_name":"Chiesa Maggiore,from:MIBACT","category":"attractions","type":"Chiesa","importance":0.9,"icon":"","visiting_time":0.0,"opening_hours":"ok","opening_days":"ok","rating":0,"photo_url":null,"description":null,"www":"http://vincoliinrete.beniculturali.it/VincoliInRete/vir/bene/dettagliobene227652"},{"place_id":"10708","geometry":{"type":"Point","coordinates":[9.937423269,44.996456579]},"display_name":"Chiesa della SS. Annunziata e Convento di San Francesco,from:MIBACT","category":"attractions","type":"Chiesa","importance":0.9,"icon":"","visiting_time":0.0,"opening_hours":"ok","opening_days":"ok","rating":0,"photo_url":null,"description":null,"www":"http://vincoliinrete.beniculturali.it/VincoliInRete/vir/bene/dettagliobene162158"},{"place_id":"10781","geometry":{"type":"Point","coordinates":[9.931760419,44.997912063]},"display_name":"Oratorio di San Giuseppe,from:MIBACT","category":"attractions","type":"Chiesa","importance":0.7,"icon":"","visiting_time":0.0,"opening_hours":"ok","opening_days":"ok","rating":0,"photo_url":null,"description":null,"www":"http://vincoliinrete.beniculturali.it/VincoliInRete/vir/bene/dettagliobene227645"},{"place_id":"10782","geometry":{"type":"Point","coordinates":[9.861873615,45.004079495]},"display_name":"Villa Casati Rollieri e pertinenze,from:MIBACT","category":"attractions","type":"Villa","importance":0.4,"icon":"","visiting_time":0.0,"opening_hours":"ok","opening_days":"ok","rating":0,"photo_url":null,"description":null,"www":null},{"place_id":"12967","geometry":{"type":"Point","coordinates":[9.932817603,44.993886889]},"display_name":"Palazzo Pallavicino,from:MIBACT","category":"attractions","type":"Palazzo","importance":0.7,"icon":"","visiting_time":0.0,"opening_hours":"ok","opening_days":"ok","rating":0,"photo_url":null,"description":null,"www":"http://vincoliinrete.beniculturali.it/VincoliInRete/vir/bene/dettagliobene340474"}]