[{"place_id":"17957","geometry":{"type":"Point","coordinates":[11.921760417,44.008997945]},"display_name":"Chiesa di Santa Maria Assunta,from:MIBACT","category":"attractions","type":"Chiesa","importance":0.7,"icon":"","visiting_time":0.0,"opening_hours":"ok","opening_days":"ok","rating":0,"photo_url":null,"description":null,"www":"http://vincoliinrete.beniculturali.it/VincoliInRete/vir/bene/dettagliobene141055"},{"place_id":"18147","geometry":{"type":"Point","coordinates":[11.934386576,43.94724973]},"display_name":"Santuario della Madonna degli Occhi,from:MIBACT","category":"attractions","type":"Chiesa","importance":0.0,"icon":"","visiting_time":0.0,"opening_hours":"ok","opening_days":"ok","rating":0,"photo_url":null,"description":null,"www":null},{"place_id":"17912","geometry":{"type":"Point","coordinates":[12.056962941,43.970238733]},"display_name":"Eremo di Petrella - Cenacolo di San Lorenzo,from:MIBACT","category":"attractions","type":"Chiesa","importance":0.0,"icon":"","visiting_time":0.0,"opening_hours":"ok","opening_days":"ok","rating":0,"photo_url":null,"description":null,"www":null},{"place_id":"8246","geometry":{"type":"Point","coordinates":[12.002036578,43.994180125]},"display_name":"Castello di Montevecchio,from:MIBACT","category":"attractions","type":"Rocca","importance":0.0,"icon":"","visiting_time":0.0,"opening_hours":"ok","opening_days":"ok","rating":0,"photo_url":null,"description":null,"www":"\"http://vincoliinrete.beniculturali.it/VincoliInRete/vir/bene/dettagliobene206272,http://vincoliinrete.beniculturali.it/VincoliInRete/vir/bene/dettagliobene112699\""},{"place_id":"18216","geometry":{"type":"Point","coordinates":[11.942033016,44.007485071]},"display_name":"Torre neogotica,from:MIBACT","category":"attractions","type":"Torre","importance":0.4,"icon":"","visiting_time":0.0,"opening_hours":"ok","opening_days":"ok","rating":0,"photo_url":null,"description":null,"www":null},{"place_id":"8369","geometry":{"type":"Point","coordinates":[11.978123061,44.026416309]},"display_name":"\"Chiesa dei Santi Quirico e Giolitta, Casa canonica e pertinenze\",from:MIBACT","category":"attractions","type":"Chiesa","importance":0.0,"icon":"","visiting_time":0.0,"opening_hours":"ok","opening_days":"ok","rating":0,"photo_url":null,"description":null,"www":null},{"place_id":"8516","geometry":{"type":"Point","coordinates":[12.025819027,43.989905093]},"display_name":"Chiesa e canonica di San Vicinio in Seguno,from:MIBACT","category":"attractions","type":"Chiesa","importance":0.0,"icon":"","visiting_time":0.0,"opening_hours":"ok","opening_days":"ok","rating":0,"photo_url":null,"description":null,"www":null},{"place_id":"8693","geometry":{"type":"Point","coordinates":[12.004195747,44.043648712]},"display_name":"Rocca Malatestiana e Palazzo dei Marchesi di Bagno,from:MIBACT","category":"attractions","type":"Rocca","importance":0.7,"icon":"","visiting_time":0.0,"opening_hours":"ok","opening_days":"ok","rating":0,"photo_url":null,"description":null,"www":"\"http://vincoliinrete.beniculturali.it/VincoliInRete/vir/bene/dettagliobene279690,http://vincoliinrete.beniculturali.it/VincoliInRete/vir/bene/dettagliobene90756,http://vincoliinrete.beniculturali.it/VincoliInRete/vir/bene/dettagliobene112695\""},{"place_id":"18166","geometry":{"type":"Point","coordinates":[11.941297959,44.006839231]},"display_name":"Chiesa di Santa Maria in Borgo,from:MIBACT","category":"attractions","type":"Chiesa","importance":0.0,"icon":"","visiting_time":0.0,"opening_hours":"ok","opening_days":"ok","rating":0,"photo_url":null,"description":null,"www":null},{"place_id":"7845","geometry":{"type":"Point","coordinates":[12.03868237,44.045896224]},"display_name":"Ex complesso parrocchiale di S. Paolo in Aquiliano,from:MIBACT","category":"attractions","type":"Chiesa","importance":0.0,"icon":"","visiting_time":0.0,"opening_hours":"ok","opening_days":"ok","rating":0,"photo_url":null,"description":null,"www":"\"http://vincoliinrete.beniculturali.it/VincoliInRete/vir/bene/dettagliobene87035,http://vincoliinrete.beniculturali.it/VincoliInRete/vir/bene/dettagliobene217013\""},{"place_id":"8163","geometry":{"type":"Point","coordinates":[12.036474275,43.946670191]},"display_name":"Rocca di Civorio,from:MIBACT","category":"attractions","type":"Rocca","importance":0.0,"icon":"","visiting_time":0.0,"opening_hours":"ok","opening_days":"ok","rating":0,"photo_url":null,"description":null,"www":"\"http://vincoliinrete.beniculturali.it/VincoliInRete/vir/bene/dettagliobene279694,http://vincoliinrete.beniculturali.it/VincoliInRete/vir/bene/dettagliobene112693\""},{"place_id":"15649","geometry":{"type":"Point","coordinates":[11.944912093,44.031349792]},"display_name":"Avanzi del castello di Valdoppio,from:MIBACT","category":"attractions","type":"Rocca","importance":0.0,"icon":"","visiting_time":0.0,"opening_hours":"ok","opening_days":"ok","rating":0,"photo_url":null,"description":null,"www":"http://vincoliinrete.beniculturali.it/VincoliInRete/vir/bene/dettagliobene207228"},{"place_id":"15674","geometry":{"type":"Point","coordinates":[11.942255387,44.007605969]},"display_name":"Castello (avanzi),from:MIBACT","category":"attractions","type":"Rocca","importance":0.7,"icon":"","visiting_time":0.0,"opening_hours":"ok","opening_days":"ok","rating":0,"photo_url":null,"description":null,"www":"\"http://vincoliinrete.beniculturali.it/VincoliInRete/vir/bene/dettagliobene207272,http://vincoliinrete.beniculturali.it/VincoliInRete/vir/bene/dettagliobene207260,http://vincoliinrete.beniculturali.it/VincoliInRete/vir/bene/dettagliobene279675\""},{"place_id":"18165","geometry":{"type":"Point","coordinates":[11.942826323,44.007937757]},"display_name":"Chiesa del Castello,from:MIBACT","category":"attractions","type":"Chiesa","importance":0.0,"icon":"","visiting_time":0.0,"opening_hours":"ok","opening_days":"ok","rating":0,"photo_url":null,"description":null,"www":null},{"place_id":"17201","geometry":{"type":"Point","coordinates":[11.934112469,44.006155313]},"display_name":"Santuario della Beata Vergine della Suasia,from:MIBACT","category":"attractions","type":"Chiesa","importance":0.7,"icon":"","visiting_time":0.0,"opening_hours":"ok","opening_days":"ok","rating":0,"photo_url":null,"description":null,"www":"\"http://vincoliinrete.beniculturali.it/VincoliInRete/vir/bene/dettagliobene347282,http://vincoliinrete.beniculturali.it/VincoliInRete/vir/bene/dettagliobene90754\""},{"place_id":"8535","geometry":{"type":"Point","coordinates":[12.087872231,43.968784592]},"display_name":"Ex Abbazia di Sant'Ambrogio ora casa rurale,from:MIBACT","category":"attractions","type":"Chiesa","importance":0.7,"icon":"","visiting_time":0.0,"opening_hours":"ok","opening_days":"ok","rating":0,"photo_url":null,"description":null,"www":"\"http://vincoliinrete.beniculturali.it/VincoliInRete/vir/bene/dettagliobene89201,http://vincoliinrete.beniculturali.it/VincoliInRete/vir/bene/dettagliobene213040\""},{"place_id":"7887","geometry":{"type":"Point","coordinates":[12.057736102,44.03309255]},"display_name":"Avanzi del Castello di Giaggiolo,from:MIBACT","category":"attractions","type":"Rocca","importance":0.0,"icon":"","visiting_time":0.0,"opening_hours":"ok","opening_days":"ok","rating":0,"photo_url":null,"description":null,"www":"\"http://vincoliinrete.beniculturali.it/VincoliInRete/vir/bene/dettagliobene112697,http://vincoliinrete.beniculturali.it/VincoliInRete/vir/bene/dettagliobene206295\""},{"place_id":"15651","geometry":{"type":"Point","coordinates":[11.95974935,44.032910367]},"display_name":"Avanzi del castello di Monterotondo,from:MIBACT","category":"attractions","type":"Rocca","importance":0.0,"icon":"","visiting_time":0.0,"opening_hours":"ok","opening_days":"ok","rating":0,"photo_url":null,"description":null,"www":"\"http://vincoliinrete.beniculturali.it/VincoliInRete/vir/bene/dettagliobene199343,http://vincoliinrete.beniculturali.it/VincoliInRete/vir/bene/dettagliobene112691\""}]