[{"place_id":"25584452","geometry":{"type":"Point","coordinates":[9.7209117,44.7095876]},"display_name":"Canyon, verso mesone lungo, Ca' d' Turba, Morfasso, PC, EMR, Italia","category":"attractions","type":"attraction","importance":0.001,"icon":"http://nominatim.openstreetmap.org/images/mapicons/poi_point_of_interest.p.20.png","visiting_time":30.0,"opening_hours":null,"opening_days":null,"rating":0,"photo_url":null,"description":null,"www":null},{"place_id":"26189148","geometry":{"type":"Point","coordinates":[9.7173875,44.7054544]},"display_name":"verso mesone lungo, Ca' d' Turba, Morfasso, PC, EMR, Italia","category":"attractions","type":"viewpoint","importance":0.001,"icon":"http://nominatim.openstreetmap.org/images/mapicons/tourist_view_point.p.20.png","visiting_time":10.0,"opening_hours":null,"opening_days":null,"rating":0,"photo_url":null,"description":null,"www":null},{"place_id":"24987377","geometry":{"type":"Point","coordinates":[9.7500771,44.7102021]},"display_name":"La Rocca dei Casali, SP359R, Bore, PC, EMR, 43030, Italia","category":"attractions","type":"viewpoint","importance":0.001,"icon":"http://nominatim.openstreetmap.org/images/mapicons/tourist_view_point.p.20.png","visiting_time":10.0,"opening_hours":null,"opening_days":null,"rating":0,"photo_url":null,"description":null,"www":null},{"place_id":"26131672","geometry":{"type":"Point","coordinates":[9.7242905,44.7084967]},"display_name":"SP15, Case Ruggeri, PC, EMR, Italia","category":"attractions","type":"viewpoint","importance":0.001,"icon":"http://nominatim.openstreetmap.org/images/mapicons/tourist_view_point.p.20.png","visiting_time":10.0,"opening_hours":null,"opening_days":null,"rating":0,"photo_url":null,"description":null,"www":null},{"place_id":"26512631","geometry":{"type":"Point","coordinates":[9.7223376,44.7090589]},"display_name":"vista sui Trus, SP15, Case Ruggeri, PC, EMR, Italia","category":"attractions","type":"viewpoint","importance":0.001,"icon":"http://nominatim.openstreetmap.org/images/mapicons/tourist_view_point.p.20.png","visiting_time":10.0,"opening_hours":null,"opening_days":null,"rating":0,"photo_url":null,"description":null,"www":null},{"place_id":"25719015","geometry":{"type":"Point","coordinates":[9.7268709,44.7175927]},"display_name":"Monte di Pedina, SP15, Case Ruggeri, PC, EMR, Italia","category":"attractions","type":"viewpoint","importance":0.001,"icon":"http://nominatim.openstreetmap.org/images/mapicons/tourist_view_point.p.20.png","visiting_time":10.0,"opening_hours":null,"opening_days":null,"rating":0,"photo_url":null,"description":null,"www":null},{"place_id":"26180091","geometry":{"type":"Point","coordinates":[9.7169424,44.6974252]},"display_name":"Al Bosco, SP15, Ca' d' Turba, Morfasso, PC, EMR, Italia","category":"eating","type":"restaurant","importance":0.001,"icon":"http://nominatim.openstreetmap.org/images/mapicons/food_restaurant.p.20.png","visiting_time":60.0,"opening_hours":null,"opening_days":null,"rating":0,"photo_url":null,"description":null,"www":null},{"place_id":"25910402","geometry":{"type":"Point","coordinates":[9.7169988,44.6973577]},"display_name":"Cà del Bosco, 5, SP15, Ca' d' Turba, Morfasso, PC, EMR, 29020, Italia","category":"eating","type":"restaurant","importance":0.001,"icon":"http://nominatim.openstreetmap.org/images/mapicons/food_restaurant.p.20.png","visiting_time":60.0,"opening_hours":null,"opening_days":null,"rating":0,"photo_url":null,"description":null,"www":null},{"place_id":"61835869","geometry":{"type":"Point","coordinates":[9.6648412,44.7405791]},"display_name":"SP15, Bettola, PC, EMR, Italia","category":"eating","type":"restaurant","importance":0.001,"icon":"http://nominatim.openstreetmap.org/images/mapicons/food_restaurant.p.20.png","visiting_time":60.0,"opening_hours":null,"opening_days":null,"rating":0,"photo_url":null,"description":null,"www":null},{"place_id":"6876749","geometry":{"type":"Point","coordinates":[9.7448836,44.6801513]},"display_name":"SP359R, Bore, PC, EMR, 43030, Italia","category":"eating","type":"restaurant","importance":0.001,"icon":"http://nominatim.openstreetmap.org/images/mapicons/food_restaurant.p.20.png","visiting_time":60.0,"opening_hours":null,"opening_days":null,"rating":0,"photo_url":null,"description":null,"www":null},{"place_id":"53039740","geometry":{"type":"Point","coordinates":[9.7917133,44.7175725]},"display_name":"Via Roma, Salvi, Bore, PR, EMR, 43030, Italia","category":"eating","type":"restaurant","importance":0.001,"icon":"http://nominatim.openstreetmap.org/images/mapicons/food_restaurant.p.20.png","visiting_time":60.0,"opening_hours":null,"opening_days":null,"rating":0,"photo_url":null,"description":null,"www":null},{"place_id":"53500173","geometry":{"type":"Point","coordinates":[9.7916124,44.7165004]},"display_name":"Trattoria Il Ponte, 136, Via Roma, Salvi, Bore, PR, EMR, 43030, Italia","category":"eating","type":"restaurant","importance":0.001,"icon":"http://nominatim.openstreetmap.org/images/mapicons/food_restaurant.p.20.png","visiting_time":60.0,"opening_hours":null,"opening_days":null,"rating":0,"photo_url":null,"description":null,"www":null},{"place_id":"26180091","geometry":{"type":"Point","coordinates":[9.7169424,44.6974252]},"display_name":"Al Bosco, SP15, Ca' d' Turba, Morfasso, PC, EMR, Italia","category":"eating","type":"restaurant","importance":0.001,"icon":"http://nominatim.openstreetmap.org/images/mapicons/food_restaurant.p.20.png","visiting_time":60.0,"opening_hours":null,"opening_days":null,"rating":0,"photo_url":null,"description":null,"www":null},{"place_id":"25910402","geometry":{"type":"Point","coordinates":[9.7169988,44.6973577]},"display_name":"Cà del Bosco, 5, SP15, Ca' d' Turba, Morfasso, PC, EMR, 29020, Italia","category":"eating","type":"restaurant","importance":0.001,"icon":"http://nominatim.openstreetmap.org/images/mapicons/food_restaurant.p.20.png","visiting_time":60.0,"opening_hours":null,"opening_days":null,"rating":0,"photo_url":null,"description":null,"www":null},{"place_id":"61835869","geometry":{"type":"Point","coordinates":[9.6648412,44.7405791]},"display_name":"SP15, Bettola, PC, EMR, Italia","category":"eating","type":"restaurant","importance":0.001,"icon":"http://nominatim.openstreetmap.org/images/mapicons/food_restaurant.p.20.png","visiting_time":60.0,"opening_hours":null,"opening_days":null,"rating":0,"photo_url":null,"description":null,"www":null},{"place_id":"6876749","geometry":{"type":"Point","coordinates":[9.7448836,44.6801513]},"display_name":"SP359R, Bore, PC, EMR, 43030, Italia","category":"eating","type":"restaurant","importance":0.001,"icon":"http://nominatim.openstreetmap.org/images/mapicons/food_restaurant.p.20.png","visiting_time":60.0,"opening_hours":null,"opening_days":null,"rating":0,"photo_url":null,"description":null,"www":null},{"place_id":"53039740","geometry":{"type":"Point","coordinates":[9.7917133,44.7175725]},"display_name":"Via Roma, Salvi, Bore, PR, EMR, 43030, Italia","category":"eating","type":"restaurant","importance":0.001,"icon":"http://nominatim.openstreetmap.org/images/mapicons/food_restaurant.p.20.png","visiting_time":60.0,"opening_hours":null,"opening_days":null,"rating":0,"photo_url":null,"description":null,"www":null},{"place_id":"53500173","geometry":{"type":"Point","coordinates":[9.7916124,44.7165004]},"display_name":"Trattoria Il Ponte, 136, Via Roma, Salvi, Bore, PR, EMR, 43030, Italia","category":"eating","type":"restaurant","importance":0.001,"icon":"http://nominatim.openstreetmap.org/images/mapicons/food_restaurant.p.20.png","visiting_time":60.0,"opening_hours":null,"opening_days":null,"rating":0,"photo_url":null,"description":null,"www":null},{"place_id":"7258003","geometry":{"type":"Point","coordinates":[9.7216285,44.78514]},"display_name":"Veleia Romana, SP14, Morfasso, PC, EMR, Italia","category":"attractions","type":"ruins","importance":0.1667999,"icon":"http://nominatim.openstreetmap.org/images/mapicons/tourist_ruin.p.20.png","visiting_time":30.0,"opening_hours":null,"opening_days":null,"rating":0,"photo_url":null,"description":null,"www":null},{"place_id":"26215467","geometry":{"type":"Point","coordinates":[9.6983195,44.6998721]},"display_name":"pietraia bianca, L'Archisòla, Ca' d' Turba, Morfasso, PC, EMR, Italia","category":"attractions","type":"ruins","importance":0.001,"icon":"http://nominatim.openstreetmap.org/images/mapicons/tourist_ruin.p.20.png","visiting_time":30.0,"opening_hours":null,"opening_days":null,"rating":0,"photo_url":null,"description":null,"www":null},{"place_id":"127661747","geometry":{"type":"Point","coordinates":[9.709565613,44.70119025]},"display_name":"SP15, Ca' d' Turba, Morfasso, PC, EMR, Italia","category":"attractions","type":"ruins","importance":0.001,"icon":"http://nominatim.openstreetmap.org/images/mapicons/tourist_ruin.p.20.png","visiting_time":30.0,"opening_hours":null,"opening_days":null,"rating":0,"photo_url":null,"description":null,"www":null},{"place_id":"16350373","geometry":{"type":"Point","coordinates":[9.7473803,44.70758]},"display_name":"La Rocca, SP359R, Bore, PC, EMR, 43030, Italia","category":"attractions","type":"ruins","importance":0.001,"icon":"http://nominatim.openstreetmap.org/images/mapicons/tourist_ruin.p.20.png","visiting_time":30.0,"opening_hours":null,"opening_days":null,"rating":0,"photo_url":null,"description":null,"www":null},{"place_id":"127134380","geometry":{"type":"Point","coordinates":[9.718737425,44.70408995]},"display_name":"SP15, Case Ruggeri, PC, EMR, Italia","category":"attractions","type":"ruins","importance":0.001,"icon":"http://nominatim.openstreetmap.org/images/mapicons/tourist_ruin.p.20.png","visiting_time":30.0,"opening_hours":null,"opening_days":null,"rating":0,"photo_url":null,"description":null,"www":null},{"place_id":"25480275","geometry":{"type":"Point","coordinates":[9.7323477,44.7095143]},"display_name":"Cà dal Cònt, SP15, Case Ruggeri, PC, EMR, Italia","category":"attractions","type":"ruins","importance":0.001,"icon":"http://nominatim.openstreetmap.org/images/mapicons/tourist_ruin.p.20.png","visiting_time":30.0,"opening_hours":null,"opening_days":null,"rating":0,"photo_url":null,"description":null,"www":null},{"place_id":"52989532","geometry":{"type":"Point","coordinates":[9.7917608,44.717843]},"display_name":"Maxi Bar, Via Roma, Salvi, Bore, PR, EMR, 43030, Italia","category":"lifestyle","type":"bar","importance":0.101,"icon":"http://nominatim.openstreetmap.org/images/mapicons/food_bar.p.20.png","visiting_time":10.0,"opening_hours":null,"opening_days":null,"rating":0,"photo_url":null,"description":null,"www":null},{"place_id":"26178477","geometry":{"type":"Point","coordinates":[9.7229323,44.7025186]},"display_name":"K2 Bar, SP15, Case Ruggeri, PC, EMR, Italia","category":"lifestyle","type":"bar","importance":0.101,"icon":"http://nominatim.openstreetmap.org/images/mapicons/food_bar.p.20.png","visiting_time":10.0,"opening_hours":null,"opening_days":null,"rating":0,"photo_url":null,"description":null,"www":null},{"place_id":"25801722","geometry":{"type":"Point","coordinates":[9.730916,44.7062717]},"display_name":"Bar Ruggeri, SP15, Case Ruggeri, PC, EMR, Italia","category":"lifestyle","type":"bar","importance":0.101,"icon":"http://nominatim.openstreetmap.org/images/mapicons/food_bar.p.20.png","visiting_time":10.0,"opening_hours":null,"opening_days":null,"rating":0,"photo_url":null,"description":null,"www":null},{"place_id":"52989532","geometry":{"type":"Point","coordinates":[9.7917608,44.717843]},"display_name":"Maxi Bar, Via Roma, Salvi, Bore, PR, EMR, 43030, Italia","category":"lifestyle","type":"bar","importance":0.001,"icon":"http://nominatim.openstreetmap.org/images/mapicons/food_bar.p.20.png","visiting_time":90.0,"opening_hours":null,"opening_days":null,"rating":0,"photo_url":null,"description":null,"www":null},{"place_id":"26178477","geometry":{"type":"Point","coordinates":[9.7229323,44.7025186]},"display_name":"K2 Bar, SP15, Case Ruggeri, PC, EMR, Italia","category":"lifestyle","type":"bar","importance":0.001,"icon":"http://nominatim.openstreetmap.org/images/mapicons/food_bar.p.20.png","visiting_time":90.0,"opening_hours":null,"opening_days":null,"rating":0,"photo_url":null,"description":null,"www":null},{"place_id":"25801722","geometry":{"type":"Point","coordinates":[9.730916,44.7062717]},"display_name":"Bar Ruggeri, SP15, Case Ruggeri, PC, EMR, Italia","category":"lifestyle","type":"bar","importance":0.001,"icon":"http://nominatim.openstreetmap.org/images/mapicons/food_bar.p.20.png","visiting_time":90.0,"opening_hours":null,"opening_days":null,"rating":0,"photo_url":null,"description":null,"www":null},{"place_id":"180169053","geometry":{"type":"Point","coordinates":[-8.3350726,43.2233149]},"display_name":"Abegondo, Galicia, CAFE, España","category":"lifestyle","type":"postcode","importance":0.2125,"icon":null,"visiting_time":10.0,"opening_hours":null,"opening_days":null,"rating":0,"photo_url":null,"description":null,"www":null},{"place_id":"39120572","geometry":{"type":"Point","coordinates":[9.7227874,44.7024224]},"display_name":"K2, SP15, Case Ruggeri, PC, EMR, Italia","category":"lifestyle","type":"nightclub","importance":0.001,"icon":null,"visiting_time":120.0,"opening_hours":null,"opening_days":null,"rating":0,"photo_url":null,"description":null,"www":null},{"place_id":"16743087","geometry":{"type":"Point","coordinates":[9.68344,44.6824381]},"display_name":"905, Morfasso, PC, EMR, Italia","category":"attractions","type":"memorial","importance":0.001,"icon":"http://nominatim.openstreetmap.org/images/mapicons/tourist_monument.p.20.png","visiting_time":10.0,"opening_hours":null,"opening_days":null,"rating":0,"photo_url":null,"description":null,"www":null},{"place_id":"25002789","geometry":{"type":"Point","coordinates":[9.7401891,44.7112184]},"display_name":"Monumento ai Caduti, SP15, Case Ruggeri, PC, EMR, Italia","category":"attractions","type":"monument","importance":0.101,"icon":"http://nominatim.openstreetmap.org/images/mapicons/tourist_monument.p.20.png","visiting_time":10.0,"opening_hours":null,"opening_days":null,"rating":0,"photo_url":null,"description":null,"www":null},{"place_id":"16743087","geometry":{"type":"Point","coordinates":[9.68344,44.6824381]},"display_name":"905, Morfasso, PC, EMR, Italia","category":"attractions","type":"memorial","importance":0.001,"icon":"http://nominatim.openstreetmap.org/images/mapicons/tourist_monument.p.20.png","visiting_time":10.0,"opening_hours":null,"opening_days":null,"rating":0,"photo_url":null,"description":null,"www":null},{"place_id":"16223012","geometry":{"type":"Point","coordinates":[9.787571,44.71771]},"display_name":"AVC;925a, Salvi, Bore, PC, EMR, 43030, Italia","category":"attractions","type":"monument","importance":0.001,"icon":"http://nominatim.openstreetmap.org/images/mapicons/tourist_monument.p.20.png","visiting_time":10.0,"opening_hours":null,"opening_days":null,"rating":0,"photo_url":null,"description":null,"www":null},{"place_id":"16945989","geometry":{"type":"Point","coordinates":[9.6912407,44.6906337]},"display_name":"Oratorio, 905, Ca' d' Turba, Morfasso, PC, EMR, Italia","category":"attractions","type":"place_of_worship","importance":0.001,"icon":"http://nominatim.openstreetmap.org/images/mapicons/place_of_worship_unknown3.p.20.png","visiting_time":30.0,"opening_hours":null,"opening_days":null,"rating":0,"photo_url":null,"description":null,"www":null},{"place_id":"16718460","geometry":{"type":"Point","coordinates":[9.7677557,44.7277994]},"display_name":"Chiesa Settesorelle, 921, Vernasca, PC, EMR, Italia","category":"attractions","type":"place_of_worship","importance":0.001,"icon":"http://nominatim.openstreetmap.org/images/mapicons/place_of_worship_unknown3.p.20.png","visiting_time":30.0,"opening_hours":null,"opening_days":null,"rating":0,"photo_url":null,"description":null,"www":null},{"place_id":"53339195","geometry":{"type":"Point","coordinates":[9.7525387,44.700647]},"display_name":"Chiesa, SP359R, Bore, PC, EMR, 43030, Italia","category":"attractions","type":"place_of_worship","importance":0.001,"icon":"http://nominatim.openstreetmap.org/images/mapicons/place_of_worship_unknown3.p.20.png","visiting_time":30.0,"opening_hours":null,"opening_days":null,"rating":0,"photo_url":null,"description":null,"www":null},{"place_id":"126470036","geometry":{"type":"Point","coordinates":[9.790935653,44.7164087]},"display_name":"San Lorenzo M, 7, Via San Lorenzo, Salvi, Bore, PR, EMR, 43030, Italia","category":"attractions","type":"place_of_worship","importance":0.001,"icon":"http://nominatim.openstreetmap.org/images/mapicons/place_of_worship_unknown3.p.20.png","visiting_time":30.0,"opening_hours":null,"opening_days":null,"rating":0,"photo_url":null,"description":null,"www":null},{"place_id":"160868833","geometry":{"type":"Point","coordinates":[9.74650607,44.70308695]},"display_name":"Cimitero, SP359R, Bore, PC, EMR, 43030, Italia","category":"attractions","type":"place_of_worship","importance":0.001,"icon":"http://nominatim.openstreetmap.org/images/mapicons/place_of_worship_unknown3.p.20.png","visiting_time":30.0,"opening_hours":null,"opening_days":null,"rating":0,"photo_url":null,"description":null,"www":null},{"place_id":"112536771","geometry":{"type":"Point","coordinates":[9.740031445,44.71095495]},"display_name":"Chiesa di Pedina, SP15, Case Ruggeri, PC, EMR, Italia","category":"attractions","type":"place_of_worship","importance":0.001,"icon":"http://nominatim.openstreetmap.org/images/mapicons/place_of_worship_unknown3.p.20.png","visiting_time":30.0,"opening_hours":null,"opening_days":null,"rating":0,"photo_url":null,"description":null,"www":null},{"place_id":"25111640","geometry":{"type":"Point","coordinates":[9.7397006,44.7108574]},"display_name":"Chiesa di Pedina, SP15, Case Ruggeri, PC, EMR, Italia","category":"attractions","type":"place_of_worship","importance":0.001,"icon":"http://nominatim.openstreetmap.org/images/mapicons/place_of_worship_unknown3.p.20.png","visiting_time":30.0,"opening_hours":null,"opening_days":null,"rating":0,"photo_url":null,"description":null,"www":null},{"place_id":"125484497","geometry":{"type":"Point","coordinates":[9.721291612,44.70338425]},"display_name":"Cappella della Madonna di Rusteghini, SP15, Case Ruggeri, PC, EMR, Italia","category":"attractions","type":"place_of_worship","importance":0.001,"icon":"http://nominatim.openstreetmap.org/images/mapicons/place_of_worship_unknown3.p.20.png","visiting_time":30.0,"opening_hours":null,"opening_days":null,"rating":0,"photo_url":null,"description":null,"www":null},{"place_id":"16945989","geometry":{"type":"Point","coordinates":[9.6912407,44.6906337]},"display_name":"Oratorio, 905, Ca' d' Turba, Morfasso, PC, EMR, Italia","category":"attractions","type":"place_of_worship","importance":0.001,"icon":"http://nominatim.openstreetmap.org/images/mapicons/place_of_worship_unknown3.p.20.png","visiting_time":30.0,"opening_hours":null,"opening_days":null,"rating":0,"photo_url":null,"description":null,"www":null},{"place_id":"16718460","geometry":{"type":"Point","coordinates":[9.7677557,44.7277994]},"display_name":"Chiesa Settesorelle, 921, Vernasca, PC, EMR, Italia","category":"attractions","type":"place_of_worship","importance":0.001,"icon":"http://nominatim.openstreetmap.org/images/mapicons/place_of_worship_unknown3.p.20.png","visiting_time":30.0,"opening_hours":null,"opening_days":null,"rating":0,"photo_url":null,"description":null,"www":null},{"place_id":"53339195","geometry":{"type":"Point","coordinates":[9.7525387,44.700647]},"display_name":"Chiesa, SP359R, Bore, PC, EMR, 43030, Italia","category":"attractions","type":"place_of_worship","importance":0.001,"icon":"http://nominatim.openstreetmap.org/images/mapicons/place_of_worship_unknown3.p.20.png","visiting_time":30.0,"opening_hours":null,"opening_days":null,"rating":0,"photo_url":null,"description":null,"www":null},{"place_id":"126470036","geometry":{"type":"Point","coordinates":[9.790935653,44.7164087]},"display_name":"San Lorenzo M, 7, Via San Lorenzo, Salvi, Bore, PR, EMR, 43030, Italia","category":"attractions","type":"place_of_worship","importance":0.001,"icon":"http://nominatim.openstreetmap.org/images/mapicons/place_of_worship_unknown3.p.20.png","visiting_time":30.0,"opening_hours":null,"opening_days":null,"rating":0,"photo_url":null,"description":null,"www":null},{"place_id":"160868833","geometry":{"type":"Point","coordinates":[9.74650607,44.70308695]},"display_name":"Cimitero, SP359R, Bore, PC, EMR, 43030, Italia","category":"attractions","type":"place_of_worship","importance":0.001,"icon":"http://nominatim.openstreetmap.org/images/mapicons/place_of_worship_unknown3.p.20.png","visiting_time":30.0,"opening_hours":null,"opening_days":null,"rating":0,"photo_url":null,"description":null,"www":null},{"place_id":"112536771","geometry":{"type":"Point","coordinates":[9.740031445,44.71095495]},"display_name":"Chiesa di Pedina, SP15, Case Ruggeri, PC, EMR, Italia","category":"attractions","type":"place_of_worship","importance":0.001,"icon":"http://nominatim.openstreetmap.org/images/mapicons/place_of_worship_unknown3.p.20.png","visiting_time":30.0,"opening_hours":null,"opening_days":null,"rating":0,"photo_url":null,"description":null,"www":null},{"place_id":"25111640","geometry":{"type":"Point","coordinates":[9.7397006,44.7108574]},"display_name":"Chiesa di Pedina, SP15, Case Ruggeri, PC, EMR, Italia","category":"attractions","type":"place_of_worship","importance":0.001,"icon":"http://nominatim.openstreetmap.org/images/mapicons/place_of_worship_unknown3.p.20.png","visiting_time":30.0,"opening_hours":null,"opening_days":null,"rating":0,"photo_url":null,"description":null,"www":null},{"place_id":"125484497","geometry":{"type":"Point","coordinates":[9.721291612,44.70338425]},"display_name":"Cappella della Madonna di Rusteghini, SP15, Case Ruggeri, PC, EMR, Italia","category":"attractions","type":"place_of_worship","importance":0.001,"icon":"http://nominatim.openstreetmap.org/images/mapicons/place_of_worship_unknown3.p.20.png","visiting_time":30.0,"opening_hours":null,"opening_days":null,"rating":0,"photo_url":null,"description":null,"www":null}]