[{"place_id":"17962","geometry":{"type":"Point","coordinates":[11.882853572,44.118873481]},"display_name":"Villa Badia dei Blanc-Tassinari,from:MIBACT","category":"attractions","type":"Villa","importance":0.0,"icon":"","visiting_time":0.0,"opening_hours":"ok","opening_days":"ok","rating":0,"photo_url":null,"description":null,"www":null},{"place_id":"17961","geometry":{"type":"Point","coordinates":[11.88699038,44.12204333]},"display_name":"Fondazione Benedetta Bianchi Porro,from:MIBACT","category":"attractions","type":"Portico","importance":0.7,"icon":"","visiting_time":0.0,"opening_hours":"ok","opening_days":"ok","rating":0,"photo_url":null,"description":null,"www":"http://vincoliinrete.beniculturali.it/VincoliInRete/vir/bene/dettagliobene131213"},{"place_id":"17935","geometry":{"type":"Point","coordinates":[11.880314237,44.154471631]},"display_name":"Eremo di Montepaolo,from:MIBACT","category":"attractions","type":"Chiesa","importance":0.0,"icon":"","visiting_time":0.0,"opening_hours":"ok","opening_days":"ok","rating":0,"photo_url":null,"description":null,"www":null},{"place_id":"17930","geometry":{"type":"Point","coordinates":[11.887293536,44.122200389]},"display_name":"Torre dell'Orologio,from:MIBACT","category":"attractions","type":"Torre","importance":0.4,"icon":"","visiting_time":0.0,"opening_hours":"ok","opening_days":"ok","rating":0,"photo_url":null,"description":null,"www":null},{"place_id":"8672","geometry":{"type":"Point","coordinates":[11.888581184,44.121692933]},"display_name":"\"Castello detto \"\"La Roccaccia\"\"\",from:MIBACT","category":"attractions","type":"Rocca","importance":0.7,"icon":"","visiting_time":0.0,"opening_hours":"ok","opening_days":"ok","rating":0,"photo_url":null,"description":null,"www":"\"http://vincoliinrete.beniculturali.it/VincoliInRete/vir/bene/dettagliobene279551,http://vincoliinrete.beniculturali.it/VincoliInRete/vir/bene/dettagliobene207263,http://vincoliinrete.beniculturali.it/VincoliInRete/vir/bene/dettagliobene89187\""},{"place_id":"17933","geometry":{"type":"Point","coordinates":[11.889232378,44.124111654]},"display_name":"Chiesa della Ss. Annunziata,from:MIBACT","category":"attractions","type":"Chiesa","importance":0.0,"icon":"","visiting_time":0.0,"opening_hours":"ok","opening_days":"ok","rating":0,"photo_url":null,"description":null,"www":"http://vincoliinrete.beniculturali.it/VincoliInRete/vir/bene/dettagliobene90768"},{"place_id":"17959","geometry":{"type":"Point","coordinates":[11.887494523,44.122209523]},"display_name":"Oratorio di Sant'Antonio,from:MIBACT","category":"attractions","type":"Chiesa","importance":0.0,"icon":"","visiting_time":0.0,"opening_hours":"ok","opening_days":"ok","rating":0,"photo_url":null,"description":null,"www":"http://vincoliinrete.beniculturali.it/VincoliInRete/vir/bene/dettagliobene90770"},{"place_id":"17932","geometry":{"type":"Point","coordinates":[11.882793284,44.119015109]},"display_name":"S. Andrea in Badia,from:MIBACT","category":"attractions","type":"Chiesa","importance":0.7,"icon":"","visiting_time":0.0,"opening_hours":"ok","opening_days":"ok","rating":0,"photo_url":null,"description":null,"www":"http://vincoliinrete.beniculturali.it/VincoliInRete/vir/bene/dettagliobene90760"}]