[{"place_id":"7380","geometry":{"type":"Point","coordinates":[10.2300192,44.920080991]},"display_name":"Chiesa Parrocchiale dell' Annunciazione di Maria Vergine,from:MIBACT","category":"attractions","type":"Chiesa","importance":0.7,"icon":"","visiting_time":0.0,"opening_hours":"ok","opening_days":"ok","rating":0,"photo_url":null,"description":null,"www":"\"http://vincoliinrete.beniculturali.it/VincoliInRete/vir/bene/dettagliobene148134,http://vincoliinrete.beniculturali.it/VincoliInRete/vir/bene/dettagliobene118393,http://vincoliinrete.beniculturali.it/VincoliInRete/vir/bene/dettagliobene23193\""},{"place_id":"7651","geometry":{"type":"Point","coordinates":[10.218818996,44.918503645]},"display_name":"Oratorio della Madonna del Serraglio,from:MIBACT","category":"attractions","type":"Chiesa","importance":0.7,"icon":"","visiting_time":0.0,"opening_hours":"ok","opening_days":"ok","rating":0,"photo_url":null,"description":null,"www":"\"http://vincoliinrete.beniculturali.it/VincoliInRete/vir/bene/dettagliobene23191,http://vincoliinrete.beniculturali.it/VincoliInRete/vir/bene/dettagliobene118400,http://vincoliinrete.beniculturali.it/VincoliInRete/vir/bene/dettagliobene23237\""},{"place_id":"14445","geometry":{"type":"Point","coordinates":[10.229937664,44.922057737]},"display_name":"Ospedale Civile,from:MIBACT","category":"attractions","type":"Ospedale","importance":0.7,"icon":"","visiting_time":0.0,"opening_hours":"ok","opening_days":"ok","rating":0,"photo_url":null,"description":null,"www":"\"http://vincoliinrete.beniculturali.it/VincoliInRete/vir/bene/dettagliobene278441,http://vincoliinrete.beniculturali.it/VincoliInRete/vir/bene/dettagliobene118351\""},{"place_id":"16664","geometry":{"type":"Point","coordinates":[10.258956989,44.961821018]},"display_name":"Rocca,from:MIBACT","category":"attractions","type":"Rocca","importance":0.7,"icon":"","visiting_time":0.0,"opening_hours":"ok","opening_days":"ok","rating":0,"photo_url":null,"description":null,"www":"\"http://vincoliinrete.beniculturali.it/VincoliInRete/vir/bene/dettagliobene279638,http://vincoliinrete.beniculturali.it/VincoliInRete/vir/bene/dettagliobene118019\""},{"place_id":"16666","geometry":{"type":"Point","coordinates":[10.257769786,44.961416361]},"display_name":"Chiesa Parrocchiale  di Santa Maria Assunta,from:MIBACT","category":"attractions","type":"Chiesa","importance":0.7,"icon":"","visiting_time":0.0,"opening_hours":"ok","opening_days":"ok","rating":0,"photo_url":null,"description":null,"www":"http://vincoliinrete.beniculturali.it/VincoliInRete/vir/bene/dettagliobene216746"},{"place_id":"4521","geometry":{"type":"Point","coordinates":[10.225870786,44.920179684]},"display_name":"Rocca dei Rossi,from:MIBACT","category":"attractions","type":"Rocca","importance":0.9,"icon":"","visiting_time":0.0,"opening_hours":"ok","opening_days":"ok","rating":0,"photo_url":null,"description":null,"www":"http://vincoliinrete.beniculturali.it/VincoliInRete/vir/bene/dettagliobene116824"},{"place_id":"7414","geometry":{"type":"Point","coordinates":[10.202282908,44.922200799]},"display_name":"Chiesa Plebana di S. Genesio Martire,from:MIBACT","category":"attractions","type":"Chiesa","importance":0.9,"icon":"","visiting_time":0.0,"opening_hours":"ok","opening_days":"ok","rating":0,"photo_url":null,"description":null,"www":"\"http://vincoliinrete.beniculturali.it/VincoliInRete/vir/bene/dettagliobene23195,http://vincoliinrete.beniculturali.it/VincoliInRete/vir/bene/dettagliobene149054\""}]