[{"place_id":"3992680","geometry":{"type":"Point","coordinates":[11.6458132,43.9908491]},"display_name":"Cascata dell' Acquacheta, C.A.I. 429, Marradi, FC, TOS, Italia","category":"attractions","type":"attraction","importance":0.001,"icon":"http://nominatim.openstreetmap.org/images/mapicons/poi_point_of_interest.p.20.png","visiting_time":30.0,"opening_hours":null,"opening_days":null,"rating":0,"photo_url":null,"description":null,"www":null},{"place_id":"31249060","geometry":{"type":"Point","coordinates":[11.6463862,43.9902854]},"display_name":"Letto di Dante, C.A.I. 429, Marradi, FC, TOS, Italia","category":"attractions","type":"viewpoint","importance":0.001,"icon":"http://nominatim.openstreetmap.org/images/mapicons/tourist_view_point.p.20.png","visiting_time":10.0,"opening_hours":null,"opening_days":null,"rating":0,"photo_url":null,"description":null,"www":null},{"place_id":"7586726","geometry":{"type":"Point","coordinates":[11.7734963,44.046387]},"display_name":"Vulcano  di Monte Busca, CAI 553B, Ca' Forte, Tredozio, FC, EMR, 47019, Italia","category":"attractions","type":"viewpoint","importance":0.001,"icon":"http://nominatim.openstreetmap.org/images/mapicons/tourist_view_point.p.20.png","visiting_time":10.0,"opening_hours":null,"opening_days":null,"rating":0,"photo_url":null,"description":null,"www":null},{"place_id":"30408413","geometry":{"type":"Point","coordinates":[11.6531053,43.9766098]},"display_name":"Case Monte di Londa, C.A.I. 429, Marradi, FC, TOS, Italia","category":"attractions","type":"ruins","importance":0.001,"icon":"http://nominatim.openstreetmap.org/images/mapicons/tourist_ruin.p.20.png","visiting_time":30.0,"opening_hours":null,"opening_days":null,"rating":0,"photo_url":null,"description":null,"www":null},{"place_id":"31402397","geometry":{"type":"Point","coordinates":[11.6603755,43.9816942]},"display_name":"Ca' del Rospo, SP55, Pratacci, Portico e San Benedetto, FC, EMR, Italia","category":"attractions","type":"ruins","importance":0.001,"icon":"http://nominatim.openstreetmap.org/images/mapicons/tourist_ruin.p.20.png","visiting_time":30.0,"opening_hours":null,"opening_days":null,"rating":0,"photo_url":null,"description":null,"www":null},{"place_id":"112231393","geometry":{"type":"Point","coordinates":[11.773389501,43.97391255]},"display_name":"SP3 del Rabbi, Le Piane, Valstavole, Premilcuore, FC, EMR, 47010, Italia","category":"lifestyle","type":"bar","importance":0.001,"icon":"http://nominatim.openstreetmap.org/images/mapicons/food_bar.p.20.png","visiting_time":10.0,"opening_hours":null,"opening_days":null,"rating":0,"photo_url":null,"description":null,"www":null},{"place_id":"20335213","geometry":{"type":"Point","coordinates":[11.7812505,44.0255781]},"display_name":"Toscoromagnola, Portico e San Benedetto, Moreta, Portico e San Benedetto, FC, EMR, Italia","category":"lifestyle","type":"bar","importance":0.001,"icon":"http://nominatim.openstreetmap.org/images/mapicons/food_bar.p.20.png","visiting_time":10.0,"opening_hours":null,"opening_days":null,"rating":0,"photo_url":null,"description":null,"www":null},{"place_id":"112231393","geometry":{"type":"Point","coordinates":[11.773389501,43.97391255]},"display_name":"SP3 del Rabbi, Le Piane, Valstavole, Premilcuore, FC, EMR, 47010, Italia","category":"lifestyle","type":"bar","importance":0.001,"icon":"http://nominatim.openstreetmap.org/images/mapicons/food_bar.p.20.png","visiting_time":90.0,"opening_hours":null,"opening_days":null,"rating":0,"photo_url":null,"description":null,"www":null},{"place_id":"20335213","geometry":{"type":"Point","coordinates":[11.7812505,44.0255781]},"display_name":"Toscoromagnola, Portico e San Benedetto, Moreta, Portico e San Benedetto, FC, EMR, Italia","category":"lifestyle","type":"bar","importance":0.001,"icon":"http://nominatim.openstreetmap.org/images/mapicons/food_bar.p.20.png","visiting_time":90.0,"opening_hours":null,"opening_days":null,"rating":0,"photo_url":null,"description":null,"www":null},{"place_id":"180169053","geometry":{"type":"Point","coordinates":[-8.3350726,43.2233149]},"display_name":"Abegondo, Galicia, CAFE, España","category":"lifestyle","type":"postcode","importance":0.2125,"icon":null,"visiting_time":10.0,"opening_hours":null,"opening_days":null,"rating":0,"photo_url":null,"description":null,"www":null},{"place_id":"46859689","geometry":{"type":"Point","coordinates":[11.6519452,44.0422588]},"display_name":"Cippo Neri-Bellenghi, GEA, CAI 521a, Località Parrocchia Gamogna, Trebbo di Badia, Marradi, FI, TOS, 50034, Italia","category":"attractions","type":"memorial","importance":0.001,"icon":"http://nominatim.openstreetmap.org/images/mapicons/tourist_monument.p.20.png","visiting_time":10.0,"opening_hours":null,"opening_days":null,"rating":0,"photo_url":null,"description":null,"www":null},{"place_id":"46859689","geometry":{"type":"Point","coordinates":[11.6519452,44.0422588]},"display_name":"Cippo Neri-Bellenghi, GEA, CAI 521a, Località Parrocchia Gamogna, Trebbo di Badia, Marradi, FI, TOS, 50034, Italia","category":"attractions","type":"memorial","importance":0.001,"icon":"http://nominatim.openstreetmap.org/images/mapicons/tourist_monument.p.20.png","visiting_time":10.0,"opening_hours":null,"opening_days":null,"rating":0,"photo_url":null,"description":null,"www":null},{"place_id":"56302213","geometry":{"type":"Point","coordinates":[11.6878462,43.9815777]},"display_name":"SP55, Casetta, Portico e San Benedetto, FC, EMR, Italia","category":"attractions","type":"monument","importance":0.001,"icon":"http://nominatim.openstreetmap.org/images/mapicons/tourist_monument.p.20.png","visiting_time":10.0,"opening_hours":null,"opening_days":null,"rating":0,"photo_url":null,"description":null,"www":null},{"place_id":"165049261","geometry":{"type":"Point","coordinates":[11.68922234,43.9822572]},"display_name":"Casetta, Portico e San Benedetto, FC, EMR, Italia","category":"parks","type":"park","importance":0.15,"icon":null,"visiting_time":90.0,"opening_hours":null,"opening_days":null,"rating":0,"photo_url":null,"description":null,"www":null},{"place_id":"172637434","geometry":{"type":"Point","coordinates":[11.782237414,44.02564925]},"display_name":"Giardini pubblici, Portico e San Benedetto, Canova, Portico e San Benedetto, FC, EMR, Italia","category":"parks","type":"park","importance":0.15,"icon":null,"visiting_time":90.0,"opening_hours":null,"opening_days":null,"rating":0,"photo_url":null,"description":null,"www":null},{"place_id":"120248267","geometry":{"type":"Point","coordinates":[11.653656621,44.0401989]},"display_name":"Eremo di Gamogna, GEA, CAI 521a, Località Parrocchia Gamogna, Gamogna, Marradi, FI, TOS, 50034, Italia","category":"attractions","type":"place_of_worship","importance":0.13061965,"icon":"http://nominatim.openstreetmap.org/images/mapicons/place_of_worship_unknown3.p.20.png","visiting_time":30.0,"opening_hours":null,"opening_days":null,"rating":0,"photo_url":null,"description":null,"www":null},{"place_id":"155045804","geometry":{"type":"Point","coordinates":[11.646546472,43.96385405]},"display_name":"Santa Maria all'Eremo, 00, Centine di Sopra, San Godenzo, FI, TOS, Italia","category":"attractions","type":"place_of_worship","importance":0.046527658,"icon":"http://nominatim.openstreetmap.org/images/mapicons/place_of_worship_unknown3.p.20.png","visiting_time":30.0,"opening_hours":null,"opening_days":null,"rating":0,"photo_url":null,"description":null,"www":null},{"place_id":"116787993","geometry":{"type":"Point","coordinates":[11.686362654,44.0416572]},"display_name":"San Michele in Trebbana, CAI 549, Poggioli di Trebbana, Marradi, FI, TOS, 50034, Italia","category":"attractions","type":"place_of_worship","importance":0.001,"icon":"http://nominatim.openstreetmap.org/images/mapicons/place_of_worship_unknown3.p.20.png","visiting_time":30.0,"opening_hours":null,"opening_days":null,"rating":0,"photo_url":null,"description":null,"www":null},{"place_id":"138762246","geometry":{"type":"Point","coordinates":[11.653930426,44.0403244]},"display_name":"Chiesa di Gamogna, GEA, CAI 521a, Località Parrocchia Gamogna, Gamogna, Marradi, FI, TOS, 50034, Italia","category":"attractions","type":"place_of_worship","importance":0.001,"icon":"http://nominatim.openstreetmap.org/images/mapicons/place_of_worship_unknown3.p.20.png","visiting_time":30.0,"opening_hours":null,"opening_days":null,"rating":0,"photo_url":null,"description":null,"www":null},{"place_id":"117516697","geometry":{"type":"Point","coordinates":[11.65198857,44.04030975]},"display_name":"Cappella, CAI 521, Gamogna, Marradi, FI, TOS, 50034, Italia","category":"attractions","type":"place_of_worship","importance":0.001,"icon":"http://nominatim.openstreetmap.org/images/mapicons/place_of_worship_unknown3.p.20.png","visiting_time":30.0,"opening_hours":null,"opening_days":null,"rating":0,"photo_url":null,"description":null,"www":null},{"place_id":"113125980","geometry":{"type":"Point","coordinates":[11.783115642,43.9800995]},"display_name":"Chiesa di Santa Maria delle Nevi, SP3 del Rabbi, Le Piane, Valstavole, Premilcuore, FC, EMR, 47010, Italia","category":"attractions","type":"place_of_worship","importance":0.001,"icon":"http://nominatim.openstreetmap.org/images/mapicons/place_of_worship_unknown3.p.20.png","visiting_time":30.0,"opening_hours":null,"opening_days":null,"rating":0,"photo_url":null,"description":null,"www":null},{"place_id":"114804693","geometry":{"type":"Point","coordinates":[11.782718982,44.0252546]},"display_name":"Chiesa della Compagnia, Via Roma, Portico e San Benedetto, Canova, Portico e San Benedetto, FC, EMR, Italia","category":"attractions","type":"place_of_worship","importance":0.001,"icon":"http://nominatim.openstreetmap.org/images/mapicons/place_of_worship_unknown3.p.20.png","visiting_time":30.0,"opening_hours":null,"opening_days":null,"rating":0,"photo_url":null,"description":null,"www":null},{"place_id":"113260618","geometry":{"type":"Point","coordinates":[11.782735947,44.02566565]},"display_name":"Chiesa di Portico di Romagna, Toscoromagnola, Portico e San Benedetto, Moreta, Portico e San Benedetto, FC, EMR, Italia","category":"attractions","type":"place_of_worship","importance":0.001,"icon":"http://nominatim.openstreetmap.org/images/mapicons/place_of_worship_unknown3.p.20.png","visiting_time":30.0,"opening_hours":null,"opening_days":null,"rating":0,"photo_url":null,"description":null,"www":null},{"place_id":"120248267","geometry":{"type":"Point","coordinates":[11.653656621,44.0401989]},"display_name":"Eremo di Gamogna, GEA, CAI 521a, Località Parrocchia Gamogna, Gamogna, Marradi, FI, TOS, 50034, Italia","category":"attractions","type":"place_of_worship","importance":0.13061965,"icon":"http://nominatim.openstreetmap.org/images/mapicons/place_of_worship_unknown3.p.20.png","visiting_time":30.0,"opening_hours":null,"opening_days":null,"rating":0,"photo_url":null,"description":null,"www":null},{"place_id":"155045804","geometry":{"type":"Point","coordinates":[11.646546472,43.96385405]},"display_name":"Santa Maria all'Eremo, 00, Centine di Sopra, San Godenzo, FI, TOS, Italia","category":"attractions","type":"place_of_worship","importance":0.046527658,"icon":"http://nominatim.openstreetmap.org/images/mapicons/place_of_worship_unknown3.p.20.png","visiting_time":30.0,"opening_hours":null,"opening_days":null,"rating":0,"photo_url":null,"description":null,"www":null},{"place_id":"116787993","geometry":{"type":"Point","coordinates":[11.686362654,44.0416572]},"display_name":"San Michele in Trebbana, CAI 549, Poggioli di Trebbana, Marradi, FI, TOS, 50034, Italia","category":"attractions","type":"place_of_worship","importance":0.001,"icon":"http://nominatim.openstreetmap.org/images/mapicons/place_of_worship_unknown3.p.20.png","visiting_time":30.0,"opening_hours":null,"opening_days":null,"rating":0,"photo_url":null,"description":null,"www":null},{"place_id":"138762246","geometry":{"type":"Point","coordinates":[11.653930426,44.0403244]},"display_name":"Chiesa di Gamogna, GEA, CAI 521a, Località Parrocchia Gamogna, Gamogna, Marradi, FI, TOS, 50034, Italia","category":"attractions","type":"place_of_worship","importance":0.001,"icon":"http://nominatim.openstreetmap.org/images/mapicons/place_of_worship_unknown3.p.20.png","visiting_time":30.0,"opening_hours":null,"opening_days":null,"rating":0,"photo_url":null,"description":null,"www":null},{"place_id":"117516697","geometry":{"type":"Point","coordinates":[11.65198857,44.04030975]},"display_name":"Cappella, CAI 521, Gamogna, Marradi, FI, TOS, 50034, Italia","category":"attractions","type":"place_of_worship","importance":0.001,"icon":"http://nominatim.openstreetmap.org/images/mapicons/place_of_worship_unknown3.p.20.png","visiting_time":30.0,"opening_hours":null,"opening_days":null,"rating":0,"photo_url":null,"description":null,"www":null},{"place_id":"113125980","geometry":{"type":"Point","coordinates":[11.783115642,43.9800995]},"display_name":"Chiesa di Santa Maria delle Nevi, SP3 del Rabbi, Le Piane, Valstavole, Premilcuore, FC, EMR, 47010, Italia","category":"attractions","type":"place_of_worship","importance":0.001,"icon":"http://nominatim.openstreetmap.org/images/mapicons/place_of_worship_unknown3.p.20.png","visiting_time":30.0,"opening_hours":null,"opening_days":null,"rating":0,"photo_url":null,"description":null,"www":null},{"place_id":"114804693","geometry":{"type":"Point","coordinates":[11.782718982,44.0252546]},"display_name":"Chiesa della Compagnia, Via Roma, Portico e San Benedetto, Canova, Portico e San Benedetto, FC, EMR, Italia","category":"attractions","type":"place_of_worship","importance":0.001,"icon":"http://nominatim.openstreetmap.org/images/mapicons/place_of_worship_unknown3.p.20.png","visiting_time":30.0,"opening_hours":null,"opening_days":null,"rating":0,"photo_url":null,"description":null,"www":null},{"place_id":"113260618","geometry":{"type":"Point","coordinates":[11.782735947,44.02566565]},"display_name":"Chiesa di Portico di Romagna, Toscoromagnola, Portico e San Benedetto, Moreta, Portico e San Benedetto, FC, EMR, Italia","category":"attractions","type":"place_of_worship","importance":0.001,"icon":"http://nominatim.openstreetmap.org/images/mapicons/place_of_worship_unknown3.p.20.png","visiting_time":30.0,"opening_hours":null,"opening_days":null,"rating":0,"photo_url":null,"description":null,"www":null},{"place_id":"60609621","geometry":{"type":"Point","coordinates":[11.7822557,44.0253691]},"display_name":"Hotel e ristorante La Canonica, Via Roma, Portico e San Benedetto, Canova, Portico e San Benedetto, FC, EMR, Italia","category":"resting","type":"hotel","importance":0.101,"icon":"http://nominatim.openstreetmap.org/images/mapicons/accommodation_hotel2.p.20.png","visiting_time":10.0,"opening_hours":null,"opening_days":null,"rating":0,"photo_url":null,"description":null,"www":null},{"place_id":"4006858","geometry":{"type":"Point","coordinates":[11.686194,43.9827491]},"display_name":"Campeggio Acquacheta, Via Acquacheta, Caprile, Portico e San Benedetto, FC, EMR, Italia","category":"resting","type":"camp_site","importance":0.101,"icon":null,"visiting_time":10.0,"opening_hours":null,"opening_days":null,"rating":0,"photo_url":null,"description":null,"www":null},{"place_id":"21977831","geometry":{"type":"Point","coordinates":[11.6875785,44.04176]},"display_name":"CAI, Poggioli di Trebbana, Marradi, FI, TOS, Italia","category":"resting","type":"camp_site","importance":0.001,"icon":null,"visiting_time":10.0,"opening_hours":null,"opening_days":null,"rating":0,"photo_url":null,"description":null,"www":null},{"place_id":"170710010","geometry":{"type":"Point","coordinates":[11.772901035,43.97400295]},"display_name":"SP3 del Rabbi, Le Piane, Valstavole, Premilcuore, FC, EMR, 47010, Italia","category":"resting","type":"camp_site","importance":0.001,"icon":null,"visiting_time":10.0,"opening_hours":null,"opening_days":null,"rating":0,"photo_url":null,"description":null,"www":null}]