[{"place_id":"10059","geometry":{"type":"Point","coordinates":[9.825010256,44.931476523]},"display_name":"Chiesa parrocchiale di S. Biagio Vescovo e Martire,from:MIBACT","category":"attractions","type":"Chiesa","importance":0.7,"icon":"","visiting_time":0.0,"opening_hours":"ok","opening_days":"ok","rating":0,"photo_url":null,"description":null,"www":"http://vincoliinrete.beniculturali.it/VincoliInRete/vir/bene/dettagliobene2631476"},{"place_id":"10456","geometry":{"type":"Point","coordinates":[9.735836672,44.957535132]},"display_name":"\"Chiesa, canonica, salone polifunzionale, edifici rurali\",from:MIBACT","category":"attractions","type":"Chiesa","importance":0.7,"icon":"","visiting_time":0.0,"opening_hours":"ok","opening_days":"ok","rating":0,"photo_url":null,"description":null,"www":"http://vincoliinrete.beniculturali.it/VincoliInRete/vir/bene/dettagliobene147149"},{"place_id":"10211","geometry":{"type":"Point","coordinates":[9.735221006,44.955909709]},"display_name":"Rocca Gazzola e annesso parco,from:MIBACT","category":"attractions","type":"Rocca","importance":0.7,"icon":"","visiting_time":0.0,"opening_hours":"ok","opening_days":"ok","rating":0,"photo_url":null,"description":null,"www":"http://vincoliinrete.beniculturali.it/VincoliInRete/vir/bene/dettagliobene279634"},{"place_id":"10273","geometry":{"type":"Point","coordinates":[9.788592497,44.954112902]},"display_name":"Castello di Paderna e sue pertinenze,from:MIBACT","category":"attractions","type":"Rocca","importance":0.8,"icon":"","visiting_time":0.0,"opening_hours":"ok","opening_days":"ok","rating":0,"photo_url":null,"description":null,"www":"\"http://vincoliinrete.beniculturali.it/VincoliInRete/vir/bene/dettagliobene227634,http://vincoliinrete.beniculturali.it/VincoliInRete/vir/bene/dettagliobene197700\""},{"place_id":"10728","geometry":{"type":"Point","coordinates":[9.840344396,44.87801638]},"display_name":"\"Chiesa Parrocchiale di S. Giovanni Battista, battistero e pertinenze\",from:MIBACT","category":"attractions","type":"Chiesa","importance":0.9,"icon":"","visiting_time":0.0,"opening_hours":"ok","opening_days":"ok","rating":0,"photo_url":null,"description":null,"www":"http://vincoliinrete.beniculturali.it/VincoliInRete/vir/bene/dettagliobene147927"},{"place_id":"10694","geometry":{"type":"Point","coordinates":[9.737654705,44.954075933]},"display_name":"Castello Anguissola Scotti e annesso terreno,from:MIBACT","category":"attractions","type":"Rocca","importance":0.7,"icon":"","visiting_time":0.0,"opening_hours":"ok","opening_days":"ok","rating":0,"photo_url":null,"description":null,"www":"http://vincoliinrete.beniculturali.it/VincoliInRete/vir/bene/dettagliobene199198"},{"place_id":"10643","geometry":{"type":"Point","coordinates":[9.736529109,44.834264697]},"display_name":"Castello di Gropparello,from:MIBACT","category":"attractions","type":"Rocca","importance":0.7,"icon":"","visiting_time":0.0,"opening_hours":"ok","opening_days":"ok","rating":0,"photo_url":null,"description":null,"www":"http://vincoliinrete.beniculturali.it/VincoliInRete/vir/bene/dettagliobene207115"},{"place_id":"10549","geometry":{"type":"Point","coordinates":[9.848449763,44.833103307]},"display_name":"Oratorio di S. M. Maddalena di Pontegano,from:MIBACT","category":"attractions","type":"Chiesa","importance":0.7,"icon":"","visiting_time":0.0,"opening_hours":"ok","opening_days":"ok","rating":0,"photo_url":null,"description":null,"www":"http://vincoliinrete.beniculturali.it/VincoliInRete/vir/bene/dettagliobene227653"}]