[{"place_id":"19244","geometry":{"type":"Point","coordinates":[11.991374641,43.889214698]},"display_name":"Chiesa di San Silvestro,from:MIBACT","category":"attractions","type":"Chiesa","importance":0.4,"icon":"","visiting_time":0.0,"opening_hours":"ok","opening_days":"ok","rating":0,"photo_url":null,"description":null,"www":null},{"place_id":"17980","geometry":{"type":"Point","coordinates":[11.746575725,43.87223625]},"display_name":"Chiesa di Santa Maria a Celle,from:MIBACT","category":"attractions","type":"Chiesa","importance":0.0,"icon":"","visiting_time":0.0,"opening_hours":"ok","opening_days":"ok","rating":0,"photo_url":null,"description":null,"www":null},{"place_id":"17979","geometry":{"type":"Point","coordinates":[11.795125908,43.907257353]},"display_name":"Chiesa di San Pietro,from:MIBACT","category":"attractions","type":"Chiesa","importance":0.4,"icon":"","visiting_time":0.0,"opening_hours":"ok","opening_days":"ok","rating":0,"photo_url":null,"description":null,"www":null},{"place_id":"18164","geometry":{"type":"Point","coordinates":[11.777348364,43.97685765]},"display_name":"Municipio di Premilcuore,from:MIBACT","category":"attractions","type":"Palazzo","importance":0.0,"icon":"","visiting_time":0.0,"opening_hours":"ok","opening_days":"ok","rating":0,"photo_url":null,"description":null,"www":null},{"place_id":"17977","geometry":{"type":"Point","coordinates":[11.885508276,43.919693194]},"display_name":"Chiesa di Santa Margherita,from:MIBACT","category":"attractions","type":"Chiesa","importance":0.0,"icon":"","visiting_time":0.0,"opening_hours":"ok","opening_days":"ok","rating":0,"photo_url":null,"description":null,"www":null},{"place_id":"18161","geometry":{"type":"Point","coordinates":[11.885083135,43.920723573]},"display_name":"Castello di Rondinaia (ruderi),from:MIBACT","category":"attractions","type":"Rocca","importance":0.7,"icon":"","visiting_time":0.0,"opening_hours":"ok","opening_days":"ok","rating":0,"photo_url":null,"description":null,"www":"http://vincoliinrete.beniculturali.it/VincoliInRete/vir/bene/dettagliobene206288"},{"place_id":"18153","geometry":{"type":"Point","coordinates":[11.793423444,43.908567835]},"display_name":"Oratorio della Madonna delle Grazie e della Crocetta,from:MIBACT","category":"attractions","type":"Oratorio","importance":0.0,"icon":"","visiting_time":0.0,"opening_hours":"ok","opening_days":"ok","rating":0,"photo_url":null,"description":null,"www":null},{"place_id":"8793","geometry":{"type":"Point","coordinates":[11.856547055,43.951064809]},"display_name":"Botolano,from:MIBACT","category":"attractions","type":"Casa","importance":0.0,"icon":"","visiting_time":0.0,"opening_hours":"ok","opening_days":"ok","rating":0,"photo_url":null,"description":null,"www":"http://vincoliinrete.beniculturali.it/VincoliInRete/vir/bene/dettagliobene500914"},{"place_id":"18150","geometry":{"type":"Point","coordinates":[11.834121123,43.911008176]},"display_name":"Chiesa di San Benedetto Abate,from:MIBACT","category":"attractions","type":"Chiesa","importance":0.0,"icon":"","visiting_time":0.0,"opening_hours":"ok","opening_days":"ok","rating":0,"photo_url":null,"description":null,"www":null},{"place_id":"18147","geometry":{"type":"Point","coordinates":[11.934386576,43.94724973]},"display_name":"Santuario della Madonna degli Occhi,from:MIBACT","category":"attractions","type":"Chiesa","importance":0.0,"icon":"","visiting_time":0.0,"opening_hours":"ok","opening_days":"ok","rating":0,"photo_url":null,"description":null,"www":null},{"place_id":"8873","geometry":{"type":"Point","coordinates":[11.731634503,43.865099347]},"display_name":"Casone della Burraia,from:MIBACT","category":"attractions","type":"Casa","importance":0.0,"icon":"","visiting_time":0.0,"opening_hours":"ok","opening_days":"ok","rating":0,"photo_url":null,"description":null,"www":"http://vincoliinrete.beniculturali.it/VincoliInRete/vir/bene/dettagliobene491640"},{"place_id":"18143","geometry":{"type":"Point","coordinates":[11.908268282,43.947207891]},"display_name":"Palazzo Comunale e Torre dell'Orologio,from:MIBACT","category":"attractions","type":"Palazzo","importance":0.7,"icon":"","visiting_time":0.0,"opening_hours":"ok","opening_days":"ok","rating":0,"photo_url":null,"description":null,"www":"http://vincoliinrete.beniculturali.it/VincoliInRete/vir/bene/dettagliobene346223"},{"place_id":"8991","geometry":{"type":"Point","coordinates":[11.846269948,43.90962134]},"display_name":"Oratorio dei Santi Antonio da Padova e Vincenzo Ferrer,from:MIBACT","category":"attractions","type":"Oratorio","importance":0.0,"icon":"","visiting_time":0.0,"opening_hours":"ok","opening_days":"ok","rating":0,"photo_url":null,"description":null,"www":null},{"place_id":"17978","geometry":{"type":"Point","coordinates":[11.874569956,43.925209455]},"display_name":"Chiesa di Santa Maria in Cosmedin,from:MIBACT","category":"attractions","type":"Chiesa","importance":0.4,"icon":"","visiting_time":0.0,"opening_hours":"ok","opening_days":"ok","rating":0,"photo_url":null,"description":null,"www":null},{"place_id":"17973","geometry":{"type":"Point","coordinates":[11.907870754,43.94773073]},"display_name":"Chiesa di Santa Lucia,from:MIBACT","category":"attractions","type":"Chiesa","importance":0.4,"icon":"","visiting_time":0.0,"opening_hours":"ok","opening_days":"ok","rating":0,"photo_url":null,"description":null,"www":"\"http://vincoliinrete.beniculturali.it/VincoliInRete/vir/bene/dettagliobene217018,http://vincoliinrete.beniculturali.it/VincoliInRete/vir/bene/dettagliobene216975\""},{"place_id":"17964","geometry":{"type":"Point","coordinates":[11.908168933,43.947095885]},"display_name":"Chiesetta del Crocifisso,from:MIBACT","category":"attractions","type":"Chiesa","importance":0.7,"icon":"","visiting_time":0.0,"opening_hours":"ok","opening_days":"ok","rating":0,"photo_url":null,"description":null,"www":"\"http://vincoliinrete.beniculturali.it/VincoliInRete/vir/bene/dettagliobene141050,http://vincoliinrete.beniculturali.it/VincoliInRete/vir/bene/dettagliobene114347\""},{"place_id":"7983","geometry":{"type":"Point","coordinates":[11.859069708,43.959372184]},"display_name":"Casa rurale Vallicella e pertinenze,from:MIBACT","category":"attractions","type":"Casa","importance":0.0,"icon":"","visiting_time":0.0,"opening_hours":"ok","opening_days":"ok","rating":0,"photo_url":null,"description":null,"www":null},{"place_id":"8043","geometry":{"type":"Point","coordinates":[11.905518323,43.943636821]},"display_name":"Ex Casa del Fascio,from:MIBACT","category":"attractions","type":"Palazzo","importance":0.0,"icon":"","visiting_time":0.0,"opening_hours":"ok","opening_days":"ok","rating":0,"photo_url":null,"description":null,"www":"http://vincoliinrete.beniculturali.it/VincoliInRete/vir/bene/dettagliobene472264"},{"place_id":"8421","geometry":{"type":"Point","coordinates":[11.914039517,43.962627482]},"display_name":"Complesso parrocchiale di San Giacomo in Meleto,from:MIBACT","category":"attractions","type":"Chiesa","importance":0.0,"icon":"","visiting_time":0.0,"opening_hours":"ok","opening_days":"ok","rating":0,"photo_url":null,"description":null,"www":"\"http://vincoliinrete.beniculturali.it/VincoliInRete/vir/bene/dettagliobene215191,http://vincoliinrete.beniculturali.it/VincoliInRete/vir/bene/dettagliobene86839\""},{"place_id":"18162","geometry":{"type":"Point","coordinates":[11.780858451,43.979173893]},"display_name":"Museo della flora e della fauna locale,from:MIBACT","category":"attractions","type":"Palazzo","importance":0.7,"icon":"","visiting_time":0.0,"opening_hours":"ok","opening_days":"ok","rating":0,"photo_url":null,"description":null,"www":"http://vincoliinrete.beniculturali.it/VincoliInRete/vir/bene/dettagliobene167686"},{"place_id":"7892","geometry":{"type":"Point","coordinates":[11.77722717,43.977485073]},"display_name":"Chiesa di San Lorenzo e sacrestia,from:MIBACT","category":"attractions","type":"Chiesa","importance":0.7,"icon":"","visiting_time":0.0,"opening_hours":"ok","opening_days":"ok","rating":0,"photo_url":null,"description":null,"www":"\"http://vincoliinrete.beniculturali.it/VincoliInRete/vir/bene/dettagliobene473086,http://vincoliinrete.beniculturali.it/VincoliInRete/vir/bene/dettagliobene18696,http://vincoliinrete.beniculturali.it/VincoliInRete/vir/bene/dettagliobene227540\""},{"place_id":"8163","geometry":{"type":"Point","coordinates":[12.036474275,43.946670191]},"display_name":"Rocca di Civorio,from:MIBACT","category":"attractions","type":"Rocca","importance":0.0,"icon":"","visiting_time":0.0,"opening_hours":"ok","opening_days":"ok","rating":0,"photo_url":null,"description":null,"www":"\"http://vincoliinrete.beniculturali.it/VincoliInRete/vir/bene/dettagliobene279694,http://vincoliinrete.beniculturali.it/VincoliInRete/vir/bene/dettagliobene112693\""},{"place_id":"8537","geometry":{"type":"Point","coordinates":[11.911787981,43.945794562]},"display_name":"Palazzo castello dei Mortani-Bianchini,from:MIBACT","category":"attractions","type":"Palazzo","importance":0.7,"icon":"","visiting_time":0.0,"opening_hours":"ok","opening_days":"ok","rating":0,"photo_url":null,"description":null,"www":"\"http://vincoliinrete.beniculturali.it/VincoliInRete/vir/bene/dettagliobene341458,http://vincoliinrete.beniculturali.it/VincoliInRete/vir/bene/dettagliobene114341\""},{"place_id":"8543","geometry":{"type":"Point","coordinates":[11.907897642,43.946904074]},"display_name":"\"Palazzo Giorgi, fabbricati minori e parco\",from:MIBACT","category":"attractions","type":"Palazzo","importance":0.7,"icon":"","visiting_time":0.0,"opening_hours":"ok","opening_days":"ok","rating":0,"photo_url":null,"description":null,"www":"\"http://vincoliinrete.beniculturali.it/VincoliInRete/vir/bene/dettagliobene341388,http://vincoliinrete.beniculturali.it/VincoliInRete/vir/bene/dettagliobene114339\""},{"place_id":"8612","geometry":{"type":"Point","coordinates":[11.796900498,43.905541634]},"display_name":"Case Zanetti,from:MIBACT","category":"attractions","type":"Casa","importance":0.0,"icon":"","visiting_time":0.0,"opening_hours":"ok","opening_days":"ok","rating":0,"photo_url":null,"description":null,"www":"http://vincoliinrete.beniculturali.it/VincoliInRete/vir/bene/dettagliobene500919"},{"place_id":"8651","geometry":{"type":"Point","coordinates":[11.911602029,43.94555795]},"display_name":"Oratorio di San Filippo Neri,from:MIBACT","category":"attractions","type":"Oratorio","importance":0.0,"icon":"","visiting_time":0.0,"opening_hours":"ok","opening_days":"ok","rating":0,"photo_url":null,"description":null,"www":null},{"place_id":"8880","geometry":{"type":"Point","coordinates":[11.84200881,43.905983696]},"display_name":"Casa rurale Lavertorta e pertinenze,from:MIBACT","category":"attractions","type":"Casa","importance":0.0,"icon":"","visiting_time":0.0,"opening_hours":"ok","opening_days":"ok","rating":0,"photo_url":null,"description":null,"www":null},{"place_id":"9364","geometry":{"type":"Point","coordinates":[11.912722736,43.945593784]},"display_name":"Pertinenze del Palazzo castello Mortani - Bianchini,from:MIBACT","category":"attractions","type":"Mulino","importance":0.7,"icon":"","visiting_time":0.0,"opening_hours":"ok","opening_days":"ok","rating":0,"photo_url":null,"description":null,"www":null},{"place_id":"9005","geometry":{"type":"Point","coordinates":[11.7830782,43.979848744]},"display_name":"Pieve e canonica di San Martino,from:MIBACT","category":"attractions","type":"Chiesa","importance":0.9,"icon":"","visiting_time":0.0,"opening_hours":"ok","opening_days":"ok","rating":0,"photo_url":null,"description":null,"www":"\"http://vincoliinrete.beniculturali.it/VincoliInRete/vir/bene/dettagliobene18689,http://vincoliinrete.beniculturali.it/VincoliInRete/vir/bene/dettagliobene230223\""},{"place_id":"18152","geometry":{"type":"Point","coordinates":[11.777103092,43.97699949]},"display_name":"Porta Fiorentina,from:MIBACT","category":"attractions","type":"Porta","importance":0.0,"icon":"","visiting_time":0.0,"opening_hours":"ok","opening_days":"ok","rating":0,"photo_url":null,"description":null,"www":"http://vincoliinrete.beniculturali.it/VincoliInRete/vir/bene/dettagliobene18681"},{"place_id":"16160","geometry":{"type":"Point","coordinates":[11.968860334,43.854237046]},"display_name":"Chiesa della Madonna di Corzano,from:MIBACT","category":"attractions","type":"Chiesa","importance":0.7,"icon":"","visiting_time":0.0,"opening_hours":"ok","opening_days":"ok","rating":0,"photo_url":null,"description":null,"www":"http://vincoliinrete.beniculturali.it/VincoliInRete/vir/bene/dettagliobene90615"}]