[{"place_id":"62524792","geometry":{"type":"Point","coordinates":[9.4670722,44.5610561]},"display_name":"Panorama, 198, Santo Stefano d'Aveto, GE, LIG, Italia","category":"attractions","type":"attraction","importance":0.001,"icon":"http://nominatim.openstreetmap.org/images/mapicons/poi_point_of_interest.p.20.png","visiting_time":30.0,"opening_hours":null,"opening_days":null,"rating":0,"photo_url":null,"description":null,"www":null},{"place_id":"63754603","geometry":{"type":"Point","coordinates":[9.4660782,44.5617536]},"display_name":"Panorama, 198, Santo Stefano d'Aveto, GE, LIG, Italia","category":"attractions","type":"viewpoint","importance":0.001,"icon":"http://nominatim.openstreetmap.org/images/mapicons/tourist_view_point.p.20.png","visiting_time":10.0,"opening_hours":null,"opening_days":null,"rating":0,"photo_url":null,"description":null,"www":null},{"place_id":"60874003","geometry":{"type":"Point","coordinates":[9.5074494,44.5956251]},"display_name":"Trattoria Cavanna, 005, Ferriere, PC, EMR, 29024, Italia","category":"eating","type":"restaurant","importance":0.001,"icon":"http://nominatim.openstreetmap.org/images/mapicons/food_restaurant.p.20.png","visiting_time":60.0,"opening_hours":null,"opening_days":null,"rating":0,"photo_url":null,"description":null,"www":null},{"place_id":"7618187","geometry":{"type":"Point","coordinates":[9.5013837,44.5778797]},"display_name":"Ristorante Lago Nero, Strada Provinciale di Val Nure, Ferriere, PC, EMR, Italia","category":"eating","type":"restaurant","importance":0.001,"icon":"http://nominatim.openstreetmap.org/images/mapicons/food_restaurant.p.20.png","visiting_time":60.0,"opening_hours":null,"opening_days":null,"rating":0,"photo_url":null,"description":null,"www":null},{"place_id":"55698114","geometry":{"type":"Point","coordinates":[9.576091,44.6353075]},"display_name":"Osteria Dallavalle, 033, Ferriere, PC, EMR, 29024, Italia","category":"eating","type":"restaurant","importance":0.001,"icon":"http://nominatim.openstreetmap.org/images/mapicons/food_restaurant.p.20.png","visiting_time":60.0,"opening_hours":null,"opening_days":null,"rating":0,"photo_url":null,"description":null,"www":null},{"place_id":"15251793","geometry":{"type":"Point","coordinates":[9.5834613,44.5962281]},"display_name":"da Milietto, 801b, Vosina, Bardi, PR, EMR, Italia","category":"eating","type":"restaurant","importance":0.001,"icon":"http://nominatim.openstreetmap.org/images/mapicons/food_restaurant.p.20.png","visiting_time":60.0,"opening_hours":null,"opening_days":null,"rating":0,"photo_url":null,"description":null,"www":null},{"place_id":"55322010","geometry":{"type":"Point","coordinates":[9.5988096,44.695592]},"display_name":"Ristorante Italia, 82-84, Viale Europa - Groppallo, Farini, PC, EMR, 29020, Italia","category":"eating","type":"restaurant","importance":0.001,"icon":"http://nominatim.openstreetmap.org/images/mapicons/food_restaurant.p.20.png","visiting_time":60.0,"opening_hours":null,"opening_days":null,"rating":0,"photo_url":null,"description":null,"www":null},{"place_id":"55201840","geometry":{"type":"Point","coordinates":[9.5970463,44.6951104]},"display_name":"Fratelli Salini, 46, Viale Europa - Groppallo, Farini, PC, EMR, 29020, Italia","category":"eating","type":"restaurant","importance":0.001,"icon":"http://nominatim.openstreetmap.org/images/mapicons/food_restaurant.p.20.png","visiting_time":60.0,"opening_hours":null,"opening_days":null,"rating":0,"photo_url":null,"description":null,"www":null},{"place_id":"55119696","geometry":{"type":"Point","coordinates":[9.6015673,44.6968693]},"display_name":"Pizzeria trattoria Bonjour, 33, Viale Europa - Groppallo, Farini, PC, EMR, 29020, Italia","category":"eating","type":"restaurant","importance":0.001,"icon":"http://nominatim.openstreetmap.org/images/mapicons/food_restaurant.p.20.png","visiting_time":60.0,"opening_hours":null,"opening_days":null,"rating":0,"photo_url":null,"description":null,"www":null},{"place_id":"50879837","geometry":{"type":"Point","coordinates":[9.4950525,44.6925769]},"display_name":"Agriturismo Le Sermase, SP57, Farini, PC, EMR, Italia","category":"eating","type":"restaurant","importance":0.001,"icon":"http://nominatim.openstreetmap.org/images/mapicons/food_restaurant.p.20.png","visiting_time":60.0,"opening_hours":null,"opening_days":null,"rating":0,"photo_url":null,"description":null,"www":null},{"place_id":"60874003","geometry":{"type":"Point","coordinates":[9.5074494,44.5956251]},"display_name":"Trattoria Cavanna, 005, Ferriere, PC, EMR, 29024, Italia","category":"eating","type":"restaurant","importance":0.001,"icon":"http://nominatim.openstreetmap.org/images/mapicons/food_restaurant.p.20.png","visiting_time":60.0,"opening_hours":null,"opening_days":null,"rating":0,"photo_url":null,"description":null,"www":null},{"place_id":"7618187","geometry":{"type":"Point","coordinates":[9.5013837,44.5778797]},"display_name":"Ristorante Lago Nero, Strada Provinciale di Val Nure, Ferriere, PC, EMR, Italia","category":"eating","type":"restaurant","importance":0.001,"icon":"http://nominatim.openstreetmap.org/images/mapicons/food_restaurant.p.20.png","visiting_time":60.0,"opening_hours":null,"opening_days":null,"rating":0,"photo_url":null,"description":null,"www":null},{"place_id":"55698114","geometry":{"type":"Point","coordinates":[9.576091,44.6353075]},"display_name":"Osteria Dallavalle, 033, Ferriere, PC, EMR, 29024, Italia","category":"eating","type":"restaurant","importance":0.001,"icon":"http://nominatim.openstreetmap.org/images/mapicons/food_restaurant.p.20.png","visiting_time":60.0,"opening_hours":null,"opening_days":null,"rating":0,"photo_url":null,"description":null,"www":null},{"place_id":"15251793","geometry":{"type":"Point","coordinates":[9.5834613,44.5962281]},"display_name":"da Milietto, 801b, Vosina, Bardi, PR, EMR, Italia","category":"eating","type":"restaurant","importance":0.001,"icon":"http://nominatim.openstreetmap.org/images/mapicons/food_restaurant.p.20.png","visiting_time":60.0,"opening_hours":null,"opening_days":null,"rating":0,"photo_url":null,"description":null,"www":null},{"place_id":"55322010","geometry":{"type":"Point","coordinates":[9.5988096,44.695592]},"display_name":"Ristorante Italia, 82-84, Viale Europa - Groppallo, Farini, PC, EMR, 29020, Italia","category":"eating","type":"restaurant","importance":0.001,"icon":"http://nominatim.openstreetmap.org/images/mapicons/food_restaurant.p.20.png","visiting_time":60.0,"opening_hours":null,"opening_days":null,"rating":0,"photo_url":null,"description":null,"www":null},{"place_id":"55201840","geometry":{"type":"Point","coordinates":[9.5970463,44.6951104]},"display_name":"Fratelli Salini, 46, Viale Europa - Groppallo, Farini, PC, EMR, 29020, Italia","category":"eating","type":"restaurant","importance":0.001,"icon":"http://nominatim.openstreetmap.org/images/mapicons/food_restaurant.p.20.png","visiting_time":60.0,"opening_hours":null,"opening_days":null,"rating":0,"photo_url":null,"description":null,"www":null},{"place_id":"55119696","geometry":{"type":"Point","coordinates":[9.6015673,44.6968693]},"display_name":"Pizzeria trattoria Bonjour, 33, Viale Europa - Groppallo, Farini, PC, EMR, 29020, Italia","category":"eating","type":"restaurant","importance":0.001,"icon":"http://nominatim.openstreetmap.org/images/mapicons/food_restaurant.p.20.png","visiting_time":60.0,"opening_hours":null,"opening_days":null,"rating":0,"photo_url":null,"description":null,"www":null},{"place_id":"50879837","geometry":{"type":"Point","coordinates":[9.4950525,44.6925769]},"display_name":"Agriturismo Le Sermase, SP57, Farini, PC, EMR, Italia","category":"eating","type":"restaurant","importance":0.001,"icon":"http://nominatim.openstreetmap.org/images/mapicons/food_restaurant.p.20.png","visiting_time":60.0,"opening_hours":null,"opening_days":null,"rating":0,"photo_url":null,"description":null,"www":null},{"place_id":"55730437","geometry":{"type":"Point","coordinates":[9.6002199,44.6957649]},"display_name":"via Giuseppe Garibaldi, Farini, PC, EMR, Italia","category":"lifestyle","type":"bar","importance":0.001,"icon":"http://nominatim.openstreetmap.org/images/mapicons/food_bar.p.20.png","visiting_time":10.0,"opening_hours":null,"opening_days":null,"rating":0,"photo_url":null,"description":null,"www":null},{"place_id":"55730437","geometry":{"type":"Point","coordinates":[9.6002199,44.6957649]},"display_name":"via Giuseppe Garibaldi, Farini, PC, EMR, Italia","category":"lifestyle","type":"bar","importance":0.001,"icon":"http://nominatim.openstreetmap.org/images/mapicons/food_bar.p.20.png","visiting_time":90.0,"opening_hours":null,"opening_days":null,"rating":0,"photo_url":null,"description":null,"www":null},{"place_id":"180169053","geometry":{"type":"Point","coordinates":[-8.3350726,43.2233149]},"display_name":"Abegondo, Galicia, CAFE, España","category":"lifestyle","type":"postcode","importance":0.2125,"icon":null,"visiting_time":10.0,"opening_hours":null,"opening_days":null,"rating":0,"photo_url":null,"description":null,"www":null},{"place_id":"85142070","geometry":{"type":"Point","coordinates":[9.446039814,44.57408235]},"display_name":"Centro Sportivo e Ricreativo di Torrio, Ferriere, PC, EMR, Italia","category":"parks","type":"park","importance":0.15,"icon":null,"visiting_time":90.0,"opening_hours":null,"opening_days":null,"rating":0,"photo_url":null,"description":null,"www":null},{"place_id":"147266107","geometry":{"type":"Point","coordinates":[9.428750924,44.5677857]},"display_name":"SS586, Santo Stefano d'Aveto, GE, LIG, Italia","category":"attractions","type":"place_of_worship","importance":0.13958298,"icon":"http://nominatim.openstreetmap.org/images/mapicons/place_of_worship_unknown3.p.20.png","visiting_time":30.0,"opening_hours":null,"opening_days":null,"rating":0,"photo_url":null,"description":null,"www":null},{"place_id":"151008984","geometry":{"type":"Point","coordinates":[9.394554557,44.55853865]},"display_name":"Oratorio di San Rocco, SP72, Casareto, Rezzoaglio, GE, LIG, Italia","category":"attractions","type":"place_of_worship","importance":0.10803387,"icon":"http://nominatim.openstreetmap.org/images/mapicons/place_of_worship_unknown3.p.20.png","visiting_time":30.0,"opening_hours":null,"opening_days":null,"rating":0,"photo_url":null,"description":null,"www":null},{"place_id":"150389783","geometry":{"type":"Point","coordinates":[9.396709169,44.56179685]},"display_name":"SP72, Casareto, Rezzoaglio, GE, LIG, Italia","category":"attractions","type":"place_of_worship","importance":0.001,"icon":"http://nominatim.openstreetmap.org/images/mapicons/place_of_worship_unknown3.p.20.png","visiting_time":30.0,"opening_hours":null,"opening_days":null,"rating":0,"photo_url":null,"description":null,"www":null},{"place_id":"112436934","geometry":{"type":"Point","coordinates":[9.445975385,44.5784058]},"display_name":"107a, Ferriere, PC, EMR, Italia","category":"attractions","type":"place_of_worship","importance":0.001,"icon":"http://nominatim.openstreetmap.org/images/mapicons/place_of_worship_unknown3.p.20.png","visiting_time":30.0,"opening_hours":null,"opening_days":null,"rating":0,"photo_url":null,"description":null,"www":null},{"place_id":"112979918","geometry":{"type":"Point","coordinates":[9.577730238,44.6355803]},"display_name":"033, Ferriere, PC, EMR, Italia","category":"attractions","type":"place_of_worship","importance":0.001,"icon":"http://nominatim.openstreetmap.org/images/mapicons/place_of_worship_unknown3.p.20.png","visiting_time":30.0,"opening_hours":null,"opening_days":null,"rating":0,"photo_url":null,"description":null,"www":null},{"place_id":"128890186","geometry":{"type":"Point","coordinates":[9.57511461,44.6294646]},"display_name":"Mestà, 033, Ferriere, PC, EMR, Italia","category":"attractions","type":"place_of_worship","importance":0.001,"icon":"http://nominatim.openstreetmap.org/images/mapicons/place_of_worship_unknown3.p.20.png","visiting_time":30.0,"opening_hours":null,"opening_days":null,"rating":0,"photo_url":null,"description":null,"www":null},{"place_id":"52170569","geometry":{"type":"Point","coordinates":[9.5920131,44.5922248]},"display_name":"Strada Comunale Pione - Santa Giustina, Vosina, Bardi, PR, EMR, Italia","category":"attractions","type":"place_of_worship","importance":0.001,"icon":"http://nominatim.openstreetmap.org/images/mapicons/place_of_worship_unknown3.p.20.png","visiting_time":30.0,"opening_hours":null,"opening_days":null,"rating":0,"photo_url":null,"description":null,"www":null},{"place_id":"92266992","geometry":{"type":"Point","coordinates":[9.597035593,44.6961128]},"display_name":"Viale Europa - Groppallo, Farini, PC, EMR, Italia","category":"attractions","type":"place_of_worship","importance":0.001,"icon":"http://nominatim.openstreetmap.org/images/mapicons/place_of_worship_unknown3.p.20.png","visiting_time":30.0,"opening_hours":null,"opening_days":null,"rating":0,"photo_url":null,"description":null,"www":null},{"place_id":"147266107","geometry":{"type":"Point","coordinates":[9.428750924,44.5677857]},"display_name":"SS586, Santo Stefano d'Aveto, GE, LIG, Italia","category":"attractions","type":"place_of_worship","importance":0.13958298,"icon":"http://nominatim.openstreetmap.org/images/mapicons/place_of_worship_unknown3.p.20.png","visiting_time":30.0,"opening_hours":null,"opening_days":null,"rating":0,"photo_url":null,"description":null,"www":null},{"place_id":"151008984","geometry":{"type":"Point","coordinates":[9.394554557,44.55853865]},"display_name":"Oratorio di San Rocco, SP72, Casareto, Rezzoaglio, GE, LIG, Italia","category":"attractions","type":"place_of_worship","importance":0.10803387,"icon":"http://nominatim.openstreetmap.org/images/mapicons/place_of_worship_unknown3.p.20.png","visiting_time":30.0,"opening_hours":null,"opening_days":null,"rating":0,"photo_url":null,"description":null,"www":null},{"place_id":"150389783","geometry":{"type":"Point","coordinates":[9.396709169,44.56179685]},"display_name":"SP72, Casareto, Rezzoaglio, GE, LIG, Italia","category":"attractions","type":"place_of_worship","importance":0.001,"icon":"http://nominatim.openstreetmap.org/images/mapicons/place_of_worship_unknown3.p.20.png","visiting_time":30.0,"opening_hours":null,"opening_days":null,"rating":0,"photo_url":null,"description":null,"www":null},{"place_id":"112436934","geometry":{"type":"Point","coordinates":[9.445975385,44.5784058]},"display_name":"107a, Ferriere, PC, EMR, Italia","category":"attractions","type":"place_of_worship","importance":0.001,"icon":"http://nominatim.openstreetmap.org/images/mapicons/place_of_worship_unknown3.p.20.png","visiting_time":30.0,"opening_hours":null,"opening_days":null,"rating":0,"photo_url":null,"description":null,"www":null},{"place_id":"112979918","geometry":{"type":"Point","coordinates":[9.577730238,44.6355803]},"display_name":"033, Ferriere, PC, EMR, Italia","category":"attractions","type":"place_of_worship","importance":0.001,"icon":"http://nominatim.openstreetmap.org/images/mapicons/place_of_worship_unknown3.p.20.png","visiting_time":30.0,"opening_hours":null,"opening_days":null,"rating":0,"photo_url":null,"description":null,"www":null},{"place_id":"128890186","geometry":{"type":"Point","coordinates":[9.57511461,44.6294646]},"display_name":"Mestà, 033, Ferriere, PC, EMR, Italia","category":"attractions","type":"place_of_worship","importance":0.001,"icon":"http://nominatim.openstreetmap.org/images/mapicons/place_of_worship_unknown3.p.20.png","visiting_time":30.0,"opening_hours":null,"opening_days":null,"rating":0,"photo_url":null,"description":null,"www":null},{"place_id":"52170569","geometry":{"type":"Point","coordinates":[9.5920131,44.5922248]},"display_name":"Strada Comunale Pione - Santa Giustina, Vosina, Bardi, PR, EMR, Italia","category":"attractions","type":"place_of_worship","importance":0.001,"icon":"http://nominatim.openstreetmap.org/images/mapicons/place_of_worship_unknown3.p.20.png","visiting_time":30.0,"opening_hours":null,"opening_days":null,"rating":0,"photo_url":null,"description":null,"www":null},{"place_id":"92266992","geometry":{"type":"Point","coordinates":[9.597035593,44.6961128]},"display_name":"Viale Europa - Groppallo, Farini, PC, EMR, Italia","category":"attractions","type":"place_of_worship","importance":0.001,"icon":"http://nominatim.openstreetmap.org/images/mapicons/place_of_worship_unknown3.p.20.png","visiting_time":30.0,"opening_hours":null,"opening_days":null,"rating":0,"photo_url":null,"description":null,"www":null},{"place_id":"7632139","geometry":{"type":"Point","coordinates":[9.5012015,44.578003]},"display_name":"Albergo Lago Nero, Strada Provinciale di Val Nure, Ferriere, PC, EMR, Italia","category":"resting","type":"hotel","importance":0.001,"icon":"http://nominatim.openstreetmap.org/images/mapicons/accommodation_hotel2.p.20.png","visiting_time":10.0,"opening_hours":null,"opening_days":null,"rating":0,"photo_url":null,"description":null,"www":null},{"place_id":"55325229","geometry":{"type":"Point","coordinates":[9.5969929,44.695109]},"display_name":"Fatelli Salini, 46, via Camillo Cavour, Farini, PC, EMR, 29020, Italia","category":"resting","type":"hotel","importance":0.001,"icon":"http://nominatim.openstreetmap.org/images/mapicons/accommodation_hotel2.p.20.png","visiting_time":10.0,"opening_hours":null,"opening_days":null,"rating":0,"photo_url":null,"description":null,"www":null},{"place_id":"54253236","geometry":{"type":"Point","coordinates":[9.4903716,44.6363801]},"display_name":"Rocca dei Folli Village, Strada Provinciale di Val Nure, Ferriere, PC, EMR, 29024, Italia","category":"resting","type":"camp_site","importance":0.001,"icon":null,"visiting_time":10.0,"opening_hours":null,"opening_days":null,"rating":0,"photo_url":null,"description":null,"www":null}]