[{"place_id":"16828","geometry":{"type":"Point","coordinates":[11.669024953,44.179188899]},"display_name":"Chiesa di Santa Maria in Gorgognano,from:MIBACT","category":"attractions","type":"Chiesa","importance":0.0,"icon":"","visiting_time":0.0,"opening_hours":"ok","opening_days":"ok","rating":0,"photo_url":null,"description":null,"www":null},{"place_id":"9240","geometry":{"type":"Point","coordinates":[11.646751018,44.160348605]},"display_name":"\"Casa rurale \"\"Ca' Malanca\"\"\",from:MIBACT","category":"attractions","type":"Casa","importance":0.7,"icon":"","visiting_time":0.0,"opening_hours":"ok","opening_days":"ok","rating":0,"photo_url":null,"description":null,"www":null},{"place_id":"9133","geometry":{"type":"Point","coordinates":[11.548402683,44.161415037]},"display_name":"Chiesa e canonica di Santa Maria Assunta,from:MIBACT","category":"attractions","type":"Chiesa","importance":0.4,"icon":"","visiting_time":0.0,"opening_hours":"ok","opening_days":"ok","rating":0,"photo_url":null,"description":null,"www":"\"http://vincoliinrete.beniculturali.it/VincoliInRete/vir/bene/dettagliobene87652,http://vincoliinrete.beniculturali.it/VincoliInRete/vir/bene/dettagliobene137757\""},{"place_id":"17005","geometry":{"type":"Point","coordinates":[11.672739449,44.200004146]},"display_name":"Chiesa di San Pietro,from:MIBACT","category":"attractions","type":"Chiesa","importance":0.0,"icon":"","visiting_time":0.0,"opening_hours":"ok","opening_days":"ok","rating":0,"photo_url":null,"description":null,"www":"http://vincoliinrete.beniculturali.it/VincoliInRete/vir/bene/dettagliobene90067"},{"place_id":"14096","geometry":{"type":"Point","coordinates":[11.684197923,44.168668155]},"display_name":"Chiesa di Sant'Eufemia,from:MIBACT","category":"attractions","type":"Chiesa","importance":0.0,"icon":"","visiting_time":0.0,"opening_hours":"ok","opening_days":"ok","rating":0,"photo_url":null,"description":null,"www":null},{"place_id":"8574","geometry":{"type":"Point","coordinates":[11.684501557,44.168523126]},"display_name":"Casa canonica con caminetto dei Manfredi a S. Eufemia,from:MIBACT","category":"attractions","type":"Canonica","importance":0.0,"icon":"","visiting_time":0.0,"opening_hours":"ok","opening_days":"ok","rating":0,"photo_url":null,"description":null,"www":"\"http://vincoliinrete.beniculturali.it/VincoliInRete/vir/bene/dettagliobene379010,http://vincoliinrete.beniculturali.it/VincoliInRete/vir/bene/dettagliobene92038\""},{"place_id":"8141","geometry":{"type":"Point","coordinates":[11.638447459,44.236986165]},"display_name":"\"Oratorio e villa \"\"Il Giardino\"\"\",from:MIBACT","category":"attractions","type":"Villa","importance":0.7,"icon":"","visiting_time":0.0,"opening_hours":"ok","opening_days":"ok","rating":0,"photo_url":null,"description":null,"www":"\"http://vincoliinrete.beniculturali.it/VincoliInRete/vir/bene/dettagliobene87411,http://vincoliinrete.beniculturali.it/VincoliInRete/vir/bene/dettagliobene225867\""},{"place_id":"8892","geometry":{"type":"Point","coordinates":[11.685916464,44.164213854]},"display_name":"Ca' dell'Oste,from:MIBACT","category":"attractions","type":"Casa","importance":0.0,"icon":"","visiting_time":0.0,"opening_hours":"ok","opening_days":"ok","rating":0,"photo_url":null,"description":null,"www":"\"http://vincoliinrete.beniculturali.it/VincoliInRete/vir/bene/dettagliobene328908,http://vincoliinrete.beniculturali.it/VincoliInRete/vir/bene/dettagliobene92030\""},{"place_id":"7997","geometry":{"type":"Point","coordinates":[11.677279677,44.205879708]},"display_name":"Torre Cavina,from:MIBACT","category":"attractions","type":"Torre","importance":0.0,"icon":"","visiting_time":0.0,"opening_hours":"ok","opening_days":"ok","rating":0,"photo_url":null,"description":null,"www":null},{"place_id":"8848","geometry":{"type":"Point","coordinates":[11.642467636,44.238331392]},"display_name":"Abbazia di Valsenio,from:MIBACT","category":"attractions","type":"Chiesa","importance":0.7,"icon":"","visiting_time":0.0,"opening_hours":"ok","opening_days":"ok","rating":0,"photo_url":null,"description":null,"www":"http://vincoliinrete.beniculturali.it/VincoliInRete/vir/bene/dettagliobene213991"},{"place_id":"8598","geometry":{"type":"Point","coordinates":[11.656365451,44.181020265]},"display_name":"Castello di Calamello,from:MIBACT","category":"attractions","type":"Rocca","importance":0.7,"icon":"","visiting_time":0.0,"opening_hours":"ok","opening_days":"ok","rating":0,"photo_url":null,"description":null,"www":"\"http://vincoliinrete.beniculturali.it/VincoliInRete/vir/bene/dettagliobene205792,http://vincoliinrete.beniculturali.it/VincoliInRete/vir/bene/dettagliobene91996,http://vincoliinrete.beniculturali.it/VincoliInRete/vir/bene/dettagliobene273107\""},{"place_id":"7882","geometry":{"type":"Point","coordinates":[11.626062326,44.154735927]},"display_name":"Castello di Fornazzano,from:MIBACT","category":"attractions","type":"Rocca","importance":0.4,"icon":"","visiting_time":0.0,"opening_hours":"ok","opening_days":"ok","rating":0,"photo_url":null,"description":null,"www":"http://vincoliinrete.beniculturali.it/VincoliInRete/vir/bene/dettagliobene92036"}]