[{"place_id":"48887982","geometry":{"type":"Point","coordinates":[9.3176404,44.7850597]},"display_name":"CAI 1, Casa Piazza, Menconico, PV, LOM, Italia","category":"attractions","type":"viewpoint","importance":0.001,"icon":"http://nominatim.openstreetmap.org/images/mapicons/tourist_view_point.p.20.png","visiting_time":10.0,"opening_hours":null,"opening_days":null,"rating":0,"photo_url":null,"description":null,"www":null},{"place_id":"63316059","geometry":{"type":"Point","coordinates":[9.3297341,44.7959273]},"display_name":"Strada Statale del Passo Penice, La Croce, Bobbio, PC, EMR, 29022, Italia","category":"attractions","type":"viewpoint","importance":0.001,"icon":"http://nominatim.openstreetmap.org/images/mapicons/tourist_view_point.p.20.png","visiting_time":10.0,"opening_hours":null,"opening_days":null,"rating":0,"photo_url":null,"description":null,"www":null},{"place_id":"58321926","geometry":{"type":"Point","coordinates":[9.3827909,44.7482912]},"display_name":"Strada Statale di Val Trebbia, Bobbio, PC, EMR, 29022, Italia","category":"attractions","type":"viewpoint","importance":0.001,"icon":"http://nominatim.openstreetmap.org/images/mapicons/tourist_view_point.p.20.png","visiting_time":10.0,"opening_hours":null,"opening_days":null,"rating":0,"photo_url":null,"description":null,"www":null},{"place_id":"48607266","geometry":{"type":"Point","coordinates":[9.3243342,44.8049119]},"display_name":"Ristorante Penice, SPexSS412, Villa Penicina, Romagnese, PV, LOM, Italia","category":"eating","type":"restaurant","importance":0.001,"icon":"http://nominatim.openstreetmap.org/images/mapicons/food_restaurant.p.20.png","visiting_time":60.0,"opening_hours":null,"opening_days":null,"rating":0,"photo_url":null,"description":null,"www":null},{"place_id":"48159300","geometry":{"type":"Point","coordinates":[9.3233823,44.8082131]},"display_name":"Ristorante Bar Alpe, SPexSS412, Casa Novelli, Romagnese, PV, LOM, Italia","category":"eating","type":"restaurant","importance":0.001,"icon":"http://nominatim.openstreetmap.org/images/mapicons/food_restaurant.p.20.png","visiting_time":60.0,"opening_hours":null,"opening_days":null,"rating":0,"photo_url":null,"description":null,"www":null},{"place_id":"48181845","geometry":{"type":"Point","coordinates":[9.2943758,44.7739166]},"display_name":"Trattoria Ristorante Scaparina - Da Giüsèp, SP89, Casa Piazza, Menconico, PC, LOM, Italia","category":"eating","type":"restaurant","importance":0.001,"icon":"http://nominatim.openstreetmap.org/images/mapicons/food_restaurant.p.20.png","visiting_time":60.0,"opening_hours":null,"opening_days":null,"rating":0,"photo_url":null,"description":null,"www":null},{"place_id":"112695759","geometry":{"type":"Point","coordinates":[9.381518248,44.7589409]},"display_name":"Strada Statale di Val Trebbia, Bobbio, PC, EMR, 29022, Italia","category":"eating","type":"restaurant","importance":0.001,"icon":"http://nominatim.openstreetmap.org/images/mapicons/food_restaurant.p.20.png","visiting_time":60.0,"opening_hours":null,"opening_days":null,"rating":0,"photo_url":null,"description":null,"www":null},{"place_id":"112869986","geometry":{"type":"Point","coordinates":[9.427695919,44.80835275]},"display_name":"Ristorante Albergo da Ranella, strada del Moione, Bobbio, PC, EMR, Italia","category":"eating","type":"restaurant","importance":0.001,"icon":"http://nominatim.openstreetmap.org/images/mapicons/food_restaurant.p.20.png","visiting_time":60.0,"opening_hours":null,"opening_days":null,"rating":0,"photo_url":null,"description":null,"www":null},{"place_id":"114085875","geometry":{"type":"Point","coordinates":[9.3928488,44.76719145]},"display_name":"Ponte Gobbo, Bobbio, PC, EMR, 29022, Italia","category":"eating","type":"restaurant","importance":0.001,"icon":"http://nominatim.openstreetmap.org/images/mapicons/food_restaurant.p.20.png","visiting_time":60.0,"opening_hours":null,"opening_days":null,"rating":0,"photo_url":null,"description":null,"www":null},{"place_id":"112073983","geometry":{"type":"Point","coordinates":[9.38856605,44.77278845]},"display_name":"Pizzeria, Via Aldo Moro, La Croce, Bobbio, PC, EMR, 29022, Italia","category":"eating","type":"restaurant","importance":0.001,"icon":"http://nominatim.openstreetmap.org/images/mapicons/food_restaurant.p.20.png","visiting_time":60.0,"opening_hours":null,"opening_days":null,"rating":0,"photo_url":null,"description":null,"www":null},{"place_id":"53804440","geometry":{"type":"Point","coordinates":[9.3864344,44.7690649]},"display_name":"il Piacentino, Strada Foresta, Bobbio, PC, EMR, 29022, Italia","category":"eating","type":"restaurant","importance":0.001,"icon":"http://nominatim.openstreetmap.org/images/mapicons/food_restaurant.p.20.png","visiting_time":60.0,"opening_hours":null,"opening_days":null,"rating":0,"photo_url":null,"description":null,"www":null},{"place_id":"53551403","geometry":{"type":"Point","coordinates":[9.3280745,44.7974297]},"display_name":"lo Scarpone, SP461 R, Bobbio, PC, EMR, Italia","category":"eating","type":"restaurant","importance":0.001,"icon":"http://nominatim.openstreetmap.org/images/mapicons/food_restaurant.p.20.png","visiting_time":60.0,"opening_hours":null,"opening_days":null,"rating":0,"photo_url":null,"description":null,"www":null},{"place_id":"47270214","geometry":{"type":"Point","coordinates":[9.3088058,44.7264987]},"display_name":"Ristorante Roma, SP186, Molino Prenzone, Brallo di Pregola, PV, LOM, Italia","category":"eating","type":"restaurant","importance":0.001,"icon":"http://nominatim.openstreetmap.org/images/mapicons/food_restaurant.p.20.png","visiting_time":60.0,"opening_hours":null,"opening_days":null,"rating":0,"photo_url":null,"description":null,"www":null},{"place_id":"53372885","geometry":{"type":"Point","coordinates":[9.4368776,44.8340284]},"display_name":"Costa Filietto, SP65, C. Il Poggio, Piozzano, PC, EMR, Italia","category":"eating","type":"restaurant","importance":0.001,"icon":"http://nominatim.openstreetmap.org/images/mapicons/food_restaurant.p.20.png","visiting_time":60.0,"opening_hours":null,"opening_days":null,"rating":0,"photo_url":null,"description":null,"www":null},{"place_id":"112810326","geometry":{"type":"Point","coordinates":[9.454693626,44.77569785]},"display_name":"sentiero esposto, Coli, PC, EMR, Italia","category":"eating","type":"restaurant","importance":0.001,"icon":"http://nominatim.openstreetmap.org/images/mapicons/food_restaurant.p.20.png","visiting_time":60.0,"opening_hours":null,"opening_days":null,"rating":0,"photo_url":null,"description":null,"www":null},{"place_id":"48607266","geometry":{"type":"Point","coordinates":[9.3243342,44.8049119]},"display_name":"Ristorante Penice, SPexSS412, Villa Penicina, Romagnese, PV, LOM, Italia","category":"eating","type":"restaurant","importance":0.001,"icon":"http://nominatim.openstreetmap.org/images/mapicons/food_restaurant.p.20.png","visiting_time":60.0,"opening_hours":null,"opening_days":null,"rating":0,"photo_url":null,"description":null,"www":null},{"place_id":"48159300","geometry":{"type":"Point","coordinates":[9.3233823,44.8082131]},"display_name":"Ristorante Bar Alpe, SPexSS412, Casa Novelli, Romagnese, PV, LOM, Italia","category":"eating","type":"restaurant","importance":0.001,"icon":"http://nominatim.openstreetmap.org/images/mapicons/food_restaurant.p.20.png","visiting_time":60.0,"opening_hours":null,"opening_days":null,"rating":0,"photo_url":null,"description":null,"www":null},{"place_id":"48181845","geometry":{"type":"Point","coordinates":[9.2943758,44.7739166]},"display_name":"Trattoria Ristorante Scaparina - Da Giüsèp, SP89, Casa Piazza, Menconico, PC, LOM, Italia","category":"eating","type":"restaurant","importance":0.001,"icon":"http://nominatim.openstreetmap.org/images/mapicons/food_restaurant.p.20.png","visiting_time":60.0,"opening_hours":null,"opening_days":null,"rating":0,"photo_url":null,"description":null,"www":null},{"place_id":"112695759","geometry":{"type":"Point","coordinates":[9.381518248,44.7589409]},"display_name":"Strada Statale di Val Trebbia, Bobbio, PC, EMR, 29022, Italia","category":"eating","type":"restaurant","importance":0.001,"icon":"http://nominatim.openstreetmap.org/images/mapicons/food_restaurant.p.20.png","visiting_time":60.0,"opening_hours":null,"opening_days":null,"rating":0,"photo_url":null,"description":null,"www":null},{"place_id":"112869986","geometry":{"type":"Point","coordinates":[9.427695919,44.80835275]},"display_name":"Ristorante Albergo da Ranella, strada del Moione, Bobbio, PC, EMR, Italia","category":"eating","type":"restaurant","importance":0.001,"icon":"http://nominatim.openstreetmap.org/images/mapicons/food_restaurant.p.20.png","visiting_time":60.0,"opening_hours":null,"opening_days":null,"rating":0,"photo_url":null,"description":null,"www":null},{"place_id":"114085875","geometry":{"type":"Point","coordinates":[9.3928488,44.76719145]},"display_name":"Ponte Gobbo, Bobbio, PC, EMR, 29022, Italia","category":"eating","type":"restaurant","importance":0.001,"icon":"http://nominatim.openstreetmap.org/images/mapicons/food_restaurant.p.20.png","visiting_time":60.0,"opening_hours":null,"opening_days":null,"rating":0,"photo_url":null,"description":null,"www":null},{"place_id":"112073983","geometry":{"type":"Point","coordinates":[9.38856605,44.77278845]},"display_name":"Pizzeria, Via Aldo Moro, La Croce, Bobbio, PC, EMR, 29022, Italia","category":"eating","type":"restaurant","importance":0.001,"icon":"http://nominatim.openstreetmap.org/images/mapicons/food_restaurant.p.20.png","visiting_time":60.0,"opening_hours":null,"opening_days":null,"rating":0,"photo_url":null,"description":null,"www":null},{"place_id":"53804440","geometry":{"type":"Point","coordinates":[9.3864344,44.7690649]},"display_name":"il Piacentino, Strada Foresta, Bobbio, PC, EMR, 29022, Italia","category":"eating","type":"restaurant","importance":0.001,"icon":"http://nominatim.openstreetmap.org/images/mapicons/food_restaurant.p.20.png","visiting_time":60.0,"opening_hours":null,"opening_days":null,"rating":0,"photo_url":null,"description":null,"www":null},{"place_id":"53551403","geometry":{"type":"Point","coordinates":[9.3280745,44.7974297]},"display_name":"lo Scarpone, SP461 R, Bobbio, PC, EMR, Italia","category":"eating","type":"restaurant","importance":0.001,"icon":"http://nominatim.openstreetmap.org/images/mapicons/food_restaurant.p.20.png","visiting_time":60.0,"opening_hours":null,"opening_days":null,"rating":0,"photo_url":null,"description":null,"www":null},{"place_id":"47270214","geometry":{"type":"Point","coordinates":[9.3088058,44.7264987]},"display_name":"Ristorante Roma, SP186, Molino Prenzone, Brallo di Pregola, PV, LOM, Italia","category":"eating","type":"restaurant","importance":0.001,"icon":"http://nominatim.openstreetmap.org/images/mapicons/food_restaurant.p.20.png","visiting_time":60.0,"opening_hours":null,"opening_days":null,"rating":0,"photo_url":null,"description":null,"www":null},{"place_id":"53372885","geometry":{"type":"Point","coordinates":[9.4368776,44.8340284]},"display_name":"Costa Filietto, SP65, C. Il Poggio, Piozzano, PC, EMR, Italia","category":"eating","type":"restaurant","importance":0.001,"icon":"http://nominatim.openstreetmap.org/images/mapicons/food_restaurant.p.20.png","visiting_time":60.0,"opening_hours":null,"opening_days":null,"rating":0,"photo_url":null,"description":null,"www":null},{"place_id":"112810326","geometry":{"type":"Point","coordinates":[9.454693626,44.77569785]},"display_name":"sentiero esposto, Coli, PC, EMR, Italia","category":"eating","type":"restaurant","importance":0.001,"icon":"http://nominatim.openstreetmap.org/images/mapicons/food_restaurant.p.20.png","visiting_time":60.0,"opening_hours":null,"opening_days":null,"rating":0,"photo_url":null,"description":null,"www":null},{"place_id":"114822843","geometry":{"type":"Point","coordinates":[9.383060343,44.76784955]},"display_name":"Castello Malaspina-Dal Verme, Vicolo del Torrino, La Croce, Bobbio, PC, EMR, 29022, Italia","category":"attractions","type":"castle","importance":0.16095926,"icon":"http://nominatim.openstreetmap.org/images/mapicons/tourist_castle.p.20.png","visiting_time":120.0,"opening_hours":null,"opening_days":null,"rating":0,"photo_url":null,"description":null,"www":null},{"place_id":"151002988","geometry":{"type":"Point","coordinates":[9.329285046,44.8379455]},"display_name":"Castello di Romagnese, Via Roma, Canevizza, Romagnese, PV, LOM, Italia","category":"attractions","type":"castle","importance":0.001,"icon":"http://nominatim.openstreetmap.org/images/mapicons/tourist_castle.p.20.png","visiting_time":120.0,"opening_hours":null,"opening_days":null,"rating":0,"photo_url":null,"description":null,"www":null},{"place_id":"152902642","geometry":{"type":"Point","coordinates":[9.327283132,44.83727465]},"display_name":"Via Zavattarello, Canevizza, Romagnese, PV, LOM, Italia","category":"lifestyle","type":"bar","importance":0.001,"icon":"http://nominatim.openstreetmap.org/images/mapicons/food_bar.p.20.png","visiting_time":10.0,"opening_hours":null,"opening_days":null,"rating":0,"photo_url":null,"description":null,"www":null},{"place_id":"150394258","geometry":{"type":"Point","coordinates":[9.328597713,44.8378016]},"display_name":"Piazza Castello, Canevizza, Romagnese, PV, LOM, Italia","category":"lifestyle","type":"bar","importance":0.001,"icon":"http://nominatim.openstreetmap.org/images/mapicons/food_bar.p.20.png","visiting_time":10.0,"opening_hours":null,"opening_days":null,"rating":0,"photo_url":null,"description":null,"www":null},{"place_id":"20457794","geometry":{"type":"Point","coordinates":[9.3179119,44.7852382]},"display_name":"Tra le Nuvole, CAI 1, Casa Piazza, Menconico, PV, LOM, Italia","category":"lifestyle","type":"bar","importance":0.001,"icon":"http://nominatim.openstreetmap.org/images/mapicons/food_bar.p.20.png","visiting_time":10.0,"opening_hours":null,"opening_days":null,"rating":0,"photo_url":null,"description":null,"www":null},{"place_id":"111927793","geometry":{"type":"Point","coordinates":[9.392864471,44.76739595]},"display_name":"Ponte Gobbo, Bobbio, PC, EMR, 29022, Italia","category":"lifestyle","type":"pub","importance":0.001,"icon":"http://nominatim.openstreetmap.org/images/mapicons/food_pub.p.20.png","visiting_time":10.0,"opening_hours":null,"opening_days":null,"rating":0,"photo_url":null,"description":null,"www":null},{"place_id":"114085880","geometry":{"type":"Point","coordinates":[9.386028203,44.7696009]},"display_name":"Vicolo del Torrino, La Croce, Bobbio, PC, EMR, 29022, Italia","category":"lifestyle","type":"bar","importance":0.001,"icon":"http://nominatim.openstreetmap.org/images/mapicons/food_bar.p.20.png","visiting_time":10.0,"opening_hours":null,"opening_days":null,"rating":0,"photo_url":null,"description":null,"www":null},{"place_id":"54942408","geometry":{"type":"Point","coordinates":[9.4294259,44.8086578]},"display_name":"Via Roma, Bobbio, PC, EMR, Italia","category":"lifestyle","type":"bar","importance":0.001,"icon":"http://nominatim.openstreetmap.org/images/mapicons/food_bar.p.20.png","visiting_time":10.0,"opening_hours":null,"opening_days":null,"rating":0,"photo_url":null,"description":null,"www":null},{"place_id":"152902642","geometry":{"type":"Point","coordinates":[9.327283132,44.83727465]},"display_name":"Via Zavattarello, Canevizza, Romagnese, PV, LOM, Italia","category":"lifestyle","type":"bar","importance":0.001,"icon":"http://nominatim.openstreetmap.org/images/mapicons/food_bar.p.20.png","visiting_time":90.0,"opening_hours":null,"opening_days":null,"rating":0,"photo_url":null,"description":null,"www":null},{"place_id":"150394258","geometry":{"type":"Point","coordinates":[9.328597713,44.8378016]},"display_name":"Piazza Castello, Canevizza, Romagnese, PV, LOM, Italia","category":"lifestyle","type":"bar","importance":0.001,"icon":"http://nominatim.openstreetmap.org/images/mapicons/food_bar.p.20.png","visiting_time":90.0,"opening_hours":null,"opening_days":null,"rating":0,"photo_url":null,"description":null,"www":null},{"place_id":"20457794","geometry":{"type":"Point","coordinates":[9.3179119,44.7852382]},"display_name":"Tra le Nuvole, CAI 1, Casa Piazza, Menconico, PV, LOM, Italia","category":"lifestyle","type":"bar","importance":0.001,"icon":"http://nominatim.openstreetmap.org/images/mapicons/food_bar.p.20.png","visiting_time":90.0,"opening_hours":null,"opening_days":null,"rating":0,"photo_url":null,"description":null,"www":null},{"place_id":"111927793","geometry":{"type":"Point","coordinates":[9.392864471,44.76739595]},"display_name":"Ponte Gobbo, Bobbio, PC, EMR, 29022, Italia","category":"lifestyle","type":"pub","importance":0.001,"icon":"http://nominatim.openstreetmap.org/images/mapicons/food_pub.p.20.png","visiting_time":90.0,"opening_hours":null,"opening_days":null,"rating":0,"photo_url":null,"description":null,"www":null},{"place_id":"114085880","geometry":{"type":"Point","coordinates":[9.386028203,44.7696009]},"display_name":"Vicolo del Torrino, La Croce, Bobbio, PC, EMR, 29022, Italia","category":"lifestyle","type":"bar","importance":0.001,"icon":"http://nominatim.openstreetmap.org/images/mapicons/food_bar.p.20.png","visiting_time":90.0,"opening_hours":null,"opening_days":null,"rating":0,"photo_url":null,"description":null,"www":null},{"place_id":"54942408","geometry":{"type":"Point","coordinates":[9.4294259,44.8086578]},"display_name":"Via Roma, Bobbio, PC, EMR, Italia","category":"lifestyle","type":"bar","importance":0.001,"icon":"http://nominatim.openstreetmap.org/images/mapicons/food_bar.p.20.png","visiting_time":90.0,"opening_hours":null,"opening_days":null,"rating":0,"photo_url":null,"description":null,"www":null},{"place_id":"180169053","geometry":{"type":"Point","coordinates":[-8.3350726,43.2233149]},"display_name":"Abegondo, Galicia, CAFE, España","category":"lifestyle","type":"postcode","importance":0.2125,"icon":null,"visiting_time":10.0,"opening_hours":null,"opening_days":null,"rating":0,"photo_url":null,"description":null,"www":null},{"place_id":"45225447","geometry":{"type":"Point","coordinates":[9.2980972,44.7400042]},"display_name":"Discoteca Il Giardinetto, SP186, Molino Prenzone, Brallo di Pregola, PV, LOM, Italia","category":"lifestyle","type":"nightclub","importance":0.001,"icon":null,"visiting_time":120.0,"opening_hours":null,"opening_days":null,"rating":0,"photo_url":null,"description":null,"www":null},{"place_id":"60429225","geometry":{"type":"Point","coordinates":[9.3291137,44.8380787]},"display_name":"Monumento ai caduti, Via Roma, Canevizza, Romagnese, PV, LOM, Italia","category":"attractions","type":"monument","importance":0.101,"icon":"http://nominatim.openstreetmap.org/images/mapicons/tourist_monument.p.20.png","visiting_time":10.0,"opening_hours":null,"opening_days":null,"rating":0,"photo_url":null,"description":null,"www":null},{"place_id":"56327866","geometry":{"type":"Point","coordinates":[9.3893345,44.8543742]},"display_name":"Monumento agli Alpini, SP34, Pecorara, PC, EMR, 29022, Italia","category":"attractions","type":"monument","importance":0.101,"icon":"http://nominatim.openstreetmap.org/images/mapicons/tourist_monument.p.20.png","visiting_time":10.0,"opening_hours":null,"opening_days":null,"rating":0,"photo_url":null,"description":null,"www":null},{"place_id":"56899477","geometry":{"type":"Point","coordinates":[9.3927368,44.8560146]},"display_name":"Targa ai caduti, La Bulèra (M.te Lazzaro), Pecorara, PC, EMR, Italia","category":"attractions","type":"monument","importance":0.001,"icon":"http://nominatim.openstreetmap.org/images/mapicons/tourist_monument.p.20.png","visiting_time":10.0,"opening_hours":null,"opening_days":null,"rating":0,"photo_url":null,"description":null,"www":null},{"place_id":"17784777","geometry":{"type":"Point","coordinates":[9.4605708,44.7311745]},"display_name":"Angelo di Pradovera, Cresta Monte Capra, Coli, PC, EMR, Italia","category":"attractions","type":"monument","importance":0.001,"icon":"http://nominatim.openstreetmap.org/images/mapicons/tourist_monument.p.20.png","visiting_time":10.0,"opening_hours":null,"opening_days":null,"rating":0,"photo_url":null,"description":null,"www":null},{"place_id":"152569329","geometry":{"type":"Point","coordinates":[9.323373861,44.80704635]},"display_name":"Casa Novelli, Romagnese, PV, LOM, Italia","category":"parks","type":"park","importance":0.15,"icon":null,"visiting_time":90.0,"opening_hours":null,"opening_days":null,"rating":0,"photo_url":null,"description":null,"www":null},{"place_id":"152649865","geometry":{"type":"Point","coordinates":[9.340732394,44.80642095]},"display_name":"Villa Penicina, Romagnese, PV, LOM, Italia","category":"parks","type":"park","importance":0.15,"icon":null,"visiting_time":90.0,"opening_hours":null,"opening_days":null,"rating":0,"photo_url":null,"description":null,"www":null},{"place_id":"152571610","geometry":{"type":"Point","coordinates":[9.329670155,44.8378517]},"display_name":"Canevizza, Romagnese, PV, LOM, Italia","category":"parks","type":"park","importance":0.15,"icon":null,"visiting_time":90.0,"opening_hours":null,"opening_days":null,"rating":0,"photo_url":null,"description":null,"www":null},{"place_id":"149852294","geometry":{"type":"Point","coordinates":[9.31117272,44.8034574]},"display_name":"Casa Piazza, Menconico, PV, LOM, Italia","category":"parks","type":"park","importance":0.15,"icon":null,"visiting_time":90.0,"opening_hours":null,"opening_days":null,"rating":0,"photo_url":null,"description":null,"www":null},{"place_id":"112808800","geometry":{"type":"Point","coordinates":[9.385292542,44.7679067]},"display_name":"Abbazia di San Colombano, Piazza Santa Fara, Bobbio, PC, EMR, 29022, Italia","category":"attractions","type":"place_of_worship","importance":0.36019233,"icon":"http://nominatim.openstreetmap.org/images/mapicons/place_of_worship_unknown3.p.20.png","visiting_time":30.0,"opening_hours":null,"opening_days":null,"rating":0,"photo_url":null,"description":null,"www":null},{"place_id":"112437119","geometry":{"type":"Point","coordinates":[9.349653273,44.75019005]},"display_name":"Chiesa di San Cristoforo, Sentiero dei Lupi, Corte Brugnatella, PC, LOM, 29022, Italia","category":"attractions","type":"place_of_worship","importance":0.19305532,"icon":"http://nominatim.openstreetmap.org/images/mapicons/place_of_worship_unknown3.p.20.png","visiting_time":30.0,"opening_hours":null,"opening_days":null,"rating":0,"photo_url":null,"description":null,"www":null},{"place_id":"112378695","geometry":{"type":"Point","coordinates":[9.388020586,44.7671407]},"display_name":"Cattedrale di Santa Maria Assunta, Piazza Duomo, Bobbio, PC, EMR, 29022, Italia","category":"attractions","type":"place_of_worship","importance":0.17714731,"icon":"http://nominatim.openstreetmap.org/images/mapicons/place_of_worship_unknown3.p.20.png","visiting_time":30.0,"opening_hours":null,"opening_days":null,"rating":0,"photo_url":null,"description":null,"www":null},{"place_id":"113377109","geometry":{"type":"Point","coordinates":[9.301688746,44.7669347]},"display_name":"Chiesa di San Policarpo, SP69, La Croce, Bobbio, PC, EMR, 29022, Italia","category":"attractions","type":"place_of_worship","importance":0.10803387,"icon":"http://nominatim.openstreetmap.org/images/mapicons/place_of_worship_unknown3.p.20.png","visiting_time":30.0,"opening_hours":null,"opening_days":null,"rating":0,"photo_url":null,"description":null,"www":null},{"place_id":"112870016","geometry":{"type":"Point","coordinates":[9.429671014,44.80846025]},"display_name":"Chiesa di San Paolo, Piazza San Paolo, Bobbio, PC, EMR, Italia","category":"attractions","type":"place_of_worship","importance":0.093055315,"icon":"http://nominatim.openstreetmap.org/images/mapicons/place_of_worship_unknown3.p.20.png","visiting_time":30.0,"opening_hours":null,"opening_days":null,"rating":0,"photo_url":null,"description":null,"www":null},{"place_id":"112378678","geometry":{"type":"Point","coordinates":[9.345211214,44.78421285]},"display_name":"Chiesa di Santa Maria del Carmine, SP69, La Croce, Bobbio, PC, EMR, 29022, Italia","category":"attractions","type":"place_of_worship","importance":0.073744595,"icon":"http://nominatim.openstreetmap.org/images/mapicons/place_of_worship_unknown3.p.20.png","visiting_time":30.0,"opening_hours":null,"opening_days":null,"rating":0,"photo_url":null,"description":null,"www":null},{"place_id":"49337360","geometry":{"type":"Point","coordinates":[9.3090243,44.8406084]},"display_name":"Oratorio di Nostra Signora di Loreto, Strada di Castel Vecchio, Totonenzo, Romagnese, PV, LOM, Italia","category":"attractions","type":"place_of_worship","importance":0.001,"icon":"http://nominatim.openstreetmap.org/images/mapicons/place_of_worship_unknown3.p.20.png","visiting_time":30.0,"opening_hours":null,"opening_days":null,"rating":0,"photo_url":null,"description":null,"www":null},{"place_id":"49037087","geometry":{"type":"Point","coordinates":[9.3158979,44.8348291]},"display_name":"Oratorio di San Rocco, Frazione Ariore Villa, Canevizza, Romagnese, PV, LOM, Italia","category":"attractions","type":"place_of_worship","importance":0.001,"icon":"http://nominatim.openstreetmap.org/images/mapicons/place_of_worship_unknown3.p.20.png","visiting_time":30.0,"opening_hours":null,"opening_days":null,"rating":0,"photo_url":null,"description":null,"www":null},{"place_id":"50301605","geometry":{"type":"Point","coordinates":[9.322423,44.8521612]},"display_name":"Oratorio della Beata Vergine delle Grazie, Località Ossio, Molino, Romagnese, PV, LOM, Italia","category":"attractions","type":"place_of_worship","importance":0.001,"icon":"http://nominatim.openstreetmap.org/images/mapicons/place_of_worship_unknown3.p.20.png","visiting_time":30.0,"opening_hours":null,"opening_days":null,"rating":0,"photo_url":null,"description":null,"www":null},{"place_id":"50251535","geometry":{"type":"Point","coordinates":[9.3364492,44.8435103]},"display_name":"Oratorio di Nostra Signora di Loreto, Via Castana, Canevizza, Romagnese, PV, LOM, Italia","category":"attractions","type":"place_of_worship","importance":0.001,"icon":"http://nominatim.openstreetmap.org/images/mapicons/place_of_worship_unknown3.p.20.png","visiting_time":30.0,"opening_hours":null,"opening_days":null,"rating":0,"photo_url":null,"description":null,"www":null},{"place_id":"48954706","geometry":{"type":"Point","coordinates":[9.3456213,44.8340537]},"display_name":"Oratorio di Maria Ausiliatrice, 219 - 19, Ca' Casarini, Romagnese, PC, LOM, Italia","category":"attractions","type":"place_of_worship","importance":0.001,"icon":"http://nominatim.openstreetmap.org/images/mapicons/place_of_worship_unknown3.p.20.png","visiting_time":30.0,"opening_hours":null,"opening_days":null,"rating":0,"photo_url":null,"description":null,"www":null},{"place_id":"150471633","geometry":{"type":"Point","coordinates":[9.33245525,44.8372237]},"display_name":"Chiesetta ai Morti di San Lorenzo, SPexSS412, Canevizza, Romagnese, PV, LOM, Italia","category":"attractions","type":"place_of_worship","importance":0.001,"icon":"http://nominatim.openstreetmap.org/images/mapicons/place_of_worship_unknown3.p.20.png","visiting_time":30.0,"opening_hours":null,"opening_days":null,"rating":0,"photo_url":null,"description":null,"www":null},{"place_id":"49049742","geometry":{"type":"Point","coordinates":[9.3223477,44.8092231]},"display_name":"Oratorio di Nostra Signora dell'Aiuto, Via della Chiesetta, Casa Novelli, Romagnese, PV, LOM, Italia","category":"attractions","type":"place_of_worship","importance":0.001,"icon":"http://nominatim.openstreetmap.org/images/mapicons/place_of_worship_unknown3.p.20.png","visiting_time":30.0,"opening_hours":null,"opening_days":null,"rating":0,"photo_url":null,"description":null,"www":null},{"place_id":"150270717","geometry":{"type":"Point","coordinates":[9.327067088,44.83788045]},"display_name":"Chiesa di San Lorenzo, Piazza Castello, Canevizza, Romagnese, PV, LOM, Italia","category":"attractions","type":"place_of_worship","importance":0.001,"icon":"http://nominatim.openstreetmap.org/images/mapicons/place_of_worship_unknown3.p.20.png","visiting_time":30.0,"opening_hours":null,"opening_days":null,"rating":0,"photo_url":null,"description":null,"www":null},{"place_id":"48774295","geometry":{"type":"Point","coordinates":[9.3234395,44.8073213]},"display_name":"Chiesa di Cristo Lavoratore, SPexSS412, Casa Novelli, Romagnese, PV, LOM, Italia","category":"attractions","type":"place_of_worship","importance":0.001,"icon":"http://nominatim.openstreetmap.org/images/mapicons/place_of_worship_unknown3.p.20.png","visiting_time":30.0,"opening_hours":null,"opening_days":null,"rating":0,"photo_url":null,"description":null,"www":null},{"place_id":"153339363","geometry":{"type":"Point","coordinates":[9.329408653,44.8410941]},"display_name":"SPexSS412, Molino, Romagnese, PV, LOM, Italia","category":"attractions","type":"place_of_worship","importance":0.001,"icon":"http://nominatim.openstreetmap.org/images/mapicons/place_of_worship_unknown3.p.20.png","visiting_time":30.0,"opening_hours":null,"opening_days":null,"rating":0,"photo_url":null,"description":null,"www":null},{"place_id":"96689592","geometry":{"type":"Point","coordinates":[9.308714153,44.8308668]},"display_name":"Chiesa della Beata Vergine Addolorata, Frazione Casa Ariore, Canevizza, Romagnese, PV, LOM, Italia","category":"attractions","type":"place_of_worship","importance":0.001,"icon":"http://nominatim.openstreetmap.org/images/mapicons/place_of_worship_unknown3.p.20.png","visiting_time":30.0,"opening_hours":null,"opening_days":null,"rating":0,"photo_url":null,"description":null,"www":null},{"place_id":"9104597","geometry":{"type":"Point","coordinates":[9.3178878,44.7851217]},"display_name":"Santuario di Santa Maria in Monte Penice, CAI 1, Casa Piazza, Menconico, PV, LOM, Italia","category":"attractions","type":"place_of_worship","importance":0.001,"icon":"http://nominatim.openstreetmap.org/images/mapicons/place_of_worship_unknown3.p.20.png","visiting_time":30.0,"opening_hours":null,"opening_days":null,"rating":0,"photo_url":null,"description":null,"www":null},{"place_id":"48557257","geometry":{"type":"Point","coordinates":[9.3131645,44.8021852]},"display_name":"Oratorio dei Tre Passi, Strada Provinciale SPexSS461 del passo Penice, Casa Piazza, Menconico, PV, LOM, Italia","category":"attractions","type":"place_of_worship","importance":0.001,"icon":"http://nominatim.openstreetmap.org/images/mapicons/place_of_worship_unknown3.p.20.png","visiting_time":30.0,"opening_hours":null,"opening_days":null,"rating":0,"photo_url":null,"description":null,"www":null},{"place_id":"49163576","geometry":{"type":"Point","coordinates":[9.3167416,44.7904988]},"display_name":"CAI 1, Casa Piazza, Menconico, PV, LOM, Italia","category":"attractions","type":"place_of_worship","importance":0.001,"icon":"http://nominatim.openstreetmap.org/images/mapicons/place_of_worship_unknown3.p.20.png","visiting_time":30.0,"opening_hours":null,"opening_days":null,"rating":0,"photo_url":null,"description":null,"www":null},{"place_id":"48884352","geometry":{"type":"Point","coordinates":[9.3497618,44.7958174]},"display_name":"Oratorio della Beata Vergine di Caravaggio, Strada Statale del Passo Penice, La Croce, Bobbio, PC, EMR, 29022, Italia","category":"attractions","type":"place_of_worship","importance":0.001,"icon":"http://nominatim.openstreetmap.org/images/mapicons/place_of_worship_unknown3.p.20.png","visiting_time":30.0,"opening_hours":null,"opening_days":null,"rating":0,"photo_url":null,"description":null,"www":null},{"place_id":"59205143","geometry":{"type":"Point","coordinates":[9.4218708,44.7657411]},"display_name":"chiesa, Strada dell'Oratorio, Bobbio, PC, EMR, 29022, Italia","category":"attractions","type":"place_of_worship","importance":0.001,"icon":"http://nominatim.openstreetmap.org/images/mapicons/place_of_worship_unknown3.p.20.png","visiting_time":30.0,"opening_hours":null,"opening_days":null,"rating":0,"photo_url":null,"description":null,"www":null},{"place_id":"111927327","geometry":{"type":"Point","coordinates":[9.386357778,44.77051575]},"display_name":"Santuario della Madonna dell'Aiuto, Viale Garibaldi, La Croce, Bobbio, PC, EMR, 29022, Italia","category":"attractions","type":"place_of_worship","importance":0.001,"icon":"http://nominatim.openstreetmap.org/images/mapicons/place_of_worship_unknown3.p.20.png","visiting_time":30.0,"opening_hours":null,"opening_days":null,"rating":0,"photo_url":null,"description":null,"www":null},{"place_id":"47214545","geometry":{"type":"Point","coordinates":[9.3093791,44.7280638]},"display_name":"Chiesa di San Marziano e Colombano, SP186, Molino Prenzone, Brallo di Pregola, PV, LOM, Italia","category":"attractions","type":"place_of_worship","importance":0.001,"icon":"http://nominatim.openstreetmap.org/images/mapicons/place_of_worship_unknown3.p.20.png","visiting_time":30.0,"opening_hours":null,"opening_days":null,"rating":0,"photo_url":null,"description":null,"www":null},{"place_id":"47888695","geometry":{"type":"Point","coordinates":[9.2998935,44.7362589]},"display_name":"Oratorio di San Rocco, SP186, Molino Prenzone, Brallo di Pregola, PV, LOM, Italia","category":"attractions","type":"place_of_worship","importance":0.001,"icon":"http://nominatim.openstreetmap.org/images/mapicons/place_of_worship_unknown3.p.20.png","visiting_time":30.0,"opening_hours":null,"opening_days":null,"rating":0,"photo_url":null,"description":null,"www":null},{"place_id":"162463207","geometry":{"type":"Point","coordinates":[9.441318807,44.84668655]},"display_name":"SP65, C. Il Poggio, Piozzano, PC, EMR, Italia","category":"attractions","type":"place_of_worship","importance":0.001,"icon":"http://nominatim.openstreetmap.org/images/mapicons/place_of_worship_unknown3.p.20.png","visiting_time":30.0,"opening_hours":null,"opening_days":null,"rating":0,"photo_url":null,"description":null,"www":null},{"place_id":"150160374","geometry":{"type":"Point","coordinates":[9.435049195,44.79395425]},"display_name":"Strada Roncaiolo Lago, Coli, PC, EMR, Italia","category":"attractions","type":"place_of_worship","importance":0.001,"icon":"http://nominatim.openstreetmap.org/images/mapicons/place_of_worship_unknown3.p.20.png","visiting_time":30.0,"opening_hours":null,"opening_days":null,"rating":0,"photo_url":null,"description":null,"www":null},{"place_id":"16493381","geometry":{"type":"Point","coordinates":[9.4780782,44.7810666]},"display_name":"Cappella del voto, 151, Coli, PC, EMR, Italia","category":"attractions","type":"place_of_worship","importance":0.001,"icon":"http://nominatim.openstreetmap.org/images/mapicons/place_of_worship_unknown3.p.20.png","visiting_time":30.0,"opening_hours":null,"opening_days":null,"rating":0,"photo_url":null,"description":null,"www":null},{"place_id":"112808800","geometry":{"type":"Point","coordinates":[9.385292542,44.7679067]},"display_name":"Abbazia di San Colombano, Piazza Santa Fara, Bobbio, PC, EMR, 29022, Italia","category":"attractions","type":"place_of_worship","importance":0.36019233,"icon":"http://nominatim.openstreetmap.org/images/mapicons/place_of_worship_unknown3.p.20.png","visiting_time":30.0,"opening_hours":null,"opening_days":null,"rating":0,"photo_url":null,"description":null,"www":null},{"place_id":"112378695","geometry":{"type":"Point","coordinates":[9.388020586,44.7671407]},"display_name":"Cattedrale di Santa Maria Assunta, Piazza Duomo, Bobbio, PC, EMR, 29022, Italia","category":"attractions","type":"place_of_worship","importance":0.17714731,"icon":"http://nominatim.openstreetmap.org/images/mapicons/place_of_worship_unknown3.p.20.png","visiting_time":30.0,"opening_hours":null,"opening_days":null,"rating":0,"photo_url":null,"description":null,"www":null},{"place_id":"113377109","geometry":{"type":"Point","coordinates":[9.301688746,44.7669347]},"display_name":"Chiesa di San Policarpo, SP69, La Croce, Bobbio, PC, EMR, 29022, Italia","category":"attractions","type":"place_of_worship","importance":0.10803387,"icon":"http://nominatim.openstreetmap.org/images/mapicons/place_of_worship_unknown3.p.20.png","visiting_time":30.0,"opening_hours":null,"opening_days":null,"rating":0,"photo_url":null,"description":null,"www":null},{"place_id":"112870016","geometry":{"type":"Point","coordinates":[9.429671014,44.80846025]},"display_name":"Chiesa di San Paolo, Piazza San Paolo, Bobbio, PC, EMR, Italia","category":"attractions","type":"place_of_worship","importance":0.093055315,"icon":"http://nominatim.openstreetmap.org/images/mapicons/place_of_worship_unknown3.p.20.png","visiting_time":30.0,"opening_hours":null,"opening_days":null,"rating":0,"photo_url":null,"description":null,"www":null},{"place_id":"112437119","geometry":{"type":"Point","coordinates":[9.349653273,44.75019005]},"display_name":"Chiesa di San Cristoforo, Sentiero dei Lupi, Corte Brugnatella, PC, LOM, 29022, Italia","category":"attractions","type":"place_of_worship","importance":0.093055315,"icon":"http://nominatim.openstreetmap.org/images/mapicons/place_of_worship_unknown3.p.20.png","visiting_time":30.0,"opening_hours":null,"opening_days":null,"rating":0,"photo_url":null,"description":null,"www":null},{"place_id":"112378678","geometry":{"type":"Point","coordinates":[9.345211214,44.78421285]},"display_name":"Chiesa di Santa Maria del Carmine, SP69, La Croce, Bobbio, PC, EMR, 29022, Italia","category":"attractions","type":"place_of_worship","importance":0.073744595,"icon":"http://nominatim.openstreetmap.org/images/mapicons/place_of_worship_unknown3.p.20.png","visiting_time":30.0,"opening_hours":null,"opening_days":null,"rating":0,"photo_url":null,"description":null,"www":null},{"place_id":"49337360","geometry":{"type":"Point","coordinates":[9.3090243,44.8406084]},"display_name":"Oratorio di Nostra Signora di Loreto, Strada di Castel Vecchio, Totonenzo, Romagnese, PV, LOM, Italia","category":"attractions","type":"place_of_worship","importance":0.001,"icon":"http://nominatim.openstreetmap.org/images/mapicons/place_of_worship_unknown3.p.20.png","visiting_time":30.0,"opening_hours":null,"opening_days":null,"rating":0,"photo_url":null,"description":null,"www":null},{"place_id":"49037087","geometry":{"type":"Point","coordinates":[9.3158979,44.8348291]},"display_name":"Oratorio di San Rocco, Frazione Ariore Villa, Canevizza, Romagnese, PV, LOM, Italia","category":"attractions","type":"place_of_worship","importance":0.001,"icon":"http://nominatim.openstreetmap.org/images/mapicons/place_of_worship_unknown3.p.20.png","visiting_time":30.0,"opening_hours":null,"opening_days":null,"rating":0,"photo_url":null,"description":null,"www":null},{"place_id":"50301605","geometry":{"type":"Point","coordinates":[9.322423,44.8521612]},"display_name":"Oratorio della Beata Vergine delle Grazie, Località Ossio, Molino, Romagnese, PV, LOM, Italia","category":"attractions","type":"place_of_worship","importance":0.001,"icon":"http://nominatim.openstreetmap.org/images/mapicons/place_of_worship_unknown3.p.20.png","visiting_time":30.0,"opening_hours":null,"opening_days":null,"rating":0,"photo_url":null,"description":null,"www":null},{"place_id":"50251535","geometry":{"type":"Point","coordinates":[9.3364492,44.8435103]},"display_name":"Oratorio di Nostra Signora di Loreto, Via Castana, Canevizza, Romagnese, PV, LOM, Italia","category":"attractions","type":"place_of_worship","importance":0.001,"icon":"http://nominatim.openstreetmap.org/images/mapicons/place_of_worship_unknown3.p.20.png","visiting_time":30.0,"opening_hours":null,"opening_days":null,"rating":0,"photo_url":null,"description":null,"www":null},{"place_id":"48954706","geometry":{"type":"Point","coordinates":[9.3456213,44.8340537]},"display_name":"Oratorio di Maria Ausiliatrice, 219 - 19, Ca' Casarini, Romagnese, PC, LOM, Italia","category":"attractions","type":"place_of_worship","importance":0.001,"icon":"http://nominatim.openstreetmap.org/images/mapicons/place_of_worship_unknown3.p.20.png","visiting_time":30.0,"opening_hours":null,"opening_days":null,"rating":0,"photo_url":null,"description":null,"www":null},{"place_id":"150471633","geometry":{"type":"Point","coordinates":[9.33245525,44.8372237]},"display_name":"Chiesetta ai Morti di San Lorenzo, SPexSS412, Canevizza, Romagnese, PV, LOM, Italia","category":"attractions","type":"place_of_worship","importance":0.001,"icon":"http://nominatim.openstreetmap.org/images/mapicons/place_of_worship_unknown3.p.20.png","visiting_time":30.0,"opening_hours":null,"opening_days":null,"rating":0,"photo_url":null,"description":null,"www":null},{"place_id":"49049742","geometry":{"type":"Point","coordinates":[9.3223477,44.8092231]},"display_name":"Oratorio di Nostra Signora dell'Aiuto, Via della Chiesetta, Casa Novelli, Romagnese, PV, LOM, Italia","category":"attractions","type":"place_of_worship","importance":0.001,"icon":"http://nominatim.openstreetmap.org/images/mapicons/place_of_worship_unknown3.p.20.png","visiting_time":30.0,"opening_hours":null,"opening_days":null,"rating":0,"photo_url":null,"description":null,"www":null},{"place_id":"150270717","geometry":{"type":"Point","coordinates":[9.327067088,44.83788045]},"display_name":"Chiesa di San Lorenzo, Piazza Castello, Canevizza, Romagnese, PV, LOM, Italia","category":"attractions","type":"place_of_worship","importance":0.001,"icon":"http://nominatim.openstreetmap.org/images/mapicons/place_of_worship_unknown3.p.20.png","visiting_time":30.0,"opening_hours":null,"opening_days":null,"rating":0,"photo_url":null,"description":null,"www":null},{"place_id":"48774295","geometry":{"type":"Point","coordinates":[9.3234395,44.8073213]},"display_name":"Chiesa di Cristo Lavoratore, SPexSS412, Casa Novelli, Romagnese, PV, LOM, Italia","category":"attractions","type":"place_of_worship","importance":0.001,"icon":"http://nominatim.openstreetmap.org/images/mapicons/place_of_worship_unknown3.p.20.png","visiting_time":30.0,"opening_hours":null,"opening_days":null,"rating":0,"photo_url":null,"description":null,"www":null},{"place_id":"153339363","geometry":{"type":"Point","coordinates":[9.329408653,44.8410941]},"display_name":"SPexSS412, Molino, Romagnese, PV, LOM, Italia","category":"attractions","type":"place_of_worship","importance":0.001,"icon":"http://nominatim.openstreetmap.org/images/mapicons/place_of_worship_unknown3.p.20.png","visiting_time":30.0,"opening_hours":null,"opening_days":null,"rating":0,"photo_url":null,"description":null,"www":null},{"place_id":"96689592","geometry":{"type":"Point","coordinates":[9.308714153,44.8308668]},"display_name":"Chiesa della Beata Vergine Addolorata, Frazione Casa Ariore, Canevizza, Romagnese, PV, LOM, Italia","category":"attractions","type":"place_of_worship","importance":0.001,"icon":"http://nominatim.openstreetmap.org/images/mapicons/place_of_worship_unknown3.p.20.png","visiting_time":30.0,"opening_hours":null,"opening_days":null,"rating":0,"photo_url":null,"description":null,"www":null},{"place_id":"9104597","geometry":{"type":"Point","coordinates":[9.3178878,44.7851217]},"display_name":"Santuario di Santa Maria in Monte Penice, CAI 1, Casa Piazza, Menconico, PV, LOM, Italia","category":"attractions","type":"place_of_worship","importance":0.001,"icon":"http://nominatim.openstreetmap.org/images/mapicons/place_of_worship_unknown3.p.20.png","visiting_time":30.0,"opening_hours":null,"opening_days":null,"rating":0,"photo_url":null,"description":null,"www":null},{"place_id":"48557257","geometry":{"type":"Point","coordinates":[9.3131645,44.8021852]},"display_name":"Oratorio dei Tre Passi, Strada Provinciale SPexSS461 del passo Penice, Casa Piazza, Menconico, PV, LOM, Italia","category":"attractions","type":"place_of_worship","importance":0.001,"icon":"http://nominatim.openstreetmap.org/images/mapicons/place_of_worship_unknown3.p.20.png","visiting_time":30.0,"opening_hours":null,"opening_days":null,"rating":0,"photo_url":null,"description":null,"www":null},{"place_id":"49163576","geometry":{"type":"Point","coordinates":[9.3167416,44.7904988]},"display_name":"CAI 1, Casa Piazza, Menconico, PV, LOM, Italia","category":"attractions","type":"place_of_worship","importance":0.001,"icon":"http://nominatim.openstreetmap.org/images/mapicons/place_of_worship_unknown3.p.20.png","visiting_time":30.0,"opening_hours":null,"opening_days":null,"rating":0,"photo_url":null,"description":null,"www":null},{"place_id":"48884352","geometry":{"type":"Point","coordinates":[9.3497618,44.7958174]},"display_name":"Oratorio della Beata Vergine di Caravaggio, Strada Statale del Passo Penice, La Croce, Bobbio, PC, EMR, 29022, Italia","category":"attractions","type":"place_of_worship","importance":0.001,"icon":"http://nominatim.openstreetmap.org/images/mapicons/place_of_worship_unknown3.p.20.png","visiting_time":30.0,"opening_hours":null,"opening_days":null,"rating":0,"photo_url":null,"description":null,"www":null},{"place_id":"59205143","geometry":{"type":"Point","coordinates":[9.4218708,44.7657411]},"display_name":"chiesa, Strada dell'Oratorio, Bobbio, PC, EMR, 29022, Italia","category":"attractions","type":"place_of_worship","importance":0.001,"icon":"http://nominatim.openstreetmap.org/images/mapicons/place_of_worship_unknown3.p.20.png","visiting_time":30.0,"opening_hours":null,"opening_days":null,"rating":0,"photo_url":null,"description":null,"www":null},{"place_id":"111927327","geometry":{"type":"Point","coordinates":[9.386357778,44.77051575]},"display_name":"Santuario della Madonna dell'Aiuto, Viale Garibaldi, La Croce, Bobbio, PC, EMR, 29022, Italia","category":"attractions","type":"place_of_worship","importance":0.001,"icon":"http://nominatim.openstreetmap.org/images/mapicons/place_of_worship_unknown3.p.20.png","visiting_time":30.0,"opening_hours":null,"opening_days":null,"rating":0,"photo_url":null,"description":null,"www":null},{"place_id":"47214545","geometry":{"type":"Point","coordinates":[9.3093791,44.7280638]},"display_name":"Chiesa di San Marziano e Colombano, SP186, Molino Prenzone, Brallo di Pregola, PV, LOM, Italia","category":"attractions","type":"place_of_worship","importance":0.001,"icon":"http://nominatim.openstreetmap.org/images/mapicons/place_of_worship_unknown3.p.20.png","visiting_time":30.0,"opening_hours":null,"opening_days":null,"rating":0,"photo_url":null,"description":null,"www":null},{"place_id":"47888695","geometry":{"type":"Point","coordinates":[9.2998935,44.7362589]},"display_name":"Oratorio di San Rocco, SP186, Molino Prenzone, Brallo di Pregola, PV, LOM, Italia","category":"attractions","type":"place_of_worship","importance":0.001,"icon":"http://nominatim.openstreetmap.org/images/mapicons/place_of_worship_unknown3.p.20.png","visiting_time":30.0,"opening_hours":null,"opening_days":null,"rating":0,"photo_url":null,"description":null,"www":null},{"place_id":"162463207","geometry":{"type":"Point","coordinates":[9.441318807,44.84668655]},"display_name":"SP65, C. Il Poggio, Piozzano, PC, EMR, Italia","category":"attractions","type":"place_of_worship","importance":0.001,"icon":"http://nominatim.openstreetmap.org/images/mapicons/place_of_worship_unknown3.p.20.png","visiting_time":30.0,"opening_hours":null,"opening_days":null,"rating":0,"photo_url":null,"description":null,"www":null},{"place_id":"150160374","geometry":{"type":"Point","coordinates":[9.435049195,44.79395425]},"display_name":"Strada Roncaiolo Lago, Coli, PC, EMR, Italia","category":"attractions","type":"place_of_worship","importance":0.001,"icon":"http://nominatim.openstreetmap.org/images/mapicons/place_of_worship_unknown3.p.20.png","visiting_time":30.0,"opening_hours":null,"opening_days":null,"rating":0,"photo_url":null,"description":null,"www":null},{"place_id":"16493381","geometry":{"type":"Point","coordinates":[9.4780782,44.7810666]},"display_name":"Cappella del voto, 151, Coli, PC, EMR, Italia","category":"attractions","type":"place_of_worship","importance":0.001,"icon":"http://nominatim.openstreetmap.org/images/mapicons/place_of_worship_unknown3.p.20.png","visiting_time":30.0,"opening_hours":null,"opening_days":null,"rating":0,"photo_url":null,"description":null,"www":null},{"place_id":"45420245","geometry":{"type":"Point","coordinates":[9.2859035,44.7508371]},"display_name":"Park Hotel Olimpia****, 58, SP89, Brallo di Pregola, PV, LOM, Italia","category":"resting","type":"hotel","importance":0.101,"icon":"http://nominatim.openstreetmap.org/images/mapicons/accommodation_hotel2.p.20.png","visiting_time":10.0,"opening_hours":null,"opening_days":null,"rating":0,"photo_url":null,"description":null,"www":null},{"place_id":"48179668","geometry":{"type":"Point","coordinates":[9.3244487,44.8048596]},"display_name":"Albergo Penice, SPexSS412, Villa Penicina, Romagnese, PV, LOM, Italia","category":"resting","type":"hotel","importance":0.001,"icon":"http://nominatim.openstreetmap.org/images/mapicons/accommodation_hotel2.p.20.png","visiting_time":10.0,"opening_hours":null,"opening_days":null,"rating":0,"photo_url":null,"description":null,"www":null},{"place_id":"48273848","geometry":{"type":"Point","coordinates":[9.3232539,44.8082815]},"display_name":"Albergo Alpe, Via della Chiesetta, Casa Novelli, Romagnese, PV, LOM, Italia","category":"resting","type":"hotel","importance":0.001,"icon":"http://nominatim.openstreetmap.org/images/mapicons/accommodation_hotel2.p.20.png","visiting_time":10.0,"opening_hours":null,"opening_days":null,"rating":0,"photo_url":null,"description":null,"www":null},{"place_id":"49171647","geometry":{"type":"Point","coordinates":[9.3408465,44.8070499]},"display_name":"Ostello La Penicina, SPexSS412, Villa Penicina, Romagnese, PC, LOM, Italia","category":"resting","type":"hostel","importance":0.001,"icon":null,"visiting_time":10.0,"opening_hours":null,"opening_days":null,"rating":0,"photo_url":null,"description":null,"www":null},{"place_id":"53329967","geometry":{"type":"Point","coordinates":[9.3866937,44.7691204]},"display_name":"il Piacentino, Strada Foresta, Bobbio, PC, EMR, 29022, Italia","category":"resting","type":"hotel","importance":0.001,"icon":"http://nominatim.openstreetmap.org/images/mapicons/accommodation_hotel2.p.20.png","visiting_time":10.0,"opening_hours":null,"opening_days":null,"rating":0,"photo_url":null,"description":null,"www":null},{"place_id":"112869989","geometry":{"type":"Point","coordinates":[9.427695919,44.80835275]},"display_name":"Ristorante Albergo da Ranella, strada del Moione, Bobbio, PC, EMR, Italia","category":"resting","type":"hotel","importance":0.001,"icon":"http://nominatim.openstreetmap.org/images/mapicons/accommodation_hotel2.p.20.png","visiting_time":10.0,"opening_hours":null,"opening_days":null,"rating":0,"photo_url":null,"description":null,"www":null},{"place_id":"54715842","geometry":{"type":"Point","coordinates":[9.3850298,44.7669596]},"display_name":"Ostello di Palazzo Tamburelli, 12, Contrada dell'Ospedale, Bobbio, PC, EMR, 29022, Italia","category":"resting","type":"hostel","importance":0.001,"icon":null,"visiting_time":10.0,"opening_hours":null,"opening_days":null,"rating":0,"photo_url":null,"description":null,"www":null},{"place_id":"47770137","geometry":{"type":"Point","coordinates":[9.308854,44.7264632]},"display_name":"Albergo Roma, SP186, Molino Prenzone, Brallo di Pregola, PV, LOM, Italia","category":"resting","type":"hotel","importance":0.001,"icon":"http://nominatim.openstreetmap.org/images/mapicons/accommodation_hotel2.p.20.png","visiting_time":10.0,"opening_hours":null,"opening_days":null,"rating":0,"photo_url":null,"description":null,"www":null},{"place_id":"114495934","geometry":{"type":"Point","coordinates":[9.414622548,44.7442917]},"display_name":"Ostello di Coli, 3, Via Cerreto, Coli, PC, EMR, 29020, Italia","category":"resting","type":"hostel","importance":0.001,"icon":null,"visiting_time":10.0,"opening_hours":null,"opening_days":null,"rating":0,"photo_url":null,"description":null,"www":null},{"place_id":"49171647","geometry":{"type":"Point","coordinates":[9.3408465,44.8070499]},"display_name":"Ostello La Penicina, SPexSS412, Villa Penicina, Romagnese, PC, LOM, Italia","category":"resting","type":"hostel","importance":0.001,"icon":null,"visiting_time":10.0,"opening_hours":null,"opening_days":null,"rating":0,"photo_url":null,"description":null,"www":null},{"place_id":"54715842","geometry":{"type":"Point","coordinates":[9.3850298,44.7669596]},"display_name":"Ostello di Palazzo Tamburelli, 12, Contrada dell'Ospedale, Bobbio, PC, EMR, 29022, Italia","category":"resting","type":"hostel","importance":0.001,"icon":null,"visiting_time":10.0,"opening_hours":null,"opening_days":null,"rating":0,"photo_url":null,"description":null,"www":null},{"place_id":"114495934","geometry":{"type":"Point","coordinates":[9.414622548,44.7442917]},"display_name":"Ostello di Coli, 3, Via Cerreto, Coli, PC, EMR, 29020, Italia","category":"resting","type":"hostel","importance":0.001,"icon":null,"visiting_time":10.0,"opening_hours":null,"opening_days":null,"rating":0,"photo_url":null,"description":null,"www":null},{"place_id":"164358844","geometry":{"type":"Point","coordinates":[9.380956859,44.75093345]},"display_name":"Camping Pontegobbo, Strada Statale di Val Trebbia, Bobbio, PC, EMR, 29022, Italia","category":"resting","type":"camp_site","importance":0.101,"icon":null,"visiting_time":10.0,"opening_hours":null,"opening_days":null,"rating":0,"photo_url":null,"description":null,"www":null},{"place_id":"121629008","geometry":{"type":"Point","coordinates":[9.417605321,44.79592185]},"display_name":"Ponte Barberino, Strada Statale di Val Trebbia, Bobbio, PC, EMR, 29022, Italia","category":"resting","type":"camp_site","importance":0.001,"icon":null,"visiting_time":10.0,"opening_hours":null,"opening_days":null,"rating":0,"photo_url":null,"description":null,"www":null}]