[{"place_id":"44,63090804829780","geometry":{"type":"Point","coordinates":[11.2740886,44.630908048]},"display_name":"Archivio storico comunale di Sala Bolognese,from:IBC","category":"attractions","type":"HolderOfArchives","importance":0.0,"icon":"","visiting_time":0.0,"opening_hours":"ok","opening_days":"ok","rating":0,"photo_url":null,"description":null,"www":"http://www.comune.sala-bolognese.bo.it"},{"place_id":"44,66470869634590","geometry":{"type":"Point","coordinates":[11.134108682,44.664708696]},"display_name":"Archivio storico comunale di Sant'Agata Bolognese,from:IBC","category":"attractions","type":"HolderOfArchives","importance":0.0,"icon":"","visiting_time":0.0,"opening_hours":"ok","opening_days":"ok","rating":0,"photo_url":null,"description":null,"www":"http://www.comune.santagatabolognese.bo.it"},{"place_id":"44,71518335209570","geometry":{"type":"Point","coordinates":[11.150475821,44.715183352]},"display_name":"Istituzione dei servizi culturali Paolo Borsellino del Comune di Crevalcore,from:IBC","category":"attractions","type":"HolderOfArchives","importance":0.0,"icon":"","visiting_time":0.0,"opening_hours":"ok","opening_days":"ok","rating":0,"photo_url":null,"description":null,"www":"http://www.comune.crevalcore.bo.it"},{"place_id":"44,63741288216170","geometry":{"type":"Point","coordinates":[11.188265535,44.637412882]},"display_name":"Archivio storico comunale di San Giovanni in Persiceto,from:IBC","category":"attractions","type":"HolderOfArchives","importance":0.0,"icon":"","visiting_time":0.0,"opening_hours":"ok","opening_days":"ok","rating":0,"photo_url":null,"description":null,"www":"http://dati.emilia-romagna.it/id/ibc/condition/037053-001"},{"place_id":"44,66491356946690","geometry":{"type":"Point","coordinates":[11.134943538,44.664913569]},"display_name":"Biblioteca comunale,from:IBC","category":"attractions","type":"Library","importance":0.0,"icon":"","visiting_time":0.0,"opening_hours":"ok","opening_days":"ok","rating":0,"photo_url":null,"description":null,"www":"http://www.bibliotecasantagata.it"},{"place_id":"44,71518335209570","geometry":{"type":"Point","coordinates":[11.150475821,44.715183352]},"display_name":"Biblioteca comunale,from:IBC","category":"attractions","type":"Library","importance":0.0,"icon":"","visiting_time":0.0,"opening_hours":"ok","opening_days":"ok","rating":0,"photo_url":null,"description":null,"www":"http://www.comune.crevalcore.bo.it/Main/Main.asp?doc=04122"},{"place_id":"44,70684677785730","geometry":{"type":"Point","coordinates":[11.229487038,44.706846778]},"display_name":"Biblioteca pubblica Raffaele Pettazzoni di San Matteo della Decima,from:IBC","category":"attractions","type":"Library","importance":0.0,"icon":"","visiting_time":0.0,"opening_hours":"ok","opening_days":"ok","rating":0,"photo_url":null,"description":null,"www":"http://www.comunepersiceto.it/gli-uffici-comunali/cultura/cultura/biblioteche"},{"place_id":"44,63741288216170","geometry":{"type":"Point","coordinates":[11.188265535,44.637412882]},"display_name":"Biblioteca comunale Giulio Cesare Croce,from:IBC","category":"attractions","type":"Library","importance":0.0,"icon":"","visiting_time":0.0,"opening_hours":"ok","opening_days":"ok","rating":0,"photo_url":null,"description":null,"www":"http://www.comunepersiceto.it/gli-uffici-comunali/cultura/biblioteche-1"},{"place_id":"44,63743886330550","geometry":{"type":"Point","coordinates":[11.188547252,44.637438863]},"display_name":"Biblioteca comunale Giulio Cesare Croce - Sezione ragazzi,from:IBC","category":"attractions","type":"Library","importance":0.0,"icon":"","visiting_time":0.0,"opening_hours":"ok","opening_days":"ok","rating":0,"photo_url":null,"description":null,"www":"http://dati.emilia-romagna.it/id/ibc/condition/IT-BO0625_orari"},{"place_id":"44,63901526280490","geometry":{"type":"Point","coordinates":[11.26684643,44.639015263]},"display_name":"Ecomuseo dell'Acqua,from:IBC","category":"attractions","type":"Museum","importance":0.0,"icon":"","visiting_time":0.0,"opening_hours":"ok","opening_days":"ok","rating":0,"photo_url":null,"description":null,"www":"http://www.ecomuseodellacqua.it"},{"place_id":"44,64034239182210","geometry":{"type":"Point","coordinates":[11.189140682,44.640342392]},"display_name":"Museo Archeologico Ambientale,from:IBC","category":"attractions","type":"Museum","importance":0.0,"icon":"","visiting_time":0.0,"opening_hours":"ok","opening_days":"ok","rating":0,"photo_url":null,"description":null,"www":"http://dati.emilia-romagna.it/id/ibc/condition/IT-ER-BO012"},{"place_id":"44,72198065310480","geometry":{"type":"Point","coordinates":[11.149297257,44.721980653]},"display_name":"Museo dei Burattini L. Preti,from:IBC","category":"attractions","type":"Museum","importance":0.0,"icon":"","visiting_time":0.0,"opening_hours":"ok","opening_days":"ok","rating":0,"photo_url":null,"description":null,"www":"http://dati.emilia-romagna.it/id/ibc/condition/IT-ER-BO072"},{"place_id":"44,72012367550020","geometry":{"type":"Point","coordinates":[11.151722687,44.720123676]},"display_name":"Museo della Pace G. Mattioli,from:IBC","category":"attractions","type":"Museum","importance":0.0,"icon":"","visiting_time":0.0,"opening_hours":"ok","opening_days":"ok","rating":0,"photo_url":null,"description":null,"www":"http://www.comune.crevalcore.bo.it/Main/Main.asp?doc=15843"},{"place_id":"44,66319168570170","geometry":{"type":"Point","coordinates":[11.131718164,44.663191686]},"display_name":"Museo Archeologico Ambientale - Sezione espositiva dell’età del Bronzo,from:IBC","category":"attractions","type":"Museum","importance":0.0,"icon":"","visiting_time":0.0,"opening_hours":"ok","opening_days":"ok","rating":0,"photo_url":null,"description":null,"www":"http://dati.emilia-romagna.it/id/ibc/condition/IT-ER-BO138"},{"place_id":"44,63847409910990","geometry":{"type":"Point","coordinates":[11.187703095,44.638474099]},"display_name":"Museo d'Arte Sacra,from:IBC","category":"attractions","type":"Museum","importance":0.0,"icon":"","visiting_time":0.0,"opening_hours":"ok","opening_days":"ok","rating":0,"photo_url":null,"description":null,"www":"http://dati.emilia-romagna.it/id/ibc/condition/IT-ER-BO011"},{"place_id":"44,65890609264710","geometry":{"type":"Point","coordinates":[11.126163716,44.658906093]},"display_name":"Museo Lamborghini,from:IBC","category":"attractions","type":"Museum","importance":0.0,"icon":"","visiting_time":0.0,"opening_hours":"ok","opening_days":"ok","rating":0,"photo_url":null,"description":null,"www":"http://www.lamborghini.com/it/museo/panoramica/"},{"place_id":"44,63607669648070","geometry":{"type":"Point","coordinates":[11.18266052,44.636076696]},"display_name":"Museo del Cielo e della Terra,from:IBC","category":"attractions","type":"Museum","importance":0.0,"icon":"","visiting_time":0.0,"opening_hours":"ok","opening_days":"ok","rating":0,"photo_url":null,"description":null,"www":"http://www.museocieloeterra.org"},{"place_id":"Una Farnia San Giovanni in Persiceto S. Matteo della Decima Via Reno Vecchio, 5 (Cà Predoni) 171","geometry":{"type":"Point","coordinates":[11.2552589,44.70578609]},"display_name":"Una Farnia San Giovanni in Persiceto S. Matteo della Decima Via Reno Vecchio, 5 (Cà Predoni),from:IBC","category":"tree","type":"tree","importance":0.0,"icon":"","visiting_time":0.0,"opening_hours":"ok","opening_days":"ok","rating":0,"photo_url":"http://online.ibc.regione.emilia-romagna.it/mtrees/image/147.jpg","description":null,"www":null},{"place_id":"Due Platani comuni Calderara di Reno Fraz. Tavernelle E. Via Persicetana 452","geometry":{"type":"Point","coordinates":[11.24019425,44.57240011]},"display_name":"Due Platani comuni Calderara di Reno Fraz. Tavernelle E. Via Persicetana,from:IBC","category":"tree","type":"tree","importance":0.0,"icon":"","visiting_time":0.0,"opening_hours":"ok","opening_days":"ok","rating":0,"photo_url":"http://online.ibc.regione.emilia-romagna.it/mtrees/image/44.jpg","description":null,"www":null},{"place_id":"Un Pioppo bianco San Giovanni in Persiceto Poggio (Villa Pia) Via Bologna, 118 809","geometry":{"type":"Point","coordinates":[11.19668513,44.6266296]},"display_name":"Un Pioppo bianco San Giovanni in Persiceto Poggio (Villa Pia) Via Bologna, 118,from:IBC","category":"tree","type":"tree","importance":0.0,"icon":"","visiting_time":0.0,"opening_hours":"ok","opening_days":"ok","rating":0,"photo_url":"http://online.ibc.regione.emilia-romagna.it/mtrees/image/146.jpg","description":null,"www":null},{"place_id":"Un Pioppo nero Crevalcore Bolognina V. Argini Nord 817","geometry":{"type":"Point","coordinates":[11.13258371,44.74965386]},"display_name":"Un Pioppo nero Crevalcore Bolognina V. Argini Nord,from:IBC","category":"tree","type":"tree","importance":0.0,"icon":"","visiting_time":0.0,"opening_hours":"ok","opening_days":"ok","rating":0,"photo_url":"http://online.ibc.regione.emilia-romagna.it/mtrees/image/60.jpg","description":null,"www":null}]