[{"place_id":"44,78146103115220","geometry":{"type":"Point","coordinates":[10.531079098,44.781461031]},"display_name":"Comune di Campegine,from:IBC","category":"attractions","type":"HolderOfArchives","importance":0.0,"icon":"","visiting_time":0.0,"opening_hours":"ok","opening_days":"ok","rating":0,"photo_url":null,"description":null,"www":"http://www.comune.campegine.re.it"},{"place_id":"44,79062771361770","geometry":{"type":"Point","coordinates":[10.496897565,44.790627714]},"display_name":"Istituto Alcide Cervi,from:IBC","category":"attractions","type":"HolderOfArchives","importance":0.0,"icon":"","visiting_time":0.0,"opening_hours":"ok","opening_days":"ok","rating":0,"photo_url":null,"description":null,"www":"http://www.fratellicervi.it"},{"place_id":"44,80442287618610","geometry":{"type":"Point","coordinates":[10.475198654,44.804422876]},"display_name":"Comune di Gattatico,from:IBC","category":"attractions","type":"HolderOfArchives","importance":0.0,"icon":"","visiting_time":0.0,"opening_hours":"ok","opening_days":"ok","rating":0,"photo_url":null,"description":null,"www":"http://www.comune.gattatico.re.it"},{"place_id":"44,76062024001200","geometry":{"type":"Point","coordinates":[10.451476938,44.76062024]},"display_name":"Comune di Sant'Ilario d'Enza,from:IBC","category":"attractions","type":"HolderOfArchives","importance":0.0,"icon":"","visiting_time":0.0,"opening_hours":"ok","opening_days":"ok","rating":0,"photo_url":null,"description":null,"www":"http://www.comune.santilariodenza.re.it"},{"place_id":"44,76016377828560","geometry":{"type":"Point","coordinates":[10.448710222,44.760163778]},"display_name":"Biblioteca comunale,from:IBC","category":"attractions","type":"Library","importance":0.0,"icon":"","visiting_time":0.0,"opening_hours":"ok","opening_days":"ok","rating":0,"photo_url":null,"description":null,"www":"http://biblioteche.provincia.re.it/Sezione.jsp?idSezione=73"},{"place_id":"44,80673633725800","geometry":{"type":"Point","coordinates":[10.474476047,44.806736337]},"display_name":"Biblioteca comunale Amos Tragni,from:IBC","category":"attractions","type":"Library","importance":0.0,"icon":"","visiting_time":0.0,"opening_hours":"ok","opening_days":"ok","rating":0,"photo_url":null,"description":null,"www":"http://biblioteche.provincia.re.it/gattatico"},{"place_id":"44,78156457541560","geometry":{"type":"Point","coordinates":[10.53423767,44.781564575]},"display_name":"Biblioteca comunale,from:IBC","category":"attractions","type":"Library","importance":0.0,"icon":"","visiting_time":0.0,"opening_hours":"ok","opening_days":"ok","rating":0,"photo_url":null,"description":null,"www":"http://biblioteche.provincia.re.it"},{"place_id":"44,79062771361770","geometry":{"type":"Point","coordinates":[10.496897565,44.790627714]},"display_name":"Museo Cervi,from:IBC","category":"attractions","type":"Museum","importance":0.0,"icon":"","visiting_time":0.0,"opening_hours":"ok","opening_days":"ok","rating":0,"photo_url":null,"description":null,"www":"http://www.fratellicervi.it"},{"place_id":"Due Ippocastani Gattatico Praticello 42","geometry":{"type":"Point","coordinates":[10.47693434,44.80549763]},"display_name":"Due Ippocastani Gattatico Praticello,from:IBC","category":"tree","type":"tree","importance":0.0,"icon":"","visiting_time":0.0,"opening_hours":"ok","opening_days":"ok","rating":0,"photo_url":"http://online.ibc.regione.emilia-romagna.it/mtrees/image/6748.01.08).jpg","description":null,"www":null},{"place_id":"Due Tigli Gattatico Vallone 67","geometry":{"type":"Point","coordinates":[10.47029682,44.79658135]},"display_name":"Due Tigli Gattatico Vallone,from:IBC","category":"tree","type":"tree","importance":0.0,"icon":"","visiting_time":0.0,"opening_hours":"ok","opening_days":"ok","rating":0,"photo_url":"http://online.ibc.regione.emilia-romagna.it/mtrees/image/6453.01.08).jpg","description":null,"www":null},{"place_id":"Un Acero campestre Gattatico Corte Rainuzzo 263","geometry":{"type":"Point","coordinates":[10.43403806,44.77876852]},"display_name":"Un Acero campestre Gattatico Corte Rainuzzo,from:IBC","category":"tree","type":"tree","importance":0.0,"icon":"","visiting_time":0.0,"opening_hours":"ok","opening_days":"ok","rating":0,"photo_url":"http://online.ibc.regione.emilia-romagna.it/mtrees/image/2317.jpg","description":null,"www":null},{"place_id":"Un filare di Salici bianchi Gattatico Corte Rainuzzo 291","geometry":{"type":"Point","coordinates":[10.44352303,44.77494017]},"display_name":"Un filare di Salici bianchi Gattatico Corte Rainuzzo,from:IBC","category":"tree","type":"tree","importance":0.0,"icon":"","visiting_time":0.0,"opening_hours":"ok","opening_days":"ok","rating":0,"photo_url":"http://online.ibc.regione.emilia-romagna.it/mtrees/image/2063.jpg","description":null,"www":null},{"place_id":"Due Ippocastani Gattatico Praticello 301","geometry":{"type":"Point","coordinates":[10.47721243,44.80549403]},"display_name":"Due Ippocastani Gattatico Praticello,from:IBC","category":"tree","type":"tree","importance":0.0,"icon":"","visiting_time":0.0,"opening_hours":"ok","opening_days":"ok","rating":0,"photo_url":"http://online.ibc.regione.emilia-romagna.it/mtrees/image/6750.01.08).jpg","description":null,"www":null},{"place_id":"Due Tigli Gattatico Vallone 389","geometry":{"type":"Point","coordinates":[10.47008196,44.79658412]},"display_name":"Due Tigli Gattatico Vallone,from:IBC","category":"tree","type":"tree","importance":0.0,"icon":"","visiting_time":0.0,"opening_hours":"ok","opening_days":"ok","rating":0,"photo_url":"http://online.ibc.regione.emilia-romagna.it/mtrees/image/6451.01.08).jpg","description":null,"www":null},{"place_id":"Una Farnia Sant'Ilario d'Enza Via Podgora 548","geometry":{"type":"Point","coordinates":[10.44724349,44.75489961]},"display_name":"Una Farnia Sant'Ilario d'Enza Via Podgora,from:IBC","category":"tree","type":"tree","importance":0.0,"icon":"","visiting_time":0.0,"opening_hours":"ok","opening_days":"ok","rating":0,"photo_url":"http://online.ibc.regione.emilia-romagna.it/mtrees/image/2459.jpg","description":null,"www":null},{"place_id":"Una Farnia Gattatico Pantaro di Sotto 715","geometry":{"type":"Point","coordinates":[10.43003447,44.7886129]},"display_name":"Una Farnia Gattatico Pantaro di Sotto,from:IBC","category":"tree","type":"tree","importance":0.0,"icon":"","visiting_time":0.0,"opening_hours":"ok","opening_days":"ok","rating":0,"photo_url":"http://online.ibc.regione.emilia-romagna.it/mtrees/image/6708.jpg","description":null,"www":null},{"place_id":"Una Farnia Gattatico La Bertana 1035","geometry":{"type":"Point","coordinates":[10.44773683,44.77110598]},"display_name":"Una Farnia Gattatico La Bertana,from:IBC","category":"tree","type":"tree","importance":0.0,"icon":"","visiting_time":0.0,"opening_hours":"ok","opening_days":"ok","rating":0,"photo_url":"http://online.ibc.regione.emilia-romagna.it/mtrees/image/2080.01.08).jpg","description":null,"www":null}]