[{"place_id":"87083909","geometry":{"type":"Point","coordinates":[10.035521345,44.592123]},"display_name":"Salti del Diavolo, Cassio-Cazzola, Terenzo, PR, EMR, Italia","category":"attractions","type":"attraction","importance":0.001,"icon":"http://nominatim.openstreetmap.org/images/mapicons/poi_point_of_interest.p.20.png","visiting_time":30.0,"opening_hours":null,"opening_days":null,"rating":0,"photo_url":null,"description":null,"www":null},{"place_id":"127562755","geometry":{"type":"Point","coordinates":[9.924734232,44.63521795]},"display_name":"Cascate torrente Pessola, CP1, Cà Schiappone, Solignano, PR, EMR, Italia","category":"attractions","type":"attraction","importance":0.001,"icon":"http://nominatim.openstreetmap.org/images/mapicons/poi_point_of_interest.p.20.png","visiting_time":30.0,"opening_hours":null,"opening_days":null,"rating":0,"photo_url":null,"description":null,"www":null},{"place_id":"20007750","geometry":{"type":"Point","coordinates":[10.0441299,44.6855587]},"display_name":"SP28, Medesano, PR, EMR, 43045, Italia","category":"attractions","type":"viewpoint","importance":0.001,"icon":"http://nominatim.openstreetmap.org/images/mapicons/tourist_view_point.p.20.png","visiting_time":10.0,"opening_hours":null,"opening_days":null,"rating":0,"photo_url":null,"description":null,"www":null},{"place_id":"25644707","geometry":{"type":"Point","coordinates":[9.9450886,44.6532356]},"display_name":"810c, Castelcorniglio, Solignano, PR, EMR, Italia","category":"attractions","type":"viewpoint","importance":0.001,"icon":"http://nominatim.openstreetmap.org/images/mapicons/tourist_view_point.p.20.png","visiting_time":10.0,"opening_hours":null,"opening_days":null,"rating":0,"photo_url":null,"description":null,"www":null},{"place_id":"16166669","geometry":{"type":"Point","coordinates":[9.8908466,44.6528096]},"display_name":"Monte Lei, 814, Casa di Lei (rudere), Varsi, PR, EMR, 43049, Italia","category":"attractions","type":"viewpoint","importance":0.001,"icon":"http://nominatim.openstreetmap.org/images/mapicons/tourist_view_point.p.20.png","visiting_time":10.0,"opening_hours":null,"opening_days":null,"rating":0,"photo_url":null,"description":null,"www":null},{"place_id":"20754727","geometry":{"type":"Point","coordinates":[10.0379153,44.6873505]},"display_name":"via Piani Riva, Palazzo, Varano de' Melegari, PR, EMR, 43040, Italia","category":"eating","type":"fast_food","importance":0.001,"icon":"http://nominatim.openstreetmap.org/images/mapicons/food_fastfood.p.20.png","visiting_time":30.0,"opening_hours":null,"opening_days":null,"rating":0,"photo_url":null,"description":null,"www":null},{"place_id":"19613064","geometry":{"type":"Point","coordinates":[10.0494429,44.6855687]},"display_name":"Osteria delle Vigne, SP28, Medesano, PR, EMR, 43045, Italia","category":"eating","type":"restaurant","importance":0.001,"icon":"http://nominatim.openstreetmap.org/images/mapicons/food_restaurant.p.20.png","visiting_time":60.0,"opening_hours":null,"opening_days":null,"rating":0,"photo_url":null,"description":null,"www":null},{"place_id":"61937836","geometry":{"type":"Point","coordinates":[10.0491978,44.6133258]},"display_name":"La Ciastra Ed San Michel, Corniana, Ca d'Adello, Terenzo, PR, EMR, Italia","category":"eating","type":"restaurant","importance":0.001,"icon":"http://nominatim.openstreetmap.org/images/mapicons/food_restaurant.p.20.png","visiting_time":60.0,"opening_hours":null,"opening_days":null,"rating":0,"photo_url":null,"description":null,"www":null},{"place_id":"16726970","geometry":{"type":"Point","coordinates":[9.9483906,44.66078]},"display_name":"Alba, Strada Marena Specchio, Servazzola, Solignano, PR, EMR, Italia","category":"eating","type":"restaurant","importance":0.001,"icon":"http://nominatim.openstreetmap.org/images/mapicons/food_restaurant.p.20.png","visiting_time":60.0,"opening_hours":null,"opening_days":null,"rating":0,"photo_url":null,"description":null,"www":null},{"place_id":"4194047","geometry":{"type":"Point","coordinates":[9.967888,44.6595104]},"display_name":"Trattoria Fopla, strada Mazzareto Fopla, Mulino della Pessata, Solignano, PR, EMR, 43040, Italia","category":"eating","type":"restaurant","importance":0.001,"icon":"http://nominatim.openstreetmap.org/images/mapicons/food_restaurant.p.20.png","visiting_time":60.0,"opening_hours":null,"opening_days":null,"rating":0,"photo_url":null,"description":null,"www":null},{"place_id":"16686896","geometry":{"type":"Point","coordinates":[9.9051648,44.6821015]},"display_name":"La Variante, 171, Strada Contile Pessola, Vetrioni di Sotto, Varsi, PR, EMR, 43049, Italia","category":"eating","type":"restaurant","importance":0.001,"icon":"http://nominatim.openstreetmap.org/images/mapicons/food_restaurant.p.20.png","visiting_time":60.0,"opening_hours":null,"opening_days":null,"rating":0,"photo_url":null,"description":null,"www":null},{"place_id":"49967292","geometry":{"type":"Point","coordinates":[10.0322024,44.6449515]},"display_name":"Trattoria Pizzeria Bar Da Pippo, SP308R, Fornovo di Taro, PR, EMR, Italia","category":"eating","type":"restaurant","importance":0.001,"icon":"http://nominatim.openstreetmap.org/images/mapicons/food_restaurant.p.20.png","visiting_time":60.0,"opening_hours":null,"opening_days":null,"rating":0,"photo_url":null,"description":null,"www":null},{"place_id":"56061283","geometry":{"type":"Point","coordinates":[10.0358651,44.6752165]},"display_name":"Centro Agri-Venatorio  Monte Capuccio, SP28, Palazzo, Varano de' Melegari, PR, EMR, 43040, Italia","category":"eating","type":"restaurant","importance":0.001,"icon":"http://nominatim.openstreetmap.org/images/mapicons/food_restaurant.p.20.png","visiting_time":60.0,"opening_hours":null,"opening_days":null,"rating":0,"photo_url":null,"description":null,"www":null},{"place_id":"55253588","geometry":{"type":"Point","coordinates":[9.9351526,44.683129]},"display_name":"Antica Trattoria Carra, 13, SP28, Baracca, Varano de' Melegari, PR, EMR, 43040, Italia","category":"eating","type":"restaurant","importance":0.001,"icon":"http://nominatim.openstreetmap.org/images/mapicons/food_restaurant.p.20.png","visiting_time":60.0,"opening_hours":null,"opening_days":null,"rating":0,"photo_url":null,"description":null,"www":null},{"place_id":"16415019","geometry":{"type":"Point","coordinates":[9.9092991,44.6825983]},"display_name":"Ristorante Pizzeria Valceno, 36, SP28, Baracca, Varano de' Melegari, PR, EMR, 43040, Italia","category":"eating","type":"restaurant","importance":0.001,"icon":"http://nominatim.openstreetmap.org/images/mapicons/food_restaurant.p.20.png","visiting_time":60.0,"opening_hours":null,"opening_days":null,"rating":0,"photo_url":null,"description":null,"www":null},{"place_id":"53188369","geometry":{"type":"Point","coordinates":[10.0368998,44.6873095]},"display_name":"ristorante self-service  il ghiotto, via Piani Riva, Palazzo, Varano de' Melegari, PR, EMR, 43040, Italia","category":"eating","type":"restaurant","importance":0.001,"icon":"http://nominatim.openstreetmap.org/images/mapicons/food_restaurant.p.20.png","visiting_time":60.0,"opening_hours":null,"opening_days":null,"rating":0,"photo_url":null,"description":null,"www":null},{"place_id":"20601039","geometry":{"type":"Point","coordinates":[10.0079463,44.6878752]},"display_name":"Il Castello, Strada della Rocca, Pecorini, Varano de' Melegari, PR, EMR, 43040, Italia","category":"eating","type":"restaurant","importance":0.001,"icon":"http://nominatim.openstreetmap.org/images/mapicons/food_restaurant.p.20.png","visiting_time":60.0,"opening_hours":null,"opening_days":null,"rating":0,"photo_url":null,"description":null,"www":null},{"place_id":"20126785","geometry":{"type":"Point","coordinates":[10.0148338,44.6866665]},"display_name":"SP28, Manini, Varano de' Melegari, PR, EMR, 43040, Italia","category":"eating","type":"restaurant","importance":0.001,"icon":"http://nominatim.openstreetmap.org/images/mapicons/food_restaurant.p.20.png","visiting_time":60.0,"opening_hours":null,"opening_days":null,"rating":0,"photo_url":null,"description":null,"www":null},{"place_id":"19524854","geometry":{"type":"Point","coordinates":[9.9823206,44.6836217]},"display_name":"Trattoria di Case Contini, SP28, Casa Gabelli, Varano de' Melegari, PR, EMR, 43040, Italia","category":"eating","type":"restaurant","importance":0.001,"icon":"http://nominatim.openstreetmap.org/images/mapicons/food_restaurant.p.20.png","visiting_time":60.0,"opening_hours":null,"opening_days":null,"rating":0,"photo_url":null,"description":null,"www":null},{"place_id":"20754727","geometry":{"type":"Point","coordinates":[10.0379153,44.6873505]},"display_name":"via Piani Riva, Palazzo, Varano de' Melegari, PR, EMR, 43040, Italia","category":"eating","type":"fast_food","importance":0.001,"icon":"http://nominatim.openstreetmap.org/images/mapicons/food_fastfood.p.20.png","visiting_time":60.0,"opening_hours":null,"opening_days":null,"rating":0,"photo_url":null,"description":null,"www":null},{"place_id":"19613064","geometry":{"type":"Point","coordinates":[10.0494429,44.6855687]},"display_name":"Osteria delle Vigne, SP28, Medesano, PR, EMR, 43045, Italia","category":"eating","type":"restaurant","importance":0.001,"icon":"http://nominatim.openstreetmap.org/images/mapicons/food_restaurant.p.20.png","visiting_time":60.0,"opening_hours":null,"opening_days":null,"rating":0,"photo_url":null,"description":null,"www":null},{"place_id":"61937836","geometry":{"type":"Point","coordinates":[10.0491978,44.6133258]},"display_name":"La Ciastra Ed San Michel, Corniana, Ca d'Adello, Terenzo, PR, EMR, Italia","category":"eating","type":"restaurant","importance":0.001,"icon":"http://nominatim.openstreetmap.org/images/mapicons/food_restaurant.p.20.png","visiting_time":60.0,"opening_hours":null,"opening_days":null,"rating":0,"photo_url":null,"description":null,"www":null},{"place_id":"16726970","geometry":{"type":"Point","coordinates":[9.9483906,44.66078]},"display_name":"Alba, Strada Marena Specchio, Servazzola, Solignano, PR, EMR, Italia","category":"eating","type":"restaurant","importance":0.001,"icon":"http://nominatim.openstreetmap.org/images/mapicons/food_restaurant.p.20.png","visiting_time":60.0,"opening_hours":null,"opening_days":null,"rating":0,"photo_url":null,"description":null,"www":null},{"place_id":"4194047","geometry":{"type":"Point","coordinates":[9.967888,44.6595104]},"display_name":"Trattoria Fopla, strada Mazzareto Fopla, Mulino della Pessata, Solignano, PR, EMR, 43040, Italia","category":"eating","type":"restaurant","importance":0.001,"icon":"http://nominatim.openstreetmap.org/images/mapicons/food_restaurant.p.20.png","visiting_time":60.0,"opening_hours":null,"opening_days":null,"rating":0,"photo_url":null,"description":null,"www":null},{"place_id":"16686896","geometry":{"type":"Point","coordinates":[9.9051648,44.6821015]},"display_name":"La Variante, 171, Strada Contile Pessola, Vetrioni di Sotto, Varsi, PR, EMR, 43049, Italia","category":"eating","type":"restaurant","importance":0.001,"icon":"http://nominatim.openstreetmap.org/images/mapicons/food_restaurant.p.20.png","visiting_time":60.0,"opening_hours":null,"opening_days":null,"rating":0,"photo_url":null,"description":null,"www":null},{"place_id":"49967292","geometry":{"type":"Point","coordinates":[10.0322024,44.6449515]},"display_name":"Trattoria Pizzeria Bar Da Pippo, SP308R, Fornovo di Taro, PR, EMR, Italia","category":"eating","type":"restaurant","importance":0.001,"icon":"http://nominatim.openstreetmap.org/images/mapicons/food_restaurant.p.20.png","visiting_time":60.0,"opening_hours":null,"opening_days":null,"rating":0,"photo_url":null,"description":null,"www":null},{"place_id":"56061283","geometry":{"type":"Point","coordinates":[10.0358651,44.6752165]},"display_name":"Centro Agri-Venatorio  Monte Capuccio, SP28, Palazzo, Varano de' Melegari, PR, EMR, 43040, Italia","category":"eating","type":"restaurant","importance":0.001,"icon":"http://nominatim.openstreetmap.org/images/mapicons/food_restaurant.p.20.png","visiting_time":60.0,"opening_hours":null,"opening_days":null,"rating":0,"photo_url":null,"description":null,"www":null},{"place_id":"55253588","geometry":{"type":"Point","coordinates":[9.9351526,44.683129]},"display_name":"Antica Trattoria Carra, 13, SP28, Baracca, Varano de' Melegari, PR, EMR, 43040, Italia","category":"eating","type":"restaurant","importance":0.001,"icon":"http://nominatim.openstreetmap.org/images/mapicons/food_restaurant.p.20.png","visiting_time":60.0,"opening_hours":null,"opening_days":null,"rating":0,"photo_url":null,"description":null,"www":null},{"place_id":"16415019","geometry":{"type":"Point","coordinates":[9.9092991,44.6825983]},"display_name":"Ristorante Pizzeria Valceno, 36, SP28, Baracca, Varano de' Melegari, PR, EMR, 43040, Italia","category":"eating","type":"restaurant","importance":0.001,"icon":"http://nominatim.openstreetmap.org/images/mapicons/food_restaurant.p.20.png","visiting_time":60.0,"opening_hours":null,"opening_days":null,"rating":0,"photo_url":null,"description":null,"www":null},{"place_id":"53188369","geometry":{"type":"Point","coordinates":[10.0368998,44.6873095]},"display_name":"ristorante self-service  il ghiotto, via Piani Riva, Palazzo, Varano de' Melegari, PR, EMR, 43040, Italia","category":"eating","type":"restaurant","importance":0.001,"icon":"http://nominatim.openstreetmap.org/images/mapicons/food_restaurant.p.20.png","visiting_time":60.0,"opening_hours":null,"opening_days":null,"rating":0,"photo_url":null,"description":null,"www":null},{"place_id":"20601039","geometry":{"type":"Point","coordinates":[10.0079463,44.6878752]},"display_name":"Il Castello, Strada della Rocca, Pecorini, Varano de' Melegari, PR, EMR, 43040, Italia","category":"eating","type":"restaurant","importance":0.001,"icon":"http://nominatim.openstreetmap.org/images/mapicons/food_restaurant.p.20.png","visiting_time":60.0,"opening_hours":null,"opening_days":null,"rating":0,"photo_url":null,"description":null,"www":null},{"place_id":"20126785","geometry":{"type":"Point","coordinates":[10.0148338,44.6866665]},"display_name":"SP28, Manini, Varano de' Melegari, PR, EMR, 43040, Italia","category":"eating","type":"restaurant","importance":0.001,"icon":"http://nominatim.openstreetmap.org/images/mapicons/food_restaurant.p.20.png","visiting_time":60.0,"opening_hours":null,"opening_days":null,"rating":0,"photo_url":null,"description":null,"www":null},{"place_id":"19524854","geometry":{"type":"Point","coordinates":[9.9823206,44.6836217]},"display_name":"Trattoria di Case Contini, SP28, Casa Gabelli, Varano de' Melegari, PR, EMR, 43040, Italia","category":"eating","type":"restaurant","importance":0.001,"icon":"http://nominatim.openstreetmap.org/images/mapicons/food_restaurant.p.20.png","visiting_time":60.0,"opening_hours":null,"opening_days":null,"rating":0,"photo_url":null,"description":null,"www":null},{"place_id":"179051838","geometry":{"type":"Point","coordinates":[9.942034601,44.64748285]},"display_name":"Castel Corniglio, CP1/810c, Raboini, Solignano, PR, EMR, Italia","category":"attractions","type":"castle","importance":0.001,"icon":"http://nominatim.openstreetmap.org/images/mapicons/tourist_castle.p.20.png","visiting_time":120.0,"opening_hours":null,"opening_days":null,"rating":0,"photo_url":null,"description":null,"www":null},{"place_id":"179227854","geometry":{"type":"Point","coordinates":[10.007189715,44.68751335]},"display_name":"Castello Pallavicino, SP28, Pecorini, Varano de' Melegari, PR, EMR, 43040, Italia","category":"attractions","type":"castle","importance":0.001,"icon":"http://nominatim.openstreetmap.org/images/mapicons/tourist_castle.p.20.png","visiting_time":120.0,"opening_hours":null,"opening_days":null,"rating":0,"photo_url":null,"description":null,"www":null},{"place_id":"20505333","geometry":{"type":"Point","coordinates":[10.0495934,44.685616]},"display_name":"Angel's bar, SP28, Medesano, PR, EMR, 43045, Italia","category":"lifestyle","type":"bar","importance":0.101,"icon":"http://nominatim.openstreetmap.org/images/mapicons/food_bar.p.20.png","visiting_time":10.0,"opening_hours":null,"opening_days":null,"rating":0,"photo_url":null,"description":null,"www":null},{"place_id":"53880340","geometry":{"type":"Point","coordinates":[9.9091478,44.682636]},"display_name":"SP28, Baracca, Varano de' Melegari, PR, EMR, 43049, Italia","category":"lifestyle","type":"bar","importance":0.101,"icon":"http://nominatim.openstreetmap.org/images/mapicons/food_bar.p.20.png","visiting_time":10.0,"opening_hours":null,"opening_days":null,"rating":0,"photo_url":null,"description":null,"www":null},{"place_id":"24777926","geometry":{"type":"Point","coordinates":[9.9482711,44.6609399]},"display_name":"Alba, Strada Marena Specchio, Servazzola, Solignano, PR, EMR, Italia","category":"lifestyle","type":"bar","importance":0.001,"icon":"http://nominatim.openstreetmap.org/images/mapicons/food_bar.p.20.png","visiting_time":10.0,"opening_hours":null,"opening_days":null,"rating":0,"photo_url":null,"description":null,"www":null},{"place_id":"54395147","geometry":{"type":"Point","coordinates":[9.9051619,44.6820658]},"display_name":"La Variante, SP28, Vetrioni di Sotto, Varsi, PR, EMR, 43049, Italia","category":"lifestyle","type":"bar","importance":0.001,"icon":"http://nominatim.openstreetmap.org/images/mapicons/food_bar.p.20.png","visiting_time":10.0,"opening_hours":null,"opening_days":null,"rating":0,"photo_url":null,"description":null,"www":null},{"place_id":"20478867","geometry":{"type":"Point","coordinates":[10.0121248,44.6875265]},"display_name":"SP28, Manini, Varano de' Melegari, PR, EMR, 43040, Italia","category":"lifestyle","type":"bar","importance":0.001,"icon":"http://nominatim.openstreetmap.org/images/mapicons/food_bar.p.20.png","visiting_time":10.0,"opening_hours":null,"opening_days":null,"rating":0,"photo_url":null,"description":null,"www":null},{"place_id":"20754727","geometry":{"type":"Point","coordinates":[10.0379153,44.6873505]},"display_name":"via Piani Riva, Palazzo, Varano de' Melegari, PR, EMR, 43040, Italia","category":"lifestyle","type":"fast_food","importance":0.001,"icon":"http://nominatim.openstreetmap.org/images/mapicons/food_fastfood.p.20.png","visiting_time":10.0,"opening_hours":null,"opening_days":null,"rating":0,"photo_url":null,"description":null,"www":null},{"place_id":"20505333","geometry":{"type":"Point","coordinates":[10.0495934,44.685616]},"display_name":"Angel's bar, SP28, Medesano, PR, EMR, 43045, Italia","category":"lifestyle","type":"bar","importance":0.001,"icon":"http://nominatim.openstreetmap.org/images/mapicons/food_bar.p.20.png","visiting_time":90.0,"opening_hours":null,"opening_days":null,"rating":0,"photo_url":null,"description":null,"www":null},{"place_id":"24777926","geometry":{"type":"Point","coordinates":[9.9482711,44.6609399]},"display_name":"Alba, Strada Marena Specchio, Servazzola, Solignano, PR, EMR, Italia","category":"lifestyle","type":"bar","importance":0.001,"icon":"http://nominatim.openstreetmap.org/images/mapicons/food_bar.p.20.png","visiting_time":90.0,"opening_hours":null,"opening_days":null,"rating":0,"photo_url":null,"description":null,"www":null},{"place_id":"54395147","geometry":{"type":"Point","coordinates":[9.9051619,44.6820658]},"display_name":"La Variante, SP28, Vetrioni di Sotto, Varsi, PR, EMR, 43049, Italia","category":"lifestyle","type":"bar","importance":0.001,"icon":"http://nominatim.openstreetmap.org/images/mapicons/food_bar.p.20.png","visiting_time":90.0,"opening_hours":null,"opening_days":null,"rating":0,"photo_url":null,"description":null,"www":null},{"place_id":"20478867","geometry":{"type":"Point","coordinates":[10.0121248,44.6875265]},"display_name":"SP28, Manini, Varano de' Melegari, PR, EMR, 43040, Italia","category":"lifestyle","type":"bar","importance":0.001,"icon":"http://nominatim.openstreetmap.org/images/mapicons/food_bar.p.20.png","visiting_time":90.0,"opening_hours":null,"opening_days":null,"rating":0,"photo_url":null,"description":null,"www":null},{"place_id":"53880340","geometry":{"type":"Point","coordinates":[9.9091478,44.682636]},"display_name":"SP28, Baracca, Varano de' Melegari, PR, EMR, 43049, Italia","category":"lifestyle","type":"bar","importance":0.001,"icon":"http://nominatim.openstreetmap.org/images/mapicons/food_bar.p.20.png","visiting_time":90.0,"opening_hours":null,"opening_days":null,"rating":0,"photo_url":null,"description":null,"www":null},{"place_id":"180169053","geometry":{"type":"Point","coordinates":[-8.3350726,43.2233149]},"display_name":"Abegondo, Galicia, CAFE, España","category":"lifestyle","type":"postcode","importance":0.2125,"icon":null,"visiting_time":10.0,"opening_hours":null,"opening_days":null,"rating":0,"photo_url":null,"description":null,"www":null},{"place_id":"16573343","geometry":{"type":"Point","coordinates":[9.9408836,44.6455486]},"display_name":"Incrocio, CP1, Cà Schiappone, Solignano, PR, EMR, Italia","category":"attractions","type":"memorial","importance":0.001,"icon":"http://nominatim.openstreetmap.org/images/mapicons/tourist_monument.p.20.png","visiting_time":10.0,"opening_hours":null,"opening_days":null,"rating":0,"photo_url":null,"description":null,"www":null},{"place_id":"56408880","geometry":{"type":"Point","coordinates":[10.0352557,44.5873818]},"display_name":"monumento ai caduti, Vicolo delle Fontane, Terenzo, PR, EMR, Italia","category":"attractions","type":"monument","importance":0.101,"icon":"http://nominatim.openstreetmap.org/images/mapicons/tourist_monument.p.20.png","visiting_time":10.0,"opening_hours":null,"opening_days":null,"rating":0,"photo_url":null,"description":null,"www":null},{"place_id":"7652713","geometry":{"type":"Point","coordinates":[10.0366607,44.5872132]},"display_name":"Santa Maria Assunta, Strada degli Scalpellini, Terenzo, PR, EMR, Italia","category":"attractions","type":"monument","importance":0.001,"icon":"http://nominatim.openstreetmap.org/images/mapicons/tourist_monument.p.20.png","visiting_time":10.0,"opening_hours":null,"opening_days":null,"rating":0,"photo_url":null,"description":null,"www":null},{"place_id":"113493280","geometry":{"type":"Point","coordinates":[10.090515429,44.61033455]},"display_name":"Santo Stefano, Bardone-Terenzo, Ca d'Adello, Terenzo, PR, EMR, Italia","category":"attractions","type":"monument","importance":0.001,"icon":"http://nominatim.openstreetmap.org/images/mapicons/tourist_monument.p.20.png","visiting_time":10.0,"opening_hours":null,"opening_days":null,"rating":0,"photo_url":null,"description":null,"www":null},{"place_id":"16573343","geometry":{"type":"Point","coordinates":[9.9408836,44.6455486]},"display_name":"Incrocio, CP1, Cà Schiappone, Solignano, PR, EMR, Italia","category":"attractions","type":"memorial","importance":0.001,"icon":"http://nominatim.openstreetmap.org/images/mapicons/tourist_monument.p.20.png","visiting_time":10.0,"opening_hours":null,"opening_days":null,"rating":0,"photo_url":null,"description":null,"www":null},{"place_id":"54499576","geometry":{"type":"Point","coordinates":[9.989721,44.6865752]},"display_name":"SP28, Piana, Varano de' Melegari, PR, EMR, 43040, Italia","category":"attractions","type":"monument","importance":0.001,"icon":"http://nominatim.openstreetmap.org/images/mapicons/tourist_monument.p.20.png","visiting_time":10.0,"opening_hours":null,"opening_days":null,"rating":0,"photo_url":null,"description":null,"www":null},{"place_id":"18536115","geometry":{"type":"Point","coordinates":[9.9554211,44.6819164]},"display_name":"Battistero di Serravalle, SP28, Casa Gabelli, Varano de' Melegari, PR, EMR, 43040, Italia","category":"attractions","type":"monument","importance":0.001,"icon":"http://nominatim.openstreetmap.org/images/mapicons/tourist_monument.p.20.png","visiting_time":10.0,"opening_hours":null,"opening_days":null,"rating":0,"photo_url":null,"description":null,"www":null},{"place_id":"170371755","geometry":{"type":"Point","coordinates":[10.081243089,44.68409555]},"display_name":"Solignano, PR, EMR, Italia","category":"parks","type":"park","importance":0.15,"icon":null,"visiting_time":90.0,"opening_hours":null,"opening_days":null,"rating":0,"photo_url":null,"description":null,"www":null},{"place_id":"160294296","geometry":{"type":"Point","coordinates":[10.044624443,44.68566435]},"display_name":"Il Palazzo, Varano de' Melegari, PR, EMR, Italia","category":"parks","type":"park","importance":0.15,"icon":null,"visiting_time":90.0,"opening_hours":null,"opening_days":null,"rating":0,"photo_url":null,"description":null,"www":null},{"place_id":"160957004","geometry":{"type":"Point","coordinates":[10.024128848,44.68520475]},"display_name":"Bazzani, Varano de' Melegari, PR, EMR, Italia","category":"parks","type":"park","importance":0.15,"icon":null,"visiting_time":90.0,"opening_hours":null,"opening_days":null,"rating":0,"photo_url":null,"description":null,"www":null},{"place_id":"114159343","geometry":{"type":"Point","coordinates":[10.073080703,44.5933072]},"display_name":"Chiesa di Sant'Apollinare, Casola Castello-Villa, Ca d'Adello, Terenzo, PR, EMR, Italia","category":"attractions","type":"place_of_worship","importance":0.001,"icon":"http://nominatim.openstreetmap.org/images/mapicons/place_of_worship_unknown3.p.20.png","visiting_time":30.0,"opening_hours":null,"opening_days":null,"rating":0,"photo_url":null,"description":null,"www":null},{"place_id":"7652705","geometry":{"type":"Point","coordinates":[10.0366607,44.5872132]},"display_name":"Santa Maria Assunta, Strada degli Scalpellini, Terenzo, PR, EMR, Italia","category":"attractions","type":"place_of_worship","importance":0.001,"icon":"http://nominatim.openstreetmap.org/images/mapicons/place_of_worship_unknown3.p.20.png","visiting_time":30.0,"opening_hours":null,"opening_days":null,"rating":0,"photo_url":null,"description":null,"www":null},{"place_id":"113493274","geometry":{"type":"Point","coordinates":[10.090515429,44.61033455]},"display_name":"Santo Stefano, Bardone-Terenzo, Ca d'Adello, Terenzo, PR, EMR, Italia","category":"attractions","type":"place_of_worship","importance":0.001,"icon":"http://nominatim.openstreetmap.org/images/mapicons/place_of_worship_unknown3.p.20.png","visiting_time":30.0,"opening_hours":null,"opening_days":null,"rating":0,"photo_url":null,"description":null,"www":null},{"place_id":"111897316","geometry":{"type":"Point","coordinates":[10.053871052,44.61454075]},"display_name":"Chiesa di San Michele, Corniana, Ca d'Adello, Terenzo, PR, EMR, Italia","category":"attractions","type":"place_of_worship","importance":0.001,"icon":"http://nominatim.openstreetmap.org/images/mapicons/place_of_worship_unknown3.p.20.png","visiting_time":30.0,"opening_hours":null,"opening_days":null,"rating":0,"photo_url":null,"description":null,"www":null},{"place_id":"15861105","geometry":{"type":"Point","coordinates":[9.8966631,44.660743]},"display_name":"Maestà Madonnina, Strada Carpadasco, Carpadasco, Solignano, PR, EMR, 43049, Italia","category":"attractions","type":"place_of_worship","importance":0.001,"icon":"http://nominatim.openstreetmap.org/images/mapicons/place_of_worship_unknown3.p.20.png","visiting_time":30.0,"opening_hours":null,"opening_days":null,"rating":0,"photo_url":null,"description":null,"www":null},{"place_id":"16530335","geometry":{"type":"Point","coordinates":[9.8961716,44.665223]},"display_name":"Madonnina di Carpadasco, Strada Carpadasco, Carpadasco, Solignano, PR, EMR, 43049, Italia","category":"attractions","type":"place_of_worship","importance":0.001,"icon":"http://nominatim.openstreetmap.org/images/mapicons/place_of_worship_unknown3.p.20.png","visiting_time":30.0,"opening_hours":null,"opening_days":null,"rating":0,"photo_url":null,"description":null,"www":null},{"place_id":"16370429","geometry":{"type":"Point","coordinates":[9.9173015,44.6609737]},"display_name":"Oratorio Selva, Strada Selva Priana, Selva, Solignano, PR, EMR, Italia","category":"attractions","type":"place_of_worship","importance":0.001,"icon":"http://nominatim.openstreetmap.org/images/mapicons/place_of_worship_unknown3.p.20.png","visiting_time":30.0,"opening_hours":null,"opening_days":null,"rating":0,"photo_url":null,"description":null,"www":null},{"place_id":"12817919","geometry":{"type":"Point","coordinates":[9.9153346,44.6654136]},"display_name":"Maestà Barbieri, Barbieri, Solignano, PR, EMR, 43049, Italia","category":"attractions","type":"place_of_worship","importance":0.001,"icon":"http://nominatim.openstreetmap.org/images/mapicons/place_of_worship_unknown3.p.20.png","visiting_time":30.0,"opening_hours":null,"opening_days":null,"rating":0,"photo_url":null,"description":null,"www":null},{"place_id":"15922877","geometry":{"type":"Point","coordinates":[9.8949865,44.663793]},"display_name":"Oratorio Carpadasco, Strada Carpadasco, Carpadasco, Solignano, PR, EMR, 43049, Italia","category":"attractions","type":"place_of_worship","importance":0.001,"icon":"http://nominatim.openstreetmap.org/images/mapicons/place_of_worship_unknown3.p.20.png","visiting_time":30.0,"opening_hours":null,"opening_days":null,"rating":0,"photo_url":null,"description":null,"www":null},{"place_id":"16192864","geometry":{"type":"Point","coordinates":[9.94783,44.6618082]},"display_name":"Chiesa di Specchio, Strada Marena Specchio, Servazzola, Solignano, PR, EMR, Italia","category":"attractions","type":"place_of_worship","importance":0.001,"icon":"http://nominatim.openstreetmap.org/images/mapicons/place_of_worship_unknown3.p.20.png","visiting_time":30.0,"opening_hours":null,"opening_days":null,"rating":0,"photo_url":null,"description":null,"www":null},{"place_id":"16768819","geometry":{"type":"Point","coordinates":[9.9111089,44.6636464]},"display_name":"Croce campestre, Strada Marena Massari, Barbieri, Solignano, PR, EMR, 43049, Italia","category":"attractions","type":"place_of_worship","importance":0.001,"icon":"http://nominatim.openstreetmap.org/images/mapicons/place_of_worship_unknown3.p.20.png","visiting_time":30.0,"opening_hours":null,"opening_days":null,"rating":0,"photo_url":null,"description":null,"www":null},{"place_id":"16295330","geometry":{"type":"Point","coordinates":[9.9244567,44.6506569]},"display_name":"Maestà della Fosa, 810c, Ca Segata, Solignano, PR, EMR, Italia","category":"attractions","type":"place_of_worship","importance":0.001,"icon":"http://nominatim.openstreetmap.org/images/mapicons/place_of_worship_unknown3.p.20.png","visiting_time":30.0,"opening_hours":null,"opening_days":null,"rating":0,"photo_url":null,"description":null,"www":null},{"place_id":"16198849","geometry":{"type":"Point","coordinates":[9.8996746,44.6688171]},"display_name":"San Rocco, Strada Contile Pessola, Case Nuove, Solignano, PR, EMR, 43049, Italia","category":"attractions","type":"place_of_worship","importance":0.001,"icon":"http://nominatim.openstreetmap.org/images/mapicons/place_of_worship_unknown3.p.20.png","visiting_time":30.0,"opening_hours":null,"opening_days":null,"rating":0,"photo_url":null,"description":null,"www":null},{"place_id":"18671137","geometry":{"type":"Point","coordinates":[9.9557949,44.6281835]},"display_name":"Strada Bivio Plererna - Solignano, Mulino della Pessata, Solignano, PR, EMR, Italia","category":"attractions","type":"place_of_worship","importance":0.001,"icon":"http://nominatim.openstreetmap.org/images/mapicons/place_of_worship_unknown3.p.20.png","visiting_time":30.0,"opening_hours":null,"opening_days":null,"rating":0,"photo_url":null,"description":null,"www":null},{"place_id":"13193555","geometry":{"type":"Point","coordinates":[9.8904697,44.6425638]},"display_name":"Oratorio San Vito, Strada Contile Pessola, Cà Brugnolo, Varsi, PR, EMR, 43049, Italia","category":"attractions","type":"place_of_worship","importance":0.001,"icon":"http://nominatim.openstreetmap.org/images/mapicons/place_of_worship_unknown3.p.20.png","visiting_time":30.0,"opening_hours":null,"opening_days":null,"rating":0,"photo_url":null,"description":null,"www":null},{"place_id":"15556224","geometry":{"type":"Point","coordinates":[9.9013371,44.6545778]},"display_name":"Crocione, 814, la Faggia, Varsi, PR, EMR, 43049, Italia","category":"attractions","type":"place_of_worship","importance":0.001,"icon":"http://nominatim.openstreetmap.org/images/mapicons/place_of_worship_unknown3.p.20.png","visiting_time":30.0,"opening_hours":null,"opening_days":null,"rating":0,"photo_url":null,"description":null,"www":null},{"place_id":"15575061","geometry":{"type":"Point","coordinates":[9.8993296,44.6467101]},"display_name":"Maestà della Colla, Strada Contile Pessola, la Faggia, Varsi, PR, EMR, 43049, Italia","category":"attractions","type":"place_of_worship","importance":0.001,"icon":"http://nominatim.openstreetmap.org/images/mapicons/place_of_worship_unknown3.p.20.png","visiting_time":30.0,"opening_hours":null,"opening_days":null,"rating":0,"photo_url":null,"description":null,"www":null},{"place_id":"15711803","geometry":{"type":"Point","coordinates":[9.903473,44.6519943]},"display_name":"Parrochiale Contile, Strada Contile Pessola, la Faggia, Varsi, PR, EMR, 43049, Italia","category":"attractions","type":"place_of_worship","importance":0.001,"icon":"http://nominatim.openstreetmap.org/images/mapicons/place_of_worship_unknown3.p.20.png","visiting_time":30.0,"opening_hours":null,"opening_days":null,"rating":0,"photo_url":null,"description":null,"www":null},{"place_id":"19044355","geometry":{"type":"Point","coordinates":[10.0137889,44.6867738]},"display_name":"Chiesa di Varano Melegari, SP28, Manini, Varano de' Melegari, PR, EMR, 43040, Italia","category":"attractions","type":"place_of_worship","importance":0.001,"icon":"http://nominatim.openstreetmap.org/images/mapicons/place_of_worship_unknown3.p.20.png","visiting_time":30.0,"opening_hours":null,"opening_days":null,"rating":0,"photo_url":null,"description":null,"www":null},{"place_id":"114159343","geometry":{"type":"Point","coordinates":[10.073080703,44.5933072]},"display_name":"Chiesa di Sant'Apollinare, Casola Castello-Villa, Ca d'Adello, Terenzo, PR, EMR, Italia","category":"attractions","type":"place_of_worship","importance":0.001,"icon":"http://nominatim.openstreetmap.org/images/mapicons/place_of_worship_unknown3.p.20.png","visiting_time":30.0,"opening_hours":null,"opening_days":null,"rating":0,"photo_url":null,"description":null,"www":null},{"place_id":"7652705","geometry":{"type":"Point","coordinates":[10.0366607,44.5872132]},"display_name":"Santa Maria Assunta, Strada degli Scalpellini, Terenzo, PR, EMR, Italia","category":"attractions","type":"place_of_worship","importance":0.001,"icon":"http://nominatim.openstreetmap.org/images/mapicons/place_of_worship_unknown3.p.20.png","visiting_time":30.0,"opening_hours":null,"opening_days":null,"rating":0,"photo_url":null,"description":null,"www":null},{"place_id":"113493274","geometry":{"type":"Point","coordinates":[10.090515429,44.61033455]},"display_name":"Santo Stefano, Bardone-Terenzo, Ca d'Adello, Terenzo, PR, EMR, Italia","category":"attractions","type":"place_of_worship","importance":0.001,"icon":"http://nominatim.openstreetmap.org/images/mapicons/place_of_worship_unknown3.p.20.png","visiting_time":30.0,"opening_hours":null,"opening_days":null,"rating":0,"photo_url":null,"description":null,"www":null},{"place_id":"111897316","geometry":{"type":"Point","coordinates":[10.053871052,44.61454075]},"display_name":"Chiesa di San Michele, Corniana, Ca d'Adello, Terenzo, PR, EMR, Italia","category":"attractions","type":"place_of_worship","importance":0.001,"icon":"http://nominatim.openstreetmap.org/images/mapicons/place_of_worship_unknown3.p.20.png","visiting_time":30.0,"opening_hours":null,"opening_days":null,"rating":0,"photo_url":null,"description":null,"www":null},{"place_id":"15861105","geometry":{"type":"Point","coordinates":[9.8966631,44.660743]},"display_name":"Maestà Madonnina, Strada Carpadasco, Carpadasco, Solignano, PR, EMR, 43049, Italia","category":"attractions","type":"place_of_worship","importance":0.001,"icon":"http://nominatim.openstreetmap.org/images/mapicons/place_of_worship_unknown3.p.20.png","visiting_time":30.0,"opening_hours":null,"opening_days":null,"rating":0,"photo_url":null,"description":null,"www":null},{"place_id":"16530335","geometry":{"type":"Point","coordinates":[9.8961716,44.665223]},"display_name":"Madonnina di Carpadasco, Strada Carpadasco, Carpadasco, Solignano, PR, EMR, 43049, Italia","category":"attractions","type":"place_of_worship","importance":0.001,"icon":"http://nominatim.openstreetmap.org/images/mapicons/place_of_worship_unknown3.p.20.png","visiting_time":30.0,"opening_hours":null,"opening_days":null,"rating":0,"photo_url":null,"description":null,"www":null},{"place_id":"16370429","geometry":{"type":"Point","coordinates":[9.9173015,44.6609737]},"display_name":"Oratorio Selva, Strada Selva Priana, Selva, Solignano, PR, EMR, Italia","category":"attractions","type":"place_of_worship","importance":0.001,"icon":"http://nominatim.openstreetmap.org/images/mapicons/place_of_worship_unknown3.p.20.png","visiting_time":30.0,"opening_hours":null,"opening_days":null,"rating":0,"photo_url":null,"description":null,"www":null},{"place_id":"12817919","geometry":{"type":"Point","coordinates":[9.9153346,44.6654136]},"display_name":"Maestà Barbieri, Barbieri, Solignano, PR, EMR, 43049, Italia","category":"attractions","type":"place_of_worship","importance":0.001,"icon":"http://nominatim.openstreetmap.org/images/mapicons/place_of_worship_unknown3.p.20.png","visiting_time":30.0,"opening_hours":null,"opening_days":null,"rating":0,"photo_url":null,"description":null,"www":null},{"place_id":"15922877","geometry":{"type":"Point","coordinates":[9.8949865,44.663793]},"display_name":"Oratorio Carpadasco, Strada Carpadasco, Carpadasco, Solignano, PR, EMR, 43049, Italia","category":"attractions","type":"place_of_worship","importance":0.001,"icon":"http://nominatim.openstreetmap.org/images/mapicons/place_of_worship_unknown3.p.20.png","visiting_time":30.0,"opening_hours":null,"opening_days":null,"rating":0,"photo_url":null,"description":null,"www":null},{"place_id":"16192864","geometry":{"type":"Point","coordinates":[9.94783,44.6618082]},"display_name":"Chiesa di Specchio, Strada Marena Specchio, Servazzola, Solignano, PR, EMR, Italia","category":"attractions","type":"place_of_worship","importance":0.001,"icon":"http://nominatim.openstreetmap.org/images/mapicons/place_of_worship_unknown3.p.20.png","visiting_time":30.0,"opening_hours":null,"opening_days":null,"rating":0,"photo_url":null,"description":null,"www":null},{"place_id":"16768819","geometry":{"type":"Point","coordinates":[9.9111089,44.6636464]},"display_name":"Croce campestre, Strada Marena Massari, Barbieri, Solignano, PR, EMR, 43049, Italia","category":"attractions","type":"place_of_worship","importance":0.001,"icon":"http://nominatim.openstreetmap.org/images/mapicons/place_of_worship_unknown3.p.20.png","visiting_time":30.0,"opening_hours":null,"opening_days":null,"rating":0,"photo_url":null,"description":null,"www":null},{"place_id":"16295330","geometry":{"type":"Point","coordinates":[9.9244567,44.6506569]},"display_name":"Maestà della Fosa, 810c, Ca Segata, Solignano, PR, EMR, Italia","category":"attractions","type":"place_of_worship","importance":0.001,"icon":"http://nominatim.openstreetmap.org/images/mapicons/place_of_worship_unknown3.p.20.png","visiting_time":30.0,"opening_hours":null,"opening_days":null,"rating":0,"photo_url":null,"description":null,"www":null},{"place_id":"16198849","geometry":{"type":"Point","coordinates":[9.8996746,44.6688171]},"display_name":"San Rocco, Strada Contile Pessola, Case Nuove, Solignano, PR, EMR, 43049, Italia","category":"attractions","type":"place_of_worship","importance":0.001,"icon":"http://nominatim.openstreetmap.org/images/mapicons/place_of_worship_unknown3.p.20.png","visiting_time":30.0,"opening_hours":null,"opening_days":null,"rating":0,"photo_url":null,"description":null,"www":null},{"place_id":"18671137","geometry":{"type":"Point","coordinates":[9.9557949,44.6281835]},"display_name":"Strada Bivio Plererna - Solignano, Mulino della Pessata, Solignano, PR, EMR, Italia","category":"attractions","type":"place_of_worship","importance":0.001,"icon":"http://nominatim.openstreetmap.org/images/mapicons/place_of_worship_unknown3.p.20.png","visiting_time":30.0,"opening_hours":null,"opening_days":null,"rating":0,"photo_url":null,"description":null,"www":null},{"place_id":"13193555","geometry":{"type":"Point","coordinates":[9.8904697,44.6425638]},"display_name":"Oratorio San Vito, Strada Contile Pessola, Cà Brugnolo, Varsi, PR, EMR, 43049, Italia","category":"attractions","type":"place_of_worship","importance":0.001,"icon":"http://nominatim.openstreetmap.org/images/mapicons/place_of_worship_unknown3.p.20.png","visiting_time":30.0,"opening_hours":null,"opening_days":null,"rating":0,"photo_url":null,"description":null,"www":null},{"place_id":"15556224","geometry":{"type":"Point","coordinates":[9.9013371,44.6545778]},"display_name":"Crocione, 814, la Faggia, Varsi, PR, EMR, 43049, Italia","category":"attractions","type":"place_of_worship","importance":0.001,"icon":"http://nominatim.openstreetmap.org/images/mapicons/place_of_worship_unknown3.p.20.png","visiting_time":30.0,"opening_hours":null,"opening_days":null,"rating":0,"photo_url":null,"description":null,"www":null},{"place_id":"15575061","geometry":{"type":"Point","coordinates":[9.8993296,44.6467101]},"display_name":"Maestà della Colla, Strada Contile Pessola, la Faggia, Varsi, PR, EMR, 43049, Italia","category":"attractions","type":"place_of_worship","importance":0.001,"icon":"http://nominatim.openstreetmap.org/images/mapicons/place_of_worship_unknown3.p.20.png","visiting_time":30.0,"opening_hours":null,"opening_days":null,"rating":0,"photo_url":null,"description":null,"www":null},{"place_id":"15711803","geometry":{"type":"Point","coordinates":[9.903473,44.6519943]},"display_name":"Parrochiale Contile, Strada Contile Pessola, la Faggia, Varsi, PR, EMR, 43049, Italia","category":"attractions","type":"place_of_worship","importance":0.001,"icon":"http://nominatim.openstreetmap.org/images/mapicons/place_of_worship_unknown3.p.20.png","visiting_time":30.0,"opening_hours":null,"opening_days":null,"rating":0,"photo_url":null,"description":null,"www":null},{"place_id":"19044355","geometry":{"type":"Point","coordinates":[10.0137889,44.6867738]},"display_name":"Chiesa di Varano Melegari, SP28, Manini, Varano de' Melegari, PR, EMR, 43040, Italia","category":"attractions","type":"place_of_worship","importance":0.001,"icon":"http://nominatim.openstreetmap.org/images/mapicons/place_of_worship_unknown3.p.20.png","visiting_time":30.0,"opening_hours":null,"opening_days":null,"rating":0,"photo_url":null,"description":null,"www":null},{"place_id":"54704718","geometry":{"type":"Point","coordinates":[9.9051836,44.6820317]},"display_name":"La Variante, 171, Strada Contile Pessola, Vetrioni di Sotto, Varsi, PR, EMR, 43049, Italia","category":"resting","type":"hotel","importance":0.001,"icon":"http://nominatim.openstreetmap.org/images/mapicons/accommodation_hotel2.p.20.png","visiting_time":10.0,"opening_hours":null,"opening_days":null,"rating":0,"photo_url":null,"description":null,"www":null},{"place_id":"19730304","geometry":{"type":"Point","coordinates":[10.0175303,44.6858486]},"display_name":"Albergo Ristorante La Roccia, SP28, Bazzani, Varano de' Melegari, PR, EMR, 43040, Italia","category":"resting","type":"hotel","importance":0.001,"icon":"http://nominatim.openstreetmap.org/images/mapicons/accommodation_hotel2.p.20.png","visiting_time":10.0,"opening_hours":null,"opening_days":null,"rating":0,"photo_url":null,"description":null,"www":null}]