[{"place_id":"44,59624786980130","geometry":{"type":"Point","coordinates":[11.053015843,44.59624787]},"display_name":"Comune di Castelfranco Emilia,from:IBC","category":"attractions","type":"HolderOfArchives","importance":0.0,"icon":"","visiting_time":0.0,"opening_hours":"ok","opening_days":"ok","rating":0,"photo_url":null,"description":null,"www":"http://www.castelfranco-emilia.mo.it"},{"place_id":"44,56145597350920","geometry":{"type":"Point","coordinates":[11.033769151,44.561455974]},"display_name":"Comune di San Cesario sul Panaro,from:IBC","category":"attractions","type":"HolderOfArchives","importance":0.0,"icon":"","visiting_time":0.0,"opening_hours":"ok","opening_days":"ok","rating":0,"photo_url":null,"description":null,"www":"http://www.comune.sancesariosulpanaro.mo.it"},{"place_id":"44,53542200286240","geometry":{"type":"Point","coordinates":[11.02449224,44.535422003]},"display_name":"Comune di Spilamberto,from:IBC","category":"attractions","type":"HolderOfArchives","importance":0.0,"icon":"","visiting_time":0.0,"opening_hours":"ok","opening_days":"ok","rating":0,"photo_url":null,"description":null,"www":"http://www.comune.spilamberto.mo.it"},{"place_id":"44,53257095763160","geometry":{"type":"Point","coordinates":[11.024450744,44.532570958]},"display_name":"Biblioteca comunale Peppino Impastato,from:IBC","category":"attractions","type":"Library","importance":0.0,"icon":"","visiting_time":0.0,"opening_hours":"ok","opening_days":"ok","rating":0,"photo_url":null,"description":null,"www":"http://www.cedoc.mo.it/biblioteca_spilamberto.php"},{"place_id":"44,53257095763160","geometry":{"type":"Point","coordinates":[11.024450744,44.532570958]},"display_name":"Biblioteca comunale Peppino Impastato,from:IBC","category":"attractions","type":"Library","importance":0.0,"icon":"","visiting_time":0.0,"opening_hours":"ok","opening_days":"ok","rating":0,"photo_url":null,"description":null,"www":"http://www.comune.spilamberto.mo.it/comune/uffici/biblioteca/index.htm"},{"place_id":"44,59542505628770","geometry":{"type":"Point","coordinates":[11.054898069,44.595425056]},"display_name":"Biblioteca comunale,from:IBC","category":"attractions","type":"Library","importance":0.0,"icon":"","visiting_time":0.0,"opening_hours":"ok","opening_days":"ok","rating":0,"photo_url":null,"description":null,"www":"http://www.comune.castelfranco-emilia.mo.it/servizi/menu/dinamica.aspx?idArea=17077&idCat=17084&ID=17084&TipoElemento=categoria"},{"place_id":"44,56085606302810","geometry":{"type":"Point","coordinates":[11.035118588,44.560856063]},"display_name":"Biblioteca comunale,from:IBC","category":"attractions","type":"Library","importance":0.0,"icon":"","visiting_time":0.0,"opening_hours":"ok","opening_days":"ok","rating":0,"photo_url":null,"description":null,"www":"http://dati.emilia-romagna.it/id/ibc/condition/IT-MO0113_orari"},{"place_id":"44,59481252748080","geometry":{"type":"Point","coordinates":[11.053588971,44.594812527]},"display_name":"Museo Civico Archeologico A.C. Simonini,from:IBC","category":"attractions","type":"Museum","importance":0.0,"icon":"","visiting_time":0.0,"opening_hours":"ok","opening_days":"ok","rating":0,"photo_url":null,"description":null,"www":"http://dati.emilia-romagna.it/id/ibc/condition/IT-ER-MO014"},{"place_id":"44,53496236965210","geometry":{"type":"Point","coordinates":[11.02331751,44.53496237]},"display_name":"Museo del Balsamico Tradizionale,from:IBC","category":"attractions","type":"Museum","importance":0.0,"icon":"","visiting_time":0.0,"opening_hours":"ok","opening_days":"ok","rating":0,"photo_url":null,"description":null,"www":"http://www.museodelbalsamicotradizionale.org"},{"place_id":"Un Pioppo nero Castelfranco Emilia Gaggio di P. Via Olmo 82","geometry":{"type":"Point","coordinates":[11.00623845,44.63149553]},"display_name":"Un Pioppo nero Castelfranco Emilia Gaggio di P. Via Olmo,from:IBC","category":"tree","type":"tree","importance":0.0,"icon":"","visiting_time":0.0,"opening_hours":"ok","opening_days":"ok","rating":0,"photo_url":"http://online.ibc.regione.emilia-romagna.it/mtrees/image/490.jpg","description":null,"www":null},{"place_id":"Una Quercia San Cesario sul Panaro Via Pioppe, 177 91","geometry":{"type":"Point","coordinates":[11.03120068,44.55415667]},"display_name":"Una Quercia San Cesario sul Panaro Via Pioppe, 177,from:IBC","category":"tree","type":"tree","importance":0.0,"icon":"","visiting_time":0.0,"opening_hours":"ok","opening_days":"ok","rating":0,"photo_url":"http://online.ibc.regione.emilia-romagna.it/mtrees/image/564.jpg","description":null,"www":null},{"place_id":"Una Quercia San Cesario sul Panaro Via Barozzi 167","geometry":{"type":"Point","coordinates":[11.05042819,44.56389561]},"display_name":"Una Quercia San Cesario sul Panaro Via Barozzi,from:IBC","category":"tree","type":"tree","importance":0.0,"icon":"","visiting_time":0.0,"opening_hours":"ok","opening_days":"ok","rating":0,"photo_url":"http://online.ibc.regione.emilia-romagna.it/mtrees/image/6634.12.06.pdf","description":null,"www":null},{"place_id":"Una Farnia San Cesario sul Panaro Via Verdi 352","geometry":{"type":"Point","coordinates":[11.03758379,44.56641204]},"display_name":"Una Farnia San Cesario sul Panaro Via Verdi,from:IBC","category":"tree","type":"tree","importance":0.0,"icon":"","visiting_time":0.0,"opening_hours":"ok","opening_days":"ok","rating":0,"photo_url":"http://online.ibc.regione.emilia-romagna.it/mtrees/image/562.jpg","description":null,"www":null},{"place_id":"Un Olmo San Cesario sul Panaro Via Martiri Artioli, 1864 403","geometry":{"type":"Point","coordinates":[11.05280238,44.53473967]},"display_name":"Un Olmo San Cesario sul Panaro Via Martiri Artioli, 1864,from:IBC","category":"tree","type":"tree","importance":0.0,"icon":"","visiting_time":0.0,"opening_hours":"ok","opening_days":"ok","rating":0,"photo_url":"http://online.ibc.regione.emilia-romagna.it/mtrees/image/6688.12.06.pdf","description":null,"www":null},{"place_id":"Una Farnia San Cesario sul Panaro Via Imperiale, 1 409","geometry":{"type":"Point","coordinates":[11.05072087,44.54499464]},"display_name":"Una Farnia San Cesario sul Panaro Via Imperiale, 1,from:IBC","category":"tree","type":"tree","importance":0.0,"icon":"","visiting_time":0.0,"opening_hours":"ok","opening_days":"ok","rating":0,"photo_url":"http://online.ibc.regione.emilia-romagna.it/mtrees/image/561.jpg","description":null,"www":null},{"place_id":"Una Farnia San Cesario sul Panaro Via Vittorio Veneto, 2 588","geometry":{"type":"Point","coordinates":[11.03518185,44.55639937]},"display_name":"Una Farnia San Cesario sul Panaro Via Vittorio Veneto, 2,from:IBC","category":"tree","type":"tree","importance":0.0,"icon":"","visiting_time":0.0,"opening_hours":"ok","opening_days":"ok","rating":0,"photo_url":"http://online.ibc.regione.emilia-romagna.it/mtrees/image/563.jpg","description":null,"www":null},{"place_id":"Un Olmo comune Carpi Via Corbolani, 3 954","geometry":{"type":"Point","coordinates":[11.03400994,44.62026447]},"display_name":"Un Olmo comune Carpi Via Corbolani, 3,from:IBC","category":"tree","type":"tree","importance":0.0,"icon":"","visiting_time":0.0,"opening_hours":"ok","opening_days":"ok","rating":0,"photo_url":"http://online.ibc.regione.emilia-romagna.it/mtrees/image/525.jpg","description":null,"www":null},{"place_id":"Un Pioppo nero San Cesario sul Panaro Via S. Gaetano, 200 995","geometry":{"type":"Point","coordinates":[11.00808947,44.57038224]},"display_name":"Un Pioppo nero San Cesario sul Panaro Via S. Gaetano, 200,from:IBC","category":"tree","type":"tree","importance":0.0,"icon":"","visiting_time":0.0,"opening_hours":"ok","opening_days":"ok","rating":0,"photo_url":"http://online.ibc.regione.emilia-romagna.it/mtrees/image/560.jpg","description":null,"www":null},{"place_id":"Una Quercia San Cesario sul Panaro Via per Spilamberto, 217 1024","geometry":{"type":"Point","coordinates":[11.03630598,44.55397574]},"display_name":"Una Quercia San Cesario sul Panaro Via per Spilamberto, 217,from:IBC","category":"tree","type":"tree","importance":0.0,"icon":"","visiting_time":0.0,"opening_hours":"ok","opening_days":"ok","rating":0,"photo_url":"http://online.ibc.regione.emilia-romagna.it/mtrees/image/565.jpg","description":null,"www":null}]