[{"place_id":"44703275","geometry":{"type":"Point","coordinates":[12.0702535,43.9055582]},"display_name":"Cippo di montalto, Cippo, Sarsina, FC, EMR, Italia","category":"attractions","type":"attraction","importance":0.001,"icon":"http://nominatim.openstreetmap.org/images/mapicons/poi_point_of_interest.p.20.png","visiting_time":30.0,"opening_hours":null,"opening_days":null,"rating":0,"photo_url":null,"description":null,"www":null},{"place_id":"85843059","geometry":{"type":"Point","coordinates":[11.899142864,43.9352404]},"display_name":"Parco Sculture, Percorso del Parco fluviale, Bellavista, Santa Sofia, FC, EMR, Italia","category":"attractions","type":"attraction","importance":0.001,"icon":"http://nominatim.openstreetmap.org/images/mapicons/poi_point_of_interest.p.20.png","visiting_time":30.0,"opening_hours":null,"opening_days":null,"rating":0,"photo_url":null,"description":null,"www":null},{"place_id":"14222299","geometry":{"type":"Point","coordinates":[11.9295903,43.8524081]},"display_name":"Corzano, Pian della Croce, Bagno di Romagna, FC, EMR, Italia","category":"attractions","type":"viewpoint","importance":0.001,"icon":"http://nominatim.openstreetmap.org/images/mapicons/tourist_view_point.p.20.png","visiting_time":10.0,"opening_hours":null,"opening_days":null,"rating":0,"photo_url":null,"description":null,"www":null},{"place_id":"61661766","geometry":{"type":"Point","coordinates":[11.8900311,43.8253307]},"display_name":"Castagneto, CAI 205, La Berlesca, Bagno di Romagna, FC, EMR, Italia","category":"attractions","type":"viewpoint","importance":0.001,"icon":"http://nominatim.openstreetmap.org/images/mapicons/tourist_view_point.p.20.png","visiting_time":10.0,"opening_hours":null,"opening_days":null,"rating":0,"photo_url":null,"description":null,"www":null},{"place_id":"6411463","geometry":{"type":"Point","coordinates":[11.8956955,43.8296153]},"display_name":"CAI 205, La Berlesca, Bagno di Romagna, FC, EMR, Italia","category":"attractions","type":"viewpoint","importance":0.001,"icon":"http://nominatim.openstreetmap.org/images/mapicons/tourist_view_point.p.20.png","visiting_time":10.0,"opening_hours":null,"opening_days":null,"rating":0,"photo_url":null,"description":null,"www":null},{"place_id":"21285063","geometry":{"type":"Point","coordinates":[11.8810696,43.8889309]},"display_name":"Poggio alla Lastra - Ridracoli, Le Caselle, Bagno di Romagna, FC, EMR, Italia","category":"attractions","type":"viewpoint","importance":0.001,"icon":"http://nominatim.openstreetmap.org/images/mapicons/tourist_view_point.p.20.png","visiting_time":10.0,"opening_hours":null,"opening_days":null,"rating":0,"photo_url":null,"description":null,"www":null},{"place_id":"7109771","geometry":{"type":"Point","coordinates":[11.8056313,43.8872146]},"display_name":"Biserno - San Paolo in Alpe, Collina, Santa Sofia, FC, EMR, 47010, Italia","category":"attractions","type":"viewpoint","importance":0.001,"icon":"http://nominatim.openstreetmap.org/images/mapicons/tourist_view_point.p.20.png","visiting_time":10.0,"opening_hours":null,"opening_days":null,"rating":0,"photo_url":null,"description":null,"www":null},{"place_id":"54262814","geometry":{"type":"Point","coordinates":[11.9076873,43.9499366]},"display_name":"Chiesa Di Sopra, Via Salvador Allende, Campo di Sopra, Santa Sofia, FC, EMR, Italia","category":"attractions","type":"viewpoint","importance":0.001,"icon":"http://nominatim.openstreetmap.org/images/mapicons/tourist_view_point.p.20.png","visiting_time":10.0,"opening_hours":null,"opening_days":null,"rating":0,"photo_url":null,"description":null,"www":null},{"place_id":"24654720","geometry":{"type":"Point","coordinates":[12.0715865,43.7896055]},"display_name":"Bar - Pizza - Panini, Via La Straniera, Molino, Verghereto, FC, EMR, 47028, Italia","category":"eating","type":"fast_food","importance":0.001,"icon":"http://nominatim.openstreetmap.org/images/mapicons/food_fastfood.p.20.png","visiting_time":30.0,"opening_hours":null,"opening_days":null,"rating":0,"photo_url":null,"description":null,"www":null},{"place_id":"48624566","geometry":{"type":"Point","coordinates":[11.9567684,43.8326542]},"display_name":"SP138, Roccaccia, Bagno di Romagna, FC, EMR, Italia","category":"eating","type":"fast_food","importance":0.001,"icon":"http://nominatim.openstreetmap.org/images/mapicons/food_fastfood.p.20.png","visiting_time":30.0,"opening_hours":null,"opening_days":null,"rating":0,"photo_url":null,"description":null,"www":null},{"place_id":"171284037","geometry":{"type":"Point","coordinates":[11.9040111,43.8999444]},"display_name":"Bar chiosco La via Pal, Santa Sofia - Poggio Alla Lastra - Pietrapazza, Camporlandino di Sotto, Bagno di Romagna, FC, EMR, Italia","category":"eating","type":"fast_food","importance":0.001,"icon":"http://nominatim.openstreetmap.org/images/mapicons/food_fastfood.p.20.png","visiting_time":30.0,"opening_hours":null,"opening_days":null,"rating":0,"photo_url":null,"description":null,"www":null},{"place_id":"61996663","geometry":{"type":"Point","coordinates":[11.975938,43.8540948]},"display_name":"Piadineria, Via Nazario Sauro, Il Pittore, Bagno di Romagna, FC, EMR, Italia","category":"eating","type":"fast_food","importance":0.001,"icon":"http://nominatim.openstreetmap.org/images/mapicons/food_fastfood.p.20.png","visiting_time":30.0,"opening_hours":null,"opening_days":null,"rating":0,"photo_url":null,"description":null,"www":null},{"place_id":"48724286","geometry":{"type":"Point","coordinates":[11.9592773,43.8344403]},"display_name":"Piadineria, Via Daniele Manin, Roccaccia, Bagno di Romagna, FC, EMR, Italia","category":"eating","type":"fast_food","importance":0.001,"icon":"http://nominatim.openstreetmap.org/images/mapicons/food_fastfood.p.20.png","visiting_time":30.0,"opening_hours":null,"opening_days":null,"rating":0,"photo_url":null,"description":null,"www":null},{"place_id":"138779106","geometry":{"type":"Point","coordinates":[11.867126001,43.8007717]},"display_name":"Il Capanno, Badia Prataglia - Passo Fangacci, Il Capanno, Poppi, AR, TOS, Italia","category":"eating","type":"restaurant","importance":0.001,"icon":"http://nominatim.openstreetmap.org/images/mapicons/food_restaurant.p.20.png","visiting_time":60.0,"opening_hours":null,"opening_days":null,"rating":0,"photo_url":null,"description":null,"www":null},{"place_id":"50148153","geometry":{"type":"Point","coordinates":[11.8904997,43.7966772]},"display_name":"Locanda Carbonile, Strada Regionale 71 Umbro Casentinese, Centro Montano Sant'Antonio, Poppi, AR, TOS, Italia","category":"eating","type":"restaurant","importance":0.001,"icon":"http://nominatim.openstreetmap.org/images/mapicons/food_restaurant.p.20.png","visiting_time":60.0,"opening_hours":null,"opening_days":null,"rating":0,"photo_url":null,"description":null,"www":null},{"place_id":"115900702","geometry":{"type":"Point","coordinates":[12.086999053,43.89170645]},"display_name":"Ristorante al Lago, Via 21 Marzo, Massa, Sarsina, FC, EMR, 47027, Italia","category":"eating","type":"restaurant","importance":0.001,"icon":"http://nominatim.openstreetmap.org/images/mapicons/food_restaurant.p.20.png","visiting_time":60.0,"opening_hours":null,"opening_days":null,"rating":0,"photo_url":null,"description":null,"www":null},{"place_id":"25027770","geometry":{"type":"Point","coordinates":[12.0735552,43.7899386]},"display_name":"pizz. rist., Via La Straniera, Molino, Verghereto, FC, EMR, 47028, Italia","category":"eating","type":"restaurant","importance":0.001,"icon":"http://nominatim.openstreetmap.org/images/mapicons/food_restaurant.p.20.png","visiting_time":60.0,"opening_hours":null,"opening_days":null,"rating":0,"photo_url":null,"description":null,"www":null},{"place_id":"23025496","geometry":{"type":"Point","coordinates":[12.0529628,43.8628779]},"display_name":"Agriturismo Incisa, CAI 149, Verghereto, FC, EMR, Italia","category":"eating","type":"restaurant","importance":0.001,"icon":"http://nominatim.openstreetmap.org/images/mapicons/food_restaurant.p.20.png","visiting_time":60.0,"opening_hours":null,"opening_days":null,"rating":0,"photo_url":null,"description":null,"www":null},{"place_id":"7517807","geometry":{"type":"Point","coordinates":[12.0762351,43.7915857]},"display_name":"Rifugio Biancaneve, 00, Verghereto, FC, EMR, 47028, Italia","category":"eating","type":"restaurant","importance":0.001,"icon":"http://nominatim.openstreetmap.org/images/mapicons/food_restaurant.p.20.png","visiting_time":60.0,"opening_hours":null,"opening_days":null,"rating":0,"photo_url":null,"description":null,"www":null},{"place_id":"87892433","geometry":{"type":"Point","coordinates":[12.0659375,43.8348604]},"display_name":"La Boscaiola, via Santa Barbara, Verghereto, FC, EMR, 47028, Italia","category":"eating","type":"restaurant","importance":0.001,"icon":"http://nominatim.openstreetmap.org/images/mapicons/food_restaurant.p.20.png","visiting_time":60.0,"opening_hours":null,"opening_days":null,"rating":0,"photo_url":null,"description":null,"www":null},{"place_id":"38248501","geometry":{"type":"Point","coordinates":[12.0575193,43.8090295]},"display_name":"La Straniera, 128, Via La Straniera, Molino, Verghereto, FC, EMR, 47028, Italia","category":"eating","type":"restaurant","importance":0.001,"icon":"http://nominatim.openstreetmap.org/images/mapicons/food_restaurant.p.20.png","visiting_time":60.0,"opening_hours":null,"opening_days":null,"rating":0,"photo_url":null,"description":null,"www":null},{"place_id":"8468941","geometry":{"type":"Point","coordinates":[12.0739162,43.8372372]},"display_name":"Giuditta, Via Case Sparse, Verghereto, FC, EMR, 47028, Italia","category":"eating","type":"restaurant","importance":0.001,"icon":"http://nominatim.openstreetmap.org/images/mapicons/food_restaurant.p.20.png","visiting_time":60.0,"opening_hours":null,"opening_days":null,"rating":0,"photo_url":null,"description":null,"www":null},{"place_id":"24654720","geometry":{"type":"Point","coordinates":[12.0715865,43.7896055]},"display_name":"Bar - Pizza - Panini, Via La Straniera, Molino, Verghereto, FC, EMR, 47028, Italia","category":"eating","type":"fast_food","importance":0.001,"icon":"http://nominatim.openstreetmap.org/images/mapicons/food_fastfood.p.20.png","visiting_time":60.0,"opening_hours":null,"opening_days":null,"rating":0,"photo_url":null,"description":null,"www":null},{"place_id":"24715490","geometry":{"type":"Point","coordinates":[11.8197355,43.7926095]},"display_name":"Ristorante dei Baroni, 5, Camaldoli, AR, TOS, 52014, Italia","category":"eating","type":"restaurant","importance":0.001,"icon":"http://nominatim.openstreetmap.org/images/mapicons/food_restaurant.p.20.png","visiting_time":60.0,"opening_hours":null,"opening_days":null,"rating":0,"photo_url":null,"description":null,"www":null},{"place_id":"23254103","geometry":{"type":"Point","coordinates":[12.0089527,43.8578783]},"display_name":"Agriturismo Valbonella Centro Turistico, GAVB, Case Nuove, Bagno di Romagna, FC, EMR, Italia","category":"eating","type":"restaurant","importance":0.001,"icon":"http://nominatim.openstreetmap.org/images/mapicons/food_restaurant.p.20.png","visiting_time":60.0,"opening_hours":null,"opening_days":null,"rating":0,"photo_url":null,"description":null,"www":null},{"place_id":"15106064","geometry":{"type":"Point","coordinates":[11.9757128,43.8579422]},"display_name":"Osteria Orso Bianco, 12, Via Giovanni Pascoli, Il Pittore, Bagno di Romagna, FC, EMR, Italia","category":"eating","type":"restaurant","importance":0.001,"icon":"http://nominatim.openstreetmap.org/images/mapicons/food_restaurant.p.20.png","visiting_time":60.0,"opening_hours":null,"opening_days":null,"rating":0,"photo_url":null,"description":null,"www":null},{"place_id":"7485020","geometry":{"type":"Point","coordinates":[12.004588,43.8438763]},"display_name":"Trattoria Il Caminetto, CAI 169, Pianaccio, Bagno di Romagna, FC, EMR, Italia","category":"eating","type":"restaurant","importance":0.001,"icon":"http://nominatim.openstreetmap.org/images/mapicons/food_restaurant.p.20.png","visiting_time":60.0,"opening_hours":null,"opening_days":null,"rating":0,"photo_url":null,"description":null,"www":null},{"place_id":"48446831","geometry":{"type":"Point","coordinates":[11.9598253,43.8368783]},"display_name":"Invito Pizzeria Ristorante, via del Monte, Rocca di Sopra, Bagno di Romagna, FC, EMR, Italia","category":"eating","type":"restaurant","importance":0.001,"icon":"http://nominatim.openstreetmap.org/images/mapicons/food_restaurant.p.20.png","visiting_time":60.0,"opening_hours":null,"opening_days":null,"rating":0,"photo_url":null,"description":null,"www":null},{"place_id":"5261482","geometry":{"type":"Point","coordinates":[11.9169138,43.8146362]},"display_name":"Nocicchio, SP142, Nocicchio, Bagno di Romagna, FC, EMR, Italia","category":"eating","type":"restaurant","importance":0.001,"icon":"http://nominatim.openstreetmap.org/images/mapicons/food_restaurant.p.20.png","visiting_time":60.0,"opening_hours":null,"opening_days":null,"rating":0,"photo_url":null,"description":null,"www":null},{"place_id":"48177000","geometry":{"type":"Point","coordinates":[11.9591164,43.8341514]},"display_name":"La Trattoria del Roma, Via Daniele Manin, Roccaccia, Bagno di Romagna, FC, EMR, Italia","category":"eating","type":"restaurant","importance":0.001,"icon":"http://nominatim.openstreetmap.org/images/mapicons/food_restaurant.p.20.png","visiting_time":60.0,"opening_hours":null,"opening_days":null,"rating":0,"photo_url":null,"description":null,"www":null},{"place_id":"99613678","geometry":{"type":"Point","coordinates":[11.9358799,43.8563245]},"display_name":"Fonte Abate, BT6, La Vetrice, Bagno di Romagna, FC, EMR, Italia","category":"eating","type":"restaurant","importance":0.001,"icon":"http://nominatim.openstreetmap.org/images/mapicons/food_restaurant.p.20.png","visiting_time":60.0,"opening_hours":null,"opening_days":null,"rating":0,"photo_url":null,"description":null,"www":null},{"place_id":"20005347","geometry":{"type":"Point","coordinates":[11.9756172,43.8584856]},"display_name":"Piazza Salvador Allende, Il Pittore, Bagno di Romagna, FC, EMR, Italia","category":"eating","type":"restaurant","importance":0.001,"icon":"http://nominatim.openstreetmap.org/images/mapicons/food_restaurant.p.20.png","visiting_time":60.0,"opening_hours":null,"opening_days":null,"rating":0,"photo_url":null,"description":null,"www":null},{"place_id":"19945256","geometry":{"type":"Point","coordinates":[12.0013695,43.8468807]},"display_name":"Ristorante Lago Lungo, CAI 169, Pianaccio, Bagno di Romagna, FC, EMR, Italia","category":"eating","type":"restaurant","importance":0.001,"icon":"http://nominatim.openstreetmap.org/images/mapicons/food_restaurant.p.20.png","visiting_time":60.0,"opening_hours":null,"opening_days":null,"rating":0,"photo_url":null,"description":null,"www":null},{"place_id":"47581077","geometry":{"type":"Point","coordinates":[11.9591888,43.8345229]},"display_name":"Locanda Giovanna, Via Daniele Manin, Roccaccia, Bagno di Romagna, FC, EMR, Italia","category":"eating","type":"restaurant","importance":0.001,"icon":"http://nominatim.openstreetmap.org/images/mapicons/food_restaurant.p.20.png","visiting_time":60.0,"opening_hours":null,"opening_days":null,"rating":0,"photo_url":null,"description":null,"www":null},{"place_id":"48201283","geometry":{"type":"Point","coordinates":[11.959856,43.8350515]},"display_name":"Cenacolo, Via Santa Lucia, La Palazza, Bagno di Romagna, FC, EMR, Italia","category":"eating","type":"restaurant","importance":0.001,"icon":"http://nominatim.openstreetmap.org/images/mapicons/food_restaurant.p.20.png","visiting_time":60.0,"opening_hours":null,"opening_days":null,"rating":0,"photo_url":null,"description":null,"www":null},{"place_id":"48724286","geometry":{"type":"Point","coordinates":[11.9592773,43.8344403]},"display_name":"Piadineria, Via Daniele Manin, Roccaccia, Bagno di Romagna, FC, EMR, Italia","category":"eating","type":"fast_food","importance":0.001,"icon":"http://nominatim.openstreetmap.org/images/mapicons/food_fastfood.p.20.png","visiting_time":60.0,"opening_hours":null,"opening_days":null,"rating":0,"photo_url":null,"description":null,"www":null},{"place_id":"61996663","geometry":{"type":"Point","coordinates":[11.975938,43.8540948]},"display_name":"Piadineria, Via Nazario Sauro, Il Pittore, Bagno di Romagna, FC, EMR, Italia","category":"eating","type":"fast_food","importance":0.001,"icon":"http://nominatim.openstreetmap.org/images/mapicons/food_fastfood.p.20.png","visiting_time":60.0,"opening_hours":null,"opening_days":null,"rating":0,"photo_url":null,"description":null,"www":null},{"place_id":"48624566","geometry":{"type":"Point","coordinates":[11.9567684,43.8326542]},"display_name":"SP138, Roccaccia, Bagno di Romagna, FC, EMR, Italia","category":"eating","type":"fast_food","importance":0.001,"icon":"http://nominatim.openstreetmap.org/images/mapicons/food_fastfood.p.20.png","visiting_time":60.0,"opening_hours":null,"opening_days":null,"rating":0,"photo_url":null,"description":null,"www":null},{"place_id":"171284037","geometry":{"type":"Point","coordinates":[11.9040111,43.8999444]},"display_name":"Bar chiosco La via Pal, Santa Sofia - Poggio Alla Lastra - Pietrapazza, Camporlandino di Sotto, Bagno di Romagna, FC, EMR, Italia","category":"eating","type":"fast_food","importance":0.001,"icon":"http://nominatim.openstreetmap.org/images/mapicons/food_fastfood.p.20.png","visiting_time":60.0,"opening_hours":null,"opening_days":null,"rating":0,"photo_url":null,"description":null,"www":null},{"place_id":"96727170","geometry":{"type":"Point","coordinates":[11.9482793,43.92378035]},"display_name":"Nocina, SP77, Sassoni, Santa Sofia, FC, EMR, Italia","category":"eating","type":"restaurant","importance":0.001,"icon":"http://nominatim.openstreetmap.org/images/mapicons/food_restaurant.p.20.png","visiting_time":60.0,"opening_hours":null,"opening_days":null,"rating":0,"photo_url":null,"description":null,"www":null},{"place_id":"6267872","geometry":{"type":"Point","coordinates":[11.9090254,43.9477847]},"display_name":"da Mazzoli, Via N. Gentili, Caselle, Santa Sofia, FC, EMR, Italia","category":"eating","type":"restaurant","importance":0.001,"icon":"http://nominatim.openstreetmap.org/images/mapicons/food_restaurant.p.20.png","visiting_time":60.0,"opening_hours":null,"opening_days":null,"rating":0,"photo_url":null,"description":null,"www":null},{"place_id":"6284777","geometry":{"type":"Point","coordinates":[11.9071329,43.9478422]},"display_name":"La Contessa, Via Nefetti, Caselle, Santa Sofia, FC, EMR, Italia","category":"eating","type":"restaurant","importance":0.001,"icon":"http://nominatim.openstreetmap.org/images/mapicons/food_restaurant.p.20.png","visiting_time":60.0,"opening_hours":null,"opening_days":null,"rating":0,"photo_url":null,"description":null,"www":null},{"place_id":"7561580","geometry":{"type":"Point","coordinates":[11.8360822,43.8861227]},"display_name":"Palazzo Giovannetti, Isola - Ridracoli, Santa Sofia, FC, EMR, Italia","category":"eating","type":"restaurant","importance":0.001,"icon":"http://nominatim.openstreetmap.org/images/mapicons/food_restaurant.p.20.png","visiting_time":60.0,"opening_hours":null,"opening_days":null,"rating":0,"photo_url":null,"description":null,"www":null},{"place_id":"5996734","geometry":{"type":"Point","coordinates":[11.9084714,43.9454114]},"display_name":"Pizzeria da Smith, Via Risorgimento, Caselle, Santa Sofia, FC, EMR, Italia","category":"eating","type":"restaurant","importance":0.001,"icon":"http://nominatim.openstreetmap.org/images/mapicons/food_restaurant.p.20.png","visiting_time":60.0,"opening_hours":null,"opening_days":null,"rating":0,"photo_url":null,"description":null,"www":null},{"place_id":"138779106","geometry":{"type":"Point","coordinates":[11.867126001,43.8007717]},"display_name":"Il Capanno, Badia Prataglia - Passo Fangacci, Il Capanno, Poppi, AR, TOS, Italia","category":"eating","type":"restaurant","importance":0.001,"icon":"http://nominatim.openstreetmap.org/images/mapicons/food_restaurant.p.20.png","visiting_time":60.0,"opening_hours":null,"opening_days":null,"rating":0,"photo_url":null,"description":null,"www":null},{"place_id":"50148153","geometry":{"type":"Point","coordinates":[11.8904997,43.7966772]},"display_name":"Locanda Carbonile, Strada Regionale 71 Umbro Casentinese, Centro Montano Sant'Antonio, Poppi, AR, TOS, Italia","category":"eating","type":"restaurant","importance":0.001,"icon":"http://nominatim.openstreetmap.org/images/mapicons/food_restaurant.p.20.png","visiting_time":60.0,"opening_hours":null,"opening_days":null,"rating":0,"photo_url":null,"description":null,"www":null},{"place_id":"115900702","geometry":{"type":"Point","coordinates":[12.086999053,43.89170645]},"display_name":"Ristorante al Lago, Via 21 Marzo, Massa, Sarsina, FC, EMR, 47027, Italia","category":"eating","type":"restaurant","importance":0.001,"icon":"http://nominatim.openstreetmap.org/images/mapicons/food_restaurant.p.20.png","visiting_time":60.0,"opening_hours":null,"opening_days":null,"rating":0,"photo_url":null,"description":null,"www":null},{"place_id":"38248501","geometry":{"type":"Point","coordinates":[12.0575193,43.8090295]},"display_name":"La Straniera, 128, Via La Straniera, Molino, Verghereto, FC, EMR, 47028, Italia","category":"eating","type":"restaurant","importance":0.001,"icon":"http://nominatim.openstreetmap.org/images/mapicons/food_restaurant.p.20.png","visiting_time":60.0,"opening_hours":null,"opening_days":null,"rating":0,"photo_url":null,"description":null,"www":null},{"place_id":"25027770","geometry":{"type":"Point","coordinates":[12.0735552,43.7899386]},"display_name":"pizz. rist., Via La Straniera, Molino, Verghereto, FC, EMR, 47028, Italia","category":"eating","type":"restaurant","importance":0.001,"icon":"http://nominatim.openstreetmap.org/images/mapicons/food_restaurant.p.20.png","visiting_time":60.0,"opening_hours":null,"opening_days":null,"rating":0,"photo_url":null,"description":null,"www":null},{"place_id":"7517807","geometry":{"type":"Point","coordinates":[12.0762351,43.7915857]},"display_name":"Rifugio Biancaneve, 00, Verghereto, FC, EMR, 47028, Italia","category":"eating","type":"restaurant","importance":0.001,"icon":"http://nominatim.openstreetmap.org/images/mapicons/food_restaurant.p.20.png","visiting_time":60.0,"opening_hours":null,"opening_days":null,"rating":0,"photo_url":null,"description":null,"www":null},{"place_id":"87892433","geometry":{"type":"Point","coordinates":[12.0659375,43.8348604]},"display_name":"La Boscaiola, via Santa Barbara, Verghereto, FC, EMR, 47028, Italia","category":"eating","type":"restaurant","importance":0.001,"icon":"http://nominatim.openstreetmap.org/images/mapicons/food_restaurant.p.20.png","visiting_time":60.0,"opening_hours":null,"opening_days":null,"rating":0,"photo_url":null,"description":null,"www":null},{"place_id":"23025496","geometry":{"type":"Point","coordinates":[12.0529628,43.8628779]},"display_name":"Agriturismo Incisa, CAI 149, Verghereto, FC, EMR, Italia","category":"eating","type":"restaurant","importance":0.001,"icon":"http://nominatim.openstreetmap.org/images/mapicons/food_restaurant.p.20.png","visiting_time":60.0,"opening_hours":null,"opening_days":null,"rating":0,"photo_url":null,"description":null,"www":null},{"place_id":"8468941","geometry":{"type":"Point","coordinates":[12.0739162,43.8372372]},"display_name":"Giuditta, Via Case Sparse, Verghereto, FC, EMR, 47028, Italia","category":"eating","type":"restaurant","importance":0.001,"icon":"http://nominatim.openstreetmap.org/images/mapicons/food_restaurant.p.20.png","visiting_time":60.0,"opening_hours":null,"opening_days":null,"rating":0,"photo_url":null,"description":null,"www":null},{"place_id":"24715490","geometry":{"type":"Point","coordinates":[11.8197355,43.7926095]},"display_name":"Ristorante dei Baroni, 5, Camaldoli, AR, TOS, 52014, Italia","category":"eating","type":"restaurant","importance":0.001,"icon":"http://nominatim.openstreetmap.org/images/mapicons/food_restaurant.p.20.png","visiting_time":60.0,"opening_hours":null,"opening_days":null,"rating":0,"photo_url":null,"description":null,"www":null},{"place_id":"23254103","geometry":{"type":"Point","coordinates":[12.0089527,43.8578783]},"display_name":"Agriturismo Valbonella Centro Turistico, GAVB, Case Nuove, Bagno di Romagna, FC, EMR, Italia","category":"eating","type":"restaurant","importance":0.001,"icon":"http://nominatim.openstreetmap.org/images/mapicons/food_restaurant.p.20.png","visiting_time":60.0,"opening_hours":null,"opening_days":null,"rating":0,"photo_url":null,"description":null,"www":null},{"place_id":"7485020","geometry":{"type":"Point","coordinates":[12.004588,43.8438763]},"display_name":"Trattoria Il Caminetto, CAI 169, Pianaccio, Bagno di Romagna, FC, EMR, Italia","category":"eating","type":"restaurant","importance":0.001,"icon":"http://nominatim.openstreetmap.org/images/mapicons/food_restaurant.p.20.png","visiting_time":60.0,"opening_hours":null,"opening_days":null,"rating":0,"photo_url":null,"description":null,"www":null},{"place_id":"20005347","geometry":{"type":"Point","coordinates":[11.9756172,43.8584856]},"display_name":"Piazza Salvador Allende, Il Pittore, Bagno di Romagna, FC, EMR, Italia","category":"eating","type":"restaurant","importance":0.001,"icon":"http://nominatim.openstreetmap.org/images/mapicons/food_restaurant.p.20.png","visiting_time":60.0,"opening_hours":null,"opening_days":null,"rating":0,"photo_url":null,"description":null,"www":null},{"place_id":"99613678","geometry":{"type":"Point","coordinates":[11.9358799,43.8563245]},"display_name":"Fonte Abate, BT6, La Vetrice, Bagno di Romagna, FC, EMR, Italia","category":"eating","type":"restaurant","importance":0.001,"icon":"http://nominatim.openstreetmap.org/images/mapicons/food_restaurant.p.20.png","visiting_time":60.0,"opening_hours":null,"opening_days":null,"rating":0,"photo_url":null,"description":null,"www":null},{"place_id":"48446831","geometry":{"type":"Point","coordinates":[11.9598253,43.8368783]},"display_name":"Invito Pizzeria Ristorante, via del Monte, Rocca di Sopra, Bagno di Romagna, FC, EMR, Italia","category":"eating","type":"restaurant","importance":0.001,"icon":"http://nominatim.openstreetmap.org/images/mapicons/food_restaurant.p.20.png","visiting_time":60.0,"opening_hours":null,"opening_days":null,"rating":0,"photo_url":null,"description":null,"www":null},{"place_id":"5261482","geometry":{"type":"Point","coordinates":[11.9169138,43.8146362]},"display_name":"Nocicchio, SP142, Nocicchio, Bagno di Romagna, FC, EMR, Italia","category":"eating","type":"restaurant","importance":0.001,"icon":"http://nominatim.openstreetmap.org/images/mapicons/food_restaurant.p.20.png","visiting_time":60.0,"opening_hours":null,"opening_days":null,"rating":0,"photo_url":null,"description":null,"www":null},{"place_id":"48177000","geometry":{"type":"Point","coordinates":[11.9591164,43.8341514]},"display_name":"La Trattoria del Roma, Via Daniele Manin, Roccaccia, Bagno di Romagna, FC, EMR, Italia","category":"eating","type":"restaurant","importance":0.001,"icon":"http://nominatim.openstreetmap.org/images/mapicons/food_restaurant.p.20.png","visiting_time":60.0,"opening_hours":null,"opening_days":null,"rating":0,"photo_url":null,"description":null,"www":null},{"place_id":"19945256","geometry":{"type":"Point","coordinates":[12.0013695,43.8468807]},"display_name":"Ristorante Lago Lungo, CAI 169, Pianaccio, Bagno di Romagna, FC, EMR, Italia","category":"eating","type":"restaurant","importance":0.001,"icon":"http://nominatim.openstreetmap.org/images/mapicons/food_restaurant.p.20.png","visiting_time":60.0,"opening_hours":null,"opening_days":null,"rating":0,"photo_url":null,"description":null,"www":null},{"place_id":"15106064","geometry":{"type":"Point","coordinates":[11.9757128,43.8579422]},"display_name":"Osteria Orso Bianco, 12, Via Giovanni Pascoli, Il Pittore, Bagno di Romagna, FC, EMR, Italia","category":"eating","type":"restaurant","importance":0.001,"icon":"http://nominatim.openstreetmap.org/images/mapicons/food_restaurant.p.20.png","visiting_time":60.0,"opening_hours":null,"opening_days":null,"rating":0,"photo_url":null,"description":null,"www":null},{"place_id":"47581077","geometry":{"type":"Point","coordinates":[11.9591888,43.8345229]},"display_name":"Locanda Giovanna, Via Daniele Manin, Roccaccia, Bagno di Romagna, FC, EMR, Italia","category":"eating","type":"restaurant","importance":0.001,"icon":"http://nominatim.openstreetmap.org/images/mapicons/food_restaurant.p.20.png","visiting_time":60.0,"opening_hours":null,"opening_days":null,"rating":0,"photo_url":null,"description":null,"www":null},{"place_id":"48201283","geometry":{"type":"Point","coordinates":[11.959856,43.8350515]},"display_name":"Cenacolo, Via Santa Lucia, La Palazza, Bagno di Romagna, FC, EMR, Italia","category":"eating","type":"restaurant","importance":0.001,"icon":"http://nominatim.openstreetmap.org/images/mapicons/food_restaurant.p.20.png","visiting_time":60.0,"opening_hours":null,"opening_days":null,"rating":0,"photo_url":null,"description":null,"www":null},{"place_id":"96727170","geometry":{"type":"Point","coordinates":[11.9482793,43.92378035]},"display_name":"Nocina, SP77, Sassoni, Santa Sofia, FC, EMR, Italia","category":"eating","type":"restaurant","importance":0.001,"icon":"http://nominatim.openstreetmap.org/images/mapicons/food_restaurant.p.20.png","visiting_time":60.0,"opening_hours":null,"opening_days":null,"rating":0,"photo_url":null,"description":null,"www":null},{"place_id":"6267872","geometry":{"type":"Point","coordinates":[11.9090254,43.9477847]},"display_name":"da Mazzoli, Via N. Gentili, Caselle, Santa Sofia, FC, EMR, Italia","category":"eating","type":"restaurant","importance":0.001,"icon":"http://nominatim.openstreetmap.org/images/mapicons/food_restaurant.p.20.png","visiting_time":60.0,"opening_hours":null,"opening_days":null,"rating":0,"photo_url":null,"description":null,"www":null},{"place_id":"6284777","geometry":{"type":"Point","coordinates":[11.9071329,43.9478422]},"display_name":"La Contessa, Via Nefetti, Caselle, Santa Sofia, FC, EMR, Italia","category":"eating","type":"restaurant","importance":0.001,"icon":"http://nominatim.openstreetmap.org/images/mapicons/food_restaurant.p.20.png","visiting_time":60.0,"opening_hours":null,"opening_days":null,"rating":0,"photo_url":null,"description":null,"www":null},{"place_id":"7561580","geometry":{"type":"Point","coordinates":[11.8360822,43.8861227]},"display_name":"Palazzo Giovannetti, Isola - Ridracoli, Santa Sofia, FC, EMR, Italia","category":"eating","type":"restaurant","importance":0.001,"icon":"http://nominatim.openstreetmap.org/images/mapicons/food_restaurant.p.20.png","visiting_time":60.0,"opening_hours":null,"opening_days":null,"rating":0,"photo_url":null,"description":null,"www":null},{"place_id":"5996734","geometry":{"type":"Point","coordinates":[11.9084714,43.9454114]},"display_name":"Pizzeria da Smith, Via Risorgimento, Caselle, Santa Sofia, FC, EMR, Italia","category":"eating","type":"restaurant","importance":0.001,"icon":"http://nominatim.openstreetmap.org/images/mapicons/food_restaurant.p.20.png","visiting_time":60.0,"opening_hours":null,"opening_days":null,"rating":0,"photo_url":null,"description":null,"www":null},{"place_id":"14222888","geometry":{"type":"Point","coordinates":[11.9677727,43.8532132]},"display_name":"Rocca, BT6, Casetto della Fonte, Bagno di Romagna, FC, EMR, Italia","category":"attractions","type":"ruins","importance":0.001,"icon":"http://nominatim.openstreetmap.org/images/mapicons/tourist_ruin.p.20.png","visiting_time":30.0,"opening_hours":null,"opening_days":null,"rating":0,"photo_url":null,"description":null,"www":null},{"place_id":"6219673","geometry":{"type":"Point","coordinates":[11.8850441,43.9205932]},"display_name":"Torre della Rondinaia, Rondinaia, Bagno di Romagna, FC, EMR, Italia","category":"attractions","type":"ruins","importance":0.001,"icon":"http://nominatim.openstreetmap.org/images/mapicons/tourist_ruin.p.20.png","visiting_time":30.0,"opening_hours":null,"opening_days":null,"rating":0,"photo_url":null,"description":null,"www":null},{"place_id":"113655010","geometry":{"type":"Point","coordinates":[12.096470632,43.9368149]},"display_name":"Chiesa di Sant'Andrea di Careste, Cammino di S. Vicinio, Careste, Bagno di Romagna, FC, EMR, 47027, Italia","category":"attractions","type":"ruins","importance":0.001,"icon":"http://nominatim.openstreetmap.org/images/mapicons/tourist_ruin.p.20.png","visiting_time":30.0,"opening_hours":null,"opening_days":null,"rating":0,"photo_url":null,"description":null,"www":null},{"place_id":"97210275","geometry":{"type":"Point","coordinates":[11.883536156,43.8365826]},"display_name":"Siepe dell'Orso, Bagno di Romagna, FC, EMR, Italia","category":"attractions","type":"ruins","importance":0.001,"icon":"http://nominatim.openstreetmap.org/images/mapicons/tourist_ruin.p.20.png","visiting_time":30.0,"opening_hours":null,"opening_days":null,"rating":0,"photo_url":null,"description":null,"www":null},{"place_id":"10942571","geometry":{"type":"Point","coordinates":[11.7968831,43.8781809]},"display_name":"San Paolo in Alpe, Biserno - San Paolo in Alpe, Casette, Santa Sofia, FC, EMR, Italia","category":"attractions","type":"ruins","importance":0.001,"icon":"http://nominatim.openstreetmap.org/images/mapicons/tourist_ruin.p.20.png","visiting_time":30.0,"opening_hours":null,"opening_days":null,"rating":0,"photo_url":null,"description":null,"www":null},{"place_id":"6567125","geometry":{"type":"Point","coordinates":[11.8714085,43.8942154]},"display_name":"Spugna - Poggio alla Lastra, Santa Sofia, FC, EMR, Italia","category":"attractions","type":"ruins","importance":0.001,"icon":"http://nominatim.openstreetmap.org/images/mapicons/tourist_ruin.p.20.png","visiting_time":30.0,"opening_hours":null,"opening_days":null,"rating":0,"photo_url":null,"description":null,"www":null},{"place_id":"112263520","geometry":{"type":"Point","coordinates":[11.799019547,43.8769022]},"display_name":"San Paolo in Alpe, Ciriegiolone, Santa Sofia, FC, EMR, Italia","category":"attractions","type":"ruins","importance":0.001,"icon":"http://nominatim.openstreetmap.org/images/mapicons/tourist_ruin.p.20.png","visiting_time":30.0,"opening_hours":null,"opening_days":null,"rating":0,"photo_url":null,"description":null,"www":null},{"place_id":"20490503","geometry":{"type":"Point","coordinates":[11.868833,43.8981319]},"display_name":"da esplorare, Stoile di Sopra, Santa Sofia, FC, EMR, Italia","category":"attractions","type":"ruins","importance":0.001,"icon":"http://nominatim.openstreetmap.org/images/mapicons/tourist_ruin.p.20.png","visiting_time":30.0,"opening_hours":null,"opening_days":null,"rating":0,"photo_url":null,"description":null,"www":null},{"place_id":"61681301","geometry":{"type":"Point","coordinates":[11.8784766,43.7941597]},"display_name":"Bar Vittoria di Mechelli, 23, Strada Regionale 71 Umbro Casentinese, Centro Montano Sant'Antonio, Poppi, AR, TOS, 52010, Italia","category":"lifestyle","type":"bar","importance":0.101,"icon":"http://nominatim.openstreetmap.org/images/mapicons/food_bar.p.20.png","visiting_time":10.0,"opening_hours":null,"opening_days":null,"rating":0,"photo_url":null,"description":null,"www":null},{"place_id":"24654720","geometry":{"type":"Point","coordinates":[12.0715865,43.7896055]},"display_name":"Bar - Pizza - Panini, Via La Straniera, Molino, Verghereto, FC, EMR, 47028, Italia","category":"lifestyle","type":"fast_food","importance":0.101,"icon":"http://nominatim.openstreetmap.org/images/mapicons/food_fastfood.p.20.png","visiting_time":10.0,"opening_hours":null,"opening_days":null,"rating":0,"photo_url":null,"description":null,"www":null},{"place_id":"48698024","geometry":{"type":"Point","coordinates":[11.9583171,43.8330108]},"display_name":"Nonsolo Bar, Via Fiorentina, Roccaccia, Bagno di Romagna, FC, EMR, Italia","category":"lifestyle","type":"bar","importance":0.101,"icon":"http://nominatim.openstreetmap.org/images/mapicons/food_bar.p.20.png","visiting_time":10.0,"opening_hours":null,"opening_days":null,"rating":0,"photo_url":null,"description":null,"www":null},{"place_id":"48198486","geometry":{"type":"Point","coordinates":[11.9613797,43.83689]},"display_name":"Piccolo Bar, Via Lungo Savio, La Palazza, Bagno di Romagna, FC, EMR, Italia","category":"lifestyle","type":"bar","importance":0.101,"icon":"http://nominatim.openstreetmap.org/images/mapicons/food_bar.p.20.png","visiting_time":10.0,"opening_hours":null,"opening_days":null,"rating":0,"photo_url":null,"description":null,"www":null},{"place_id":"171284037","geometry":{"type":"Point","coordinates":[11.9040111,43.8999444]},"display_name":"Bar chiosco La via Pal, Santa Sofia - Poggio Alla Lastra - Pietrapazza, Camporlandino di Sotto, Bagno di Romagna, FC, EMR, Italia","category":"lifestyle","type":"fast_food","importance":0.101,"icon":"http://nominatim.openstreetmap.org/images/mapicons/food_fastfood.p.20.png","visiting_time":10.0,"opening_hours":null,"opening_days":null,"rating":0,"photo_url":null,"description":null,"www":null},{"place_id":"6159242","geometry":{"type":"Point","coordinates":[11.9082735,43.9471868]},"display_name":"haller's bar, Via Martiri per la Libertà, Caselle, Santa Sofia, FC, EMR, Italia","category":"lifestyle","type":"bar","importance":0.101,"icon":"http://nominatim.openstreetmap.org/images/mapicons/food_bar.p.20.png","visiting_time":10.0,"opening_hours":null,"opening_days":null,"rating":0,"photo_url":null,"description":null,"www":null},{"place_id":"6266711","geometry":{"type":"Point","coordinates":[11.9095861,43.9468748]},"display_name":"bar nazionale, Via Giovannetti, Casanova, Santa Sofia, FC, EMR, Italia","category":"lifestyle","type":"bar","importance":0.101,"icon":"http://nominatim.openstreetmap.org/images/mapicons/food_bar.p.20.png","visiting_time":10.0,"opening_hours":null,"opening_days":null,"rating":0,"photo_url":null,"description":null,"www":null},{"place_id":"48935173","geometry":{"type":"Point","coordinates":[11.9592233,43.8340984]},"display_name":"Via Daniele Manin, Roccaccia, Bagno di Romagna, FC, EMR, Italia","category":"lifestyle","type":"bar","importance":0.001,"icon":"http://nominatim.openstreetmap.org/images/mapicons/food_bar.p.20.png","visiting_time":10.0,"opening_hours":null,"opening_days":null,"rating":0,"photo_url":null,"description":null,"www":null},{"place_id":"63711452","geometry":{"type":"Point","coordinates":[11.9771904,43.8576981]},"display_name":"Via Cesare Battisti, Il Pittore, Bagno di Romagna, FC, EMR, Italia","category":"lifestyle","type":"bar","importance":0.001,"icon":"http://nominatim.openstreetmap.org/images/mapicons/food_bar.p.20.png","visiting_time":10.0,"opening_hours":null,"opening_days":null,"rating":0,"photo_url":null,"description":null,"www":null},{"place_id":"114804429","geometry":{"type":"Point","coordinates":[11.839552696,43.87267545]},"display_name":"diga, Bagno di Romagna, FC, EMR, Italia","category":"lifestyle","type":"bar","importance":0.001,"icon":"http://nominatim.openstreetmap.org/images/mapicons/food_bar.p.20.png","visiting_time":10.0,"opening_hours":null,"opening_days":null,"rating":0,"photo_url":null,"description":null,"www":null},{"place_id":"49336479","geometry":{"type":"Point","coordinates":[11.9594544,43.8340286]},"display_name":"Piazza Bettino Ricasoli, Roccaccia, Bagno di Romagna, FC, EMR, Italia","category":"lifestyle","type":"bar","importance":0.001,"icon":"http://nominatim.openstreetmap.org/images/mapicons/food_bar.p.20.png","visiting_time":10.0,"opening_hours":null,"opening_days":null,"rating":0,"photo_url":null,"description":null,"www":null},{"place_id":"48624566","geometry":{"type":"Point","coordinates":[11.9567684,43.8326542]},"display_name":"SP138, Roccaccia, Bagno di Romagna, FC, EMR, Italia","category":"lifestyle","type":"fast_food","importance":0.001,"icon":"http://nominatim.openstreetmap.org/images/mapicons/food_fastfood.p.20.png","visiting_time":10.0,"opening_hours":null,"opening_days":null,"rating":0,"photo_url":null,"description":null,"www":null},{"place_id":"48724286","geometry":{"type":"Point","coordinates":[11.9592773,43.8344403]},"display_name":"Piadineria, Via Daniele Manin, Roccaccia, Bagno di Romagna, FC, EMR, Italia","category":"lifestyle","type":"fast_food","importance":0.001,"icon":"http://nominatim.openstreetmap.org/images/mapicons/food_fastfood.p.20.png","visiting_time":10.0,"opening_hours":null,"opening_days":null,"rating":0,"photo_url":null,"description":null,"www":null},{"place_id":"61996663","geometry":{"type":"Point","coordinates":[11.975938,43.8540948]},"display_name":"Piadineria, Via Nazario Sauro, Il Pittore, Bagno di Romagna, FC, EMR, Italia","category":"lifestyle","type":"fast_food","importance":0.001,"icon":"http://nominatim.openstreetmap.org/images/mapicons/food_fastfood.p.20.png","visiting_time":10.0,"opening_hours":null,"opening_days":null,"rating":0,"photo_url":null,"description":null,"www":null},{"place_id":"6292075","geometry":{"type":"Point","coordinates":[11.9097966,43.9464995]},"display_name":"Butterfly, Piazza Giuseppe Garibaldi, Caselle, Santa Sofia, FC, EMR, Italia","category":"lifestyle","type":"pub","importance":0.001,"icon":"http://nominatim.openstreetmap.org/images/mapicons/food_pub.p.20.png","visiting_time":10.0,"opening_hours":null,"opening_days":null,"rating":0,"photo_url":null,"description":null,"www":null},{"place_id":"3884851","geometry":{"type":"Point","coordinates":[11.9813719,43.9227002]},"display_name":"Strada vicinale Spinello, Monte, Santa Sofia, FC, EMR, Italia","category":"lifestyle","type":"pub","importance":0.001,"icon":"http://nominatim.openstreetmap.org/images/mapicons/food_pub.p.20.png","visiting_time":10.0,"opening_hours":null,"opening_days":null,"rating":0,"photo_url":null,"description":null,"www":null},{"place_id":"5871089","geometry":{"type":"Point","coordinates":[11.9081657,43.9474101]},"display_name":"Pacione, Via Nefetti, Caselle, Santa Sofia, FC, EMR, Italia","category":"lifestyle","type":"bar","importance":0.001,"icon":"http://nominatim.openstreetmap.org/images/mapicons/food_bar.p.20.png","visiting_time":10.0,"opening_hours":null,"opening_days":null,"rating":0,"photo_url":null,"description":null,"www":null},{"place_id":"6251898","geometry":{"type":"Point","coordinates":[11.9085254,43.9474367]},"display_name":"Mero, Via Nefetti, Caselle, Santa Sofia, FC, EMR, Italia","category":"lifestyle","type":"bar","importance":0.001,"icon":"http://nominatim.openstreetmap.org/images/mapicons/food_bar.p.20.png","visiting_time":10.0,"opening_hours":null,"opening_days":null,"rating":0,"photo_url":null,"description":null,"www":null},{"place_id":"5872608","geometry":{"type":"Point","coordinates":[11.9069627,43.9458065]},"display_name":"La Fenice, Via Martiri della Libertà, Caselle, Santa Sofia, FC, EMR, Italia","category":"lifestyle","type":"bar","importance":0.001,"icon":"http://nominatim.openstreetmap.org/images/mapicons/food_bar.p.20.png","visiting_time":10.0,"opening_hours":null,"opening_days":null,"rating":0,"photo_url":null,"description":null,"www":null},{"place_id":"6307862","geometry":{"type":"Point","coordinates":[11.9098724,43.9463603]},"display_name":"La Taverna, Piazza Giuseppe Garibaldi, Caselle, Santa Sofia, FC, EMR, Italia","category":"lifestyle","type":"bar","importance":0.001,"icon":"http://nominatim.openstreetmap.org/images/mapicons/food_bar.p.20.png","visiting_time":10.0,"opening_hours":null,"opening_days":null,"rating":0,"photo_url":null,"description":null,"www":null},{"place_id":"61681301","geometry":{"type":"Point","coordinates":[11.8784766,43.7941597]},"display_name":"Bar Vittoria di Mechelli, 23, Strada Regionale 71 Umbro Casentinese, Centro Montano Sant'Antonio, Poppi, AR, TOS, 52010, Italia","category":"lifestyle","type":"bar","importance":0.001,"icon":"http://nominatim.openstreetmap.org/images/mapicons/food_bar.p.20.png","visiting_time":90.0,"opening_hours":null,"opening_days":null,"rating":0,"photo_url":null,"description":null,"www":null},{"place_id":"48198486","geometry":{"type":"Point","coordinates":[11.9613797,43.83689]},"display_name":"Piccolo Bar, Via Lungo Savio, La Palazza, Bagno di Romagna, FC, EMR, Italia","category":"lifestyle","type":"bar","importance":0.001,"icon":"http://nominatim.openstreetmap.org/images/mapicons/food_bar.p.20.png","visiting_time":90.0,"opening_hours":null,"opening_days":null,"rating":0,"photo_url":null,"description":null,"www":null},{"place_id":"49336479","geometry":{"type":"Point","coordinates":[11.9594544,43.8340286]},"display_name":"Piazza Bettino Ricasoli, Roccaccia, Bagno di Romagna, FC, EMR, Italia","category":"lifestyle","type":"bar","importance":0.001,"icon":"http://nominatim.openstreetmap.org/images/mapicons/food_bar.p.20.png","visiting_time":90.0,"opening_hours":null,"opening_days":null,"rating":0,"photo_url":null,"description":null,"www":null},{"place_id":"63711452","geometry":{"type":"Point","coordinates":[11.9771904,43.8576981]},"display_name":"Via Cesare Battisti, Il Pittore, Bagno di Romagna, FC, EMR, Italia","category":"lifestyle","type":"bar","importance":0.001,"icon":"http://nominatim.openstreetmap.org/images/mapicons/food_bar.p.20.png","visiting_time":90.0,"opening_hours":null,"opening_days":null,"rating":0,"photo_url":null,"description":null,"www":null},{"place_id":"48935173","geometry":{"type":"Point","coordinates":[11.9592233,43.8340984]},"display_name":"Via Daniele Manin, Roccaccia, Bagno di Romagna, FC, EMR, Italia","category":"lifestyle","type":"bar","importance":0.001,"icon":"http://nominatim.openstreetmap.org/images/mapicons/food_bar.p.20.png","visiting_time":90.0,"opening_hours":null,"opening_days":null,"rating":0,"photo_url":null,"description":null,"www":null},{"place_id":"114804429","geometry":{"type":"Point","coordinates":[11.839552696,43.87267545]},"display_name":"diga, Bagno di Romagna, FC, EMR, Italia","category":"lifestyle","type":"bar","importance":0.001,"icon":"http://nominatim.openstreetmap.org/images/mapicons/food_bar.p.20.png","visiting_time":90.0,"opening_hours":null,"opening_days":null,"rating":0,"photo_url":null,"description":null,"www":null},{"place_id":"48698024","geometry":{"type":"Point","coordinates":[11.9583171,43.8330108]},"display_name":"Nonsolo Bar, Via Fiorentina, Roccaccia, Bagno di Romagna, FC, EMR, Italia","category":"lifestyle","type":"bar","importance":0.001,"icon":"http://nominatim.openstreetmap.org/images/mapicons/food_bar.p.20.png","visiting_time":90.0,"opening_hours":null,"opening_days":null,"rating":0,"photo_url":null,"description":null,"www":null},{"place_id":"6292075","geometry":{"type":"Point","coordinates":[11.9097966,43.9464995]},"display_name":"Butterfly, Piazza Giuseppe Garibaldi, Caselle, Santa Sofia, FC, EMR, Italia","category":"lifestyle","type":"pub","importance":0.001,"icon":"http://nominatim.openstreetmap.org/images/mapicons/food_pub.p.20.png","visiting_time":90.0,"opening_hours":null,"opening_days":null,"rating":0,"photo_url":null,"description":null,"www":null},{"place_id":"3884851","geometry":{"type":"Point","coordinates":[11.9813719,43.9227002]},"display_name":"Strada vicinale Spinello, Monte, Santa Sofia, FC, EMR, Italia","category":"lifestyle","type":"pub","importance":0.001,"icon":"http://nominatim.openstreetmap.org/images/mapicons/food_pub.p.20.png","visiting_time":90.0,"opening_hours":null,"opening_days":null,"rating":0,"photo_url":null,"description":null,"www":null},{"place_id":"5871089","geometry":{"type":"Point","coordinates":[11.9081657,43.9474101]},"display_name":"Pacione, Via Nefetti, Caselle, Santa Sofia, FC, EMR, Italia","category":"lifestyle","type":"bar","importance":0.001,"icon":"http://nominatim.openstreetmap.org/images/mapicons/food_bar.p.20.png","visiting_time":90.0,"opening_hours":null,"opening_days":null,"rating":0,"photo_url":null,"description":null,"www":null},{"place_id":"6307862","geometry":{"type":"Point","coordinates":[11.9098724,43.9463603]},"display_name":"La Taverna, Piazza Giuseppe Garibaldi, Caselle, Santa Sofia, FC, EMR, Italia","category":"lifestyle","type":"bar","importance":0.001,"icon":"http://nominatim.openstreetmap.org/images/mapicons/food_bar.p.20.png","visiting_time":90.0,"opening_hours":null,"opening_days":null,"rating":0,"photo_url":null,"description":null,"www":null},{"place_id":"6251898","geometry":{"type":"Point","coordinates":[11.9085254,43.9474367]},"display_name":"Mero, Via Nefetti, Caselle, Santa Sofia, FC, EMR, Italia","category":"lifestyle","type":"bar","importance":0.001,"icon":"http://nominatim.openstreetmap.org/images/mapicons/food_bar.p.20.png","visiting_time":90.0,"opening_hours":null,"opening_days":null,"rating":0,"photo_url":null,"description":null,"www":null},{"place_id":"5872608","geometry":{"type":"Point","coordinates":[11.9069627,43.9458065]},"display_name":"La Fenice, Via Martiri della Libertà, Caselle, Santa Sofia, FC, EMR, Italia","category":"lifestyle","type":"bar","importance":0.001,"icon":"http://nominatim.openstreetmap.org/images/mapicons/food_bar.p.20.png","visiting_time":90.0,"opening_hours":null,"opening_days":null,"rating":0,"photo_url":null,"description":null,"www":null},{"place_id":"6266711","geometry":{"type":"Point","coordinates":[11.9095861,43.9468748]},"display_name":"bar nazionale, Via Giovannetti, Casanova, Santa Sofia, FC, EMR, Italia","category":"lifestyle","type":"bar","importance":0.001,"icon":"http://nominatim.openstreetmap.org/images/mapicons/food_bar.p.20.png","visiting_time":90.0,"opening_hours":null,"opening_days":null,"rating":0,"photo_url":null,"description":null,"www":null},{"place_id":"6159242","geometry":{"type":"Point","coordinates":[11.9082735,43.9471868]},"display_name":"haller's bar, Via Martiri per la Libertà, Caselle, Santa Sofia, FC, EMR, Italia","category":"lifestyle","type":"bar","importance":0.001,"icon":"http://nominatim.openstreetmap.org/images/mapicons/food_bar.p.20.png","visiting_time":90.0,"opening_hours":null,"opening_days":null,"rating":0,"photo_url":null,"description":null,"www":null},{"place_id":"180169053","geometry":{"type":"Point","coordinates":[-8.3350726,43.2233149]},"display_name":"Abegondo, Galicia, CAFE, España","category":"lifestyle","type":"postcode","importance":0.2125,"icon":null,"visiting_time":10.0,"opening_hours":null,"opening_days":null,"rating":0,"photo_url":null,"description":null,"www":null},{"place_id":"48551419","geometry":{"type":"Point","coordinates":[11.9634135,43.8371347]},"display_name":"Terme Club Disco, SP138, Valmaggio, Bagno di Romagna, FC, EMR, Italia","category":"lifestyle","type":"nightclub","importance":0.101,"icon":null,"visiting_time":120.0,"opening_hours":null,"opening_days":null,"rating":0,"photo_url":null,"description":null,"www":null},{"place_id":"50350356","geometry":{"type":"Point","coordinates":[11.9983848,43.9039888]},"display_name":"Edicola in memoria di Damiani,Lusini,Portolani, Sentiero 101 Cammino di San Vicinio, Farneto, Bagno di Romagna, FC, EMR, Italia","category":"attractions","type":"memorial","importance":0.001,"icon":"http://nominatim.openstreetmap.org/images/mapicons/tourist_monument.p.20.png","visiting_time":10.0,"opening_hours":null,"opening_days":null,"rating":0,"photo_url":null,"description":null,"www":null},{"place_id":"14528196","geometry":{"type":"Point","coordinates":[11.9679768,43.8534309]},"display_name":"Pellegrino Scotti, BT6, Casetto della Fonte, Bagno di Romagna, FC, EMR, Italia","category":"attractions","type":"memorial","importance":0.001,"icon":"http://nominatim.openstreetmap.org/images/mapicons/tourist_monument.p.20.png","visiting_time":10.0,"opening_hours":null,"opening_days":null,"rating":0,"photo_url":null,"description":null,"www":null},{"place_id":"22933801","geometry":{"type":"Point","coordinates":[11.8142503,43.9241482]},"display_name":"Cippo ai Partigiani, Strada per Badia di Sasso, Campone, Santa Sofia, FC, EMR, 47010, Italia","category":"attractions","type":"memorial","importance":0.001,"icon":"http://nominatim.openstreetmap.org/images/mapicons/tourist_monument.p.20.png","visiting_time":10.0,"opening_hours":null,"opening_days":null,"rating":0,"photo_url":null,"description":null,"www":null},{"place_id":"7605962","geometry":{"type":"Point","coordinates":[11.8382459,43.9056296]},"display_name":"Cippo ai Partigiani, Biserno - San Paolo in Alpe, Collina, Santa Sofia, FC, EMR, 47010, Italia","category":"attractions","type":"memorial","importance":0.001,"icon":"http://nominatim.openstreetmap.org/images/mapicons/tourist_monument.p.20.png","visiting_time":10.0,"opening_hours":null,"opening_days":null,"rating":0,"photo_url":null,"description":null,"www":null},{"place_id":"7498396","geometry":{"type":"Point","coordinates":[12.0761363,43.7876051]},"display_name":"Sorgente del Tevere, 104, Verghereto, FC, EMR, 47028, Italia","category":"attractions","type":"monument","importance":0.001,"icon":"http://nominatim.openstreetmap.org/images/mapicons/tourist_monument.p.20.png","visiting_time":10.0,"opening_hours":null,"opening_days":null,"rating":0,"photo_url":null,"description":null,"www":null},{"place_id":"50350356","geometry":{"type":"Point","coordinates":[11.9983848,43.9039888]},"display_name":"Edicola in memoria di Damiani,Lusini,Portolani, Sentiero 101 Cammino di San Vicinio, Farneto, Bagno di Romagna, FC, EMR, Italia","category":"attractions","type":"memorial","importance":0.001,"icon":"http://nominatim.openstreetmap.org/images/mapicons/tourist_monument.p.20.png","visiting_time":10.0,"opening_hours":null,"opening_days":null,"rating":0,"photo_url":null,"description":null,"www":null},{"place_id":"14528196","geometry":{"type":"Point","coordinates":[11.9679768,43.8534309]},"display_name":"Pellegrino Scotti, BT6, Casetto della Fonte, Bagno di Romagna, FC, EMR, Italia","category":"attractions","type":"memorial","importance":0.001,"icon":"http://nominatim.openstreetmap.org/images/mapicons/tourist_monument.p.20.png","visiting_time":10.0,"opening_hours":null,"opening_days":null,"rating":0,"photo_url":null,"description":null,"www":null},{"place_id":"22933801","geometry":{"type":"Point","coordinates":[11.8142503,43.9241482]},"display_name":"Cippo ai Partigiani, Strada per Badia di Sasso, Campone, Santa Sofia, FC, EMR, 47010, Italia","category":"attractions","type":"memorial","importance":0.001,"icon":"http://nominatim.openstreetmap.org/images/mapicons/tourist_monument.p.20.png","visiting_time":10.0,"opening_hours":null,"opening_days":null,"rating":0,"photo_url":null,"description":null,"www":null},{"place_id":"7605962","geometry":{"type":"Point","coordinates":[11.8382459,43.9056296]},"display_name":"Cippo ai Partigiani, Biserno - San Paolo in Alpe, Collina, Santa Sofia, FC, EMR, 47010, Italia","category":"attractions","type":"memorial","importance":0.001,"icon":"http://nominatim.openstreetmap.org/images/mapicons/tourist_monument.p.20.png","visiting_time":10.0,"opening_hours":null,"opening_days":null,"rating":0,"photo_url":null,"description":null,"www":null},{"place_id":"114873027","geometry":{"type":"Point","coordinates":[11.9095785,43.9456207]},"display_name":"Galleria d' arte Vero Stoppioni, Via della Repubblica, Caselle, Santa Sofia, FC, EMR, Italia","category":"attractions","type":"arts_centre","importance":0.001,"icon":"http://nominatim.openstreetmap.org/images/mapicons/tourist_art_gallery2.p.20.png","visiting_time":120.0,"opening_hours":null,"opening_days":null,"rating":0,"photo_url":null,"description":null,"www":null},{"place_id":"60765034","geometry":{"type":"Point","coordinates":[11.8771954,43.7943092]},"display_name":"Museo Forestale  Carlo Siemoni, 14/b, Strada Regionale 71 Umbro Casentinese, Centro Montano Sant'Antonio, Poppi, AR, TOS, 52010, Italia","category":"attractions","type":"museum","importance":0.001,"icon":"http://nominatim.openstreetmap.org/images/mapicons/tourist_museum.p.20.png","visiting_time":120.0,"opening_hours":null,"opening_days":null,"rating":0,"photo_url":null,"description":null,"www":null},{"place_id":"7596949","geometry":{"type":"Point","coordinates":[11.8343902,43.8843682]},"display_name":"Idro - Museo delle acque, Isola - Ridracoli, Palazzo Giovannetti, Bagno di Romagna, FC, EMR, Italia","category":"attractions","type":"museum","importance":0.001,"icon":"http://nominatim.openstreetmap.org/images/mapicons/tourist_museum.p.20.png","visiting_time":120.0,"opening_hours":null,"opening_days":null,"rating":0,"photo_url":null,"description":null,"www":null},{"place_id":"20057378","geometry":{"type":"Point","coordinates":[11.9094779,43.9456055]},"display_name":"Galleria d'arte Vero Stoppioni, Via della Repubblica, Caselle, Santa Sofia, FC, EMR, Italia","category":"attractions","type":"museum","importance":0.001,"icon":"http://nominatim.openstreetmap.org/images/mapicons/tourist_museum.p.20.png","visiting_time":120.0,"opening_hours":null,"opening_days":null,"rating":0,"photo_url":null,"description":null,"www":null},{"place_id":"39438094","geometry":{"type":"Point","coordinates":[12.057617,43.8466464]},"display_name":"Parco del Casone, Verghereto, FC, EMR, 47028, Italia","category":"parks","type":"park","importance":0.15,"icon":null,"visiting_time":90.0,"opening_hours":null,"opening_days":null,"rating":0,"photo_url":null,"description":null,"www":null},{"place_id":"39040127","geometry":{"type":"Point","coordinates":[12.0561687,43.8495673]},"display_name":"Parco 11 Settembre, Verghereto, FC, EMR, 47028, Italia","category":"parks","type":"park","importance":0.15,"icon":null,"visiting_time":90.0,"opening_hours":null,"opening_days":null,"rating":0,"photo_url":null,"description":null,"www":null},{"place_id":"178293410","geometry":{"type":"Point","coordinates":[11.975991866,43.85414145]},"display_name":"Il Pittore, Bagno di Romagna, FC, EMR, Italia","category":"parks","type":"park","importance":0.15,"icon":null,"visiting_time":90.0,"opening_hours":null,"opening_days":null,"rating":0,"photo_url":null,"description":null,"www":null},{"place_id":"151009815","geometry":{"type":"Point","coordinates":[11.960885122,43.83459545]},"display_name":"Roccaccia, Bagno di Romagna, FC, EMR, Italia","category":"parks","type":"park","importance":0.15,"icon":null,"visiting_time":90.0,"opening_hours":null,"opening_days":null,"rating":0,"photo_url":null,"description":null,"www":null},{"place_id":"140186801","geometry":{"type":"Point","coordinates":[11.979052965,43.85993975]},"display_name":"Mercato Vecchio, La Pomina, Bagno di Romagna, FC, EMR, Italia","category":"parks","type":"park","importance":0.15,"icon":null,"visiting_time":90.0,"opening_hours":null,"opening_days":null,"rating":0,"photo_url":null,"description":null,"www":null},{"place_id":"82457900","geometry":{"type":"Point","coordinates":[11.907227261,43.9455518]},"display_name":"Parco Fluviale, Caselle, Santa Sofia, FC, EMR, Italia","category":"parks","type":"park","importance":0.15,"icon":null,"visiting_time":90.0,"opening_hours":null,"opening_days":null,"rating":0,"photo_url":null,"description":null,"www":null},{"place_id":"88186441","geometry":{"type":"Point","coordinates":[12.069204276,43.836267]},"display_name":"Via Riofreddo, Verghereto, FC, EMR, 47028, Italia","category":"attractions","type":"place_of_worship","importance":0.101,"icon":"http://nominatim.openstreetmap.org/images/mapicons/place_of_worship_unknown3.p.20.png","visiting_time":30.0,"opening_hours":null,"opening_days":null,"rating":0,"photo_url":null,"description":null,"www":null},{"place_id":"113124998","geometry":{"type":"Point","coordinates":[11.904407676,43.8997941]},"display_name":"Santa Sofia - Poggio Alla Lastra - Pietrapazza, Camporlandino di Sotto, Bagno di Romagna, FC, EMR, Italia","category":"attractions","type":"place_of_worship","importance":0.101,"icon":"http://nominatim.openstreetmap.org/images/mapicons/place_of_worship_unknown3.p.20.png","visiting_time":30.0,"opening_hours":null,"opening_days":null,"rating":0,"photo_url":null,"description":null,"www":null},{"place_id":"6231903","geometry":{"type":"Point","coordinates":[11.9124396,43.9459334]},"display_name":"Oratorio, Via Meleto, Casanova, Santa Sofia, FC, EMR, Italia","category":"attractions","type":"place_of_worship","importance":0.101,"icon":"http://nominatim.openstreetmap.org/images/mapicons/place_of_worship_unknown3.p.20.png","visiting_time":30.0,"opening_hours":null,"opening_days":null,"rating":0,"photo_url":null,"description":null,"www":null},{"place_id":"165117295","geometry":{"type":"Point","coordinates":[11.8469426,43.90368325]},"display_name":"Isola - Ridracoli, Ca' d'Achille, Santa Sofia, FC, EMR, Italia","category":"attractions","type":"place_of_worship","importance":0.101,"icon":"http://nominatim.openstreetmap.org/images/mapicons/place_of_worship_unknown3.p.20.png","visiting_time":30.0,"opening_hours":null,"opening_days":null,"rating":0,"photo_url":null,"description":null,"www":null},{"place_id":"6116798","geometry":{"type":"Point","coordinates":[11.9116382,43.9455631]},"display_name":"Oratorio, Via Spinello, Casanova, Santa Sofia, FC, EMR, Italia","category":"attractions","type":"place_of_worship","importance":0.101,"icon":"http://nominatim.openstreetmap.org/images/mapicons/place_of_worship_unknown3.p.20.png","visiting_time":30.0,"opening_hours":null,"opening_days":null,"rating":0,"photo_url":null,"description":null,"www":null},{"place_id":"112689105","geometry":{"type":"Point","coordinates":[11.864110856,43.9481748]},"display_name":"Cappella, CAI 271, Castello di Spescia, Santa Sofia, FC, EMR, Italia","category":"attractions","type":"place_of_worship","importance":0.101,"icon":"http://nominatim.openstreetmap.org/images/mapicons/place_of_worship_unknown3.p.20.png","visiting_time":30.0,"opening_hours":null,"opening_days":null,"rating":0,"photo_url":null,"description":null,"www":null},{"place_id":"108268800","geometry":{"type":"Point","coordinates":[11.79530387,43.9071618]},"display_name":"Strada Fiumicello Braccina, Valdonasso di Sotto, Santa Sofia, FC, EMR, 47010, Italia","category":"attractions","type":"place_of_worship","importance":0.101,"icon":"http://nominatim.openstreetmap.org/images/mapicons/place_of_worship_unknown3.p.20.png","visiting_time":30.0,"opening_hours":null,"opening_days":null,"rating":0,"photo_url":null,"description":null,"www":null},{"place_id":"112519736","geometry":{"type":"Point","coordinates":[11.907750354,43.94780955]},"display_name":"Via Nefetti, Caselle, Santa Sofia, FC, EMR, Italia","category":"attractions","type":"place_of_worship","importance":0.101,"icon":"http://nominatim.openstreetmap.org/images/mapicons/place_of_worship_unknown3.p.20.png","visiting_time":30.0,"opening_hours":null,"opening_days":null,"rating":0,"photo_url":null,"description":null,"www":null},{"place_id":"129378813","geometry":{"type":"Point","coordinates":[11.817040864,43.8106152]},"display_name":"CAI 70, Casotto Braga, Poppi, AR, TOS, Italia","category":"attractions","type":"place_of_worship","importance":0.001,"icon":"http://nominatim.openstreetmap.org/images/mapicons/place_of_worship_unknown3.p.20.png","visiting_time":30.0,"opening_hours":null,"opening_days":null,"rating":0,"photo_url":null,"description":null,"www":null},{"place_id":"49443547","geometry":{"type":"Point","coordinates":[11.8204498,43.8012593]},"display_name":"Cappella di San Romualdo, CAI 68, Casotto Braga, Poppi, AR, TOS, 52014, Italia","category":"attractions","type":"place_of_worship","importance":0.001,"icon":"http://nominatim.openstreetmap.org/images/mapicons/place_of_worship_unknown3.p.20.png","visiting_time":30.0,"opening_hours":null,"opening_days":null,"rating":0,"photo_url":null,"description":null,"www":null},{"place_id":"50124499","geometry":{"type":"Point","coordinates":[11.8209428,43.7969435]},"display_name":"Cappella della Neve, CAI 68, Metaleto, Poppi, AR, TOS, 52014, Italia","category":"attractions","type":"place_of_worship","importance":0.001,"icon":"http://nominatim.openstreetmap.org/images/mapicons/place_of_worship_unknown3.p.20.png","visiting_time":30.0,"opening_hours":null,"opening_days":null,"rating":0,"photo_url":null,"description":null,"www":null},{"place_id":"165580278","geometry":{"type":"Point","coordinates":[11.877084805,43.7944125]},"display_name":"Parrocchia S. Maria Assunta, Via Eden, Centro Montano Sant'Antonio, Poppi, AR, TOS, Italia","category":"attractions","type":"place_of_worship","importance":0.001,"icon":"http://nominatim.openstreetmap.org/images/mapicons/place_of_worship_unknown3.p.20.png","visiting_time":30.0,"opening_hours":null,"opening_days":null,"rating":0,"photo_url":null,"description":null,"www":null},{"place_id":"7498404","geometry":{"type":"Point","coordinates":[12.0959117,43.8006818]},"display_name":"La Cella, 121, Verghereto, FC, EMR, 47028, Italia","category":"attractions","type":"place_of_worship","importance":0.001,"icon":"http://nominatim.openstreetmap.org/images/mapicons/place_of_worship_unknown3.p.20.png","visiting_time":30.0,"opening_hours":null,"opening_days":null,"rating":0,"photo_url":null,"description":null,"www":null},{"place_id":"7309929","geometry":{"type":"Point","coordinates":[12.0960067,43.8014051]},"display_name":"Ex San Giovanni, 121, Verghereto, FC, EMR, 47028, Italia","category":"attractions","type":"place_of_worship","importance":0.001,"icon":"http://nominatim.openstreetmap.org/images/mapicons/place_of_worship_unknown3.p.20.png","visiting_time":30.0,"opening_hours":null,"opening_days":null,"rating":0,"photo_url":null,"description":null,"www":null},{"place_id":"14793913","geometry":{"type":"Point","coordinates":[11.9534485,43.8140257]},"display_name":"SP142, Nocicchio, Bagno di Romagna, FC, EMR, Italia","category":"attractions","type":"place_of_worship","importance":0.001,"icon":"http://nominatim.openstreetmap.org/images/mapicons/place_of_worship_unknown3.p.20.png","visiting_time":30.0,"opening_hours":null,"opening_days":null,"rating":0,"photo_url":null,"description":null,"www":null},{"place_id":"165456923","geometry":{"type":"Point","coordinates":[11.866466265,43.858223]},"display_name":"podere Romiceto, Bagno di Romagna, FC, EMR, Italia","category":"attractions","type":"place_of_worship","importance":0.001,"icon":"http://nominatim.openstreetmap.org/images/mapicons/place_of_worship_unknown3.p.20.png","visiting_time":30.0,"opening_hours":null,"opening_days":null,"rating":0,"photo_url":null,"description":null,"www":null},{"place_id":"114843812","geometry":{"type":"Point","coordinates":[11.945270251,43.90704415]},"display_name":"SP26, Botteghino, Bagno di Romagna, FC, EMR, Italia","category":"attractions","type":"place_of_worship","importance":0.001,"icon":"http://nominatim.openstreetmap.org/images/mapicons/place_of_worship_unknown3.p.20.png","visiting_time":30.0,"opening_hours":null,"opening_days":null,"rating":0,"photo_url":null,"description":null,"www":null},{"place_id":"112702310","geometry":{"type":"Point","coordinates":[11.975351432,43.8577574]},"display_name":"Via del Chiasso, Il Pittore, Bagno di Romagna, FC, EMR, Italia","category":"attractions","type":"place_of_worship","importance":0.001,"icon":"http://nominatim.openstreetmap.org/images/mapicons/place_of_worship_unknown3.p.20.png","visiting_time":30.0,"opening_hours":null,"opening_days":null,"rating":0,"photo_url":null,"description":null,"www":null},{"place_id":"95695621","geometry":{"type":"Point","coordinates":[11.968829734,43.8542725]},"display_name":"Santuario della Madonna di Corzano, Antica Mulattiera di Corzano, Corzano, Bagno di Romagna, FC, EMR, Italia","category":"attractions","type":"place_of_worship","importance":0.001,"icon":"http://nominatim.openstreetmap.org/images/mapicons/place_of_worship_unknown3.p.20.png","visiting_time":30.0,"opening_hours":null,"opening_days":null,"rating":0,"photo_url":null,"description":null,"www":null},{"place_id":"115125564","geometry":{"type":"Point","coordinates":[11.881601223,43.8721545]},"display_name":"Sentiero del partigiano, Strabatenza, Bagno di Romagna, FC, EMR, Italia","category":"attractions","type":"place_of_worship","importance":0.001,"icon":"http://nominatim.openstreetmap.org/images/mapicons/place_of_worship_unknown3.p.20.png","visiting_time":30.0,"opening_hours":null,"opening_days":null,"rating":0,"photo_url":null,"description":null,"www":null},{"place_id":"11622773","geometry":{"type":"Point","coordinates":[11.8854937,43.9196837]},"display_name":"rondinaia, Rondinaia, Bagno di Romagna, FC, EMR, Italia","category":"attractions","type":"place_of_worship","importance":0.001,"icon":"http://nominatim.openstreetmap.org/images/mapicons/place_of_worship_unknown3.p.20.png","visiting_time":30.0,"opening_hours":null,"opening_days":null,"rating":0,"photo_url":null,"description":null,"www":null},{"place_id":"113007633","geometry":{"type":"Point","coordinates":[11.898610566,43.8399096]},"display_name":"CAI 209, Casa Pasquino, Bagno di Romagna, FC, EMR, Italia","category":"attractions","type":"place_of_worship","importance":0.001,"icon":"http://nominatim.openstreetmap.org/images/mapicons/place_of_worship_unknown3.p.20.png","visiting_time":30.0,"opening_hours":null,"opening_days":null,"rating":0,"photo_url":null,"description":null,"www":null},{"place_id":"113686117","geometry":{"type":"Point","coordinates":[11.836986908,43.83196855]},"display_name":"CAI 235, Seghettina, Bagno di Romagna, FC, EMR, Italia","category":"attractions","type":"place_of_worship","importance":0.001,"icon":"http://nominatim.openstreetmap.org/images/mapicons/place_of_worship_unknown3.p.20.png","visiting_time":30.0,"opening_hours":null,"opening_days":null,"rating":0,"photo_url":null,"description":null,"www":null},{"place_id":"6278671","geometry":{"type":"Point","coordinates":[11.8929188,43.8253785]},"display_name":"L'Eremo Nuovo, CAI 205, La Berlesca, Bagno di Romagna, FC, EMR, Italia","category":"attractions","type":"place_of_worship","importance":0.001,"icon":"http://nominatim.openstreetmap.org/images/mapicons/place_of_worship_unknown3.p.20.png","visiting_time":30.0,"opening_hours":null,"opening_days":null,"rating":0,"photo_url":null,"description":null,"www":null},{"place_id":"49443547","geometry":{"type":"Point","coordinates":[11.8204498,43.8012593]},"display_name":"Cappella di San Romualdo, CAI 68, Casotto Braga, Poppi, AR, TOS, 52014, Italia","category":"attractions","type":"place_of_worship","importance":0.001,"icon":"http://nominatim.openstreetmap.org/images/mapicons/place_of_worship_unknown3.p.20.png","visiting_time":30.0,"opening_hours":null,"opening_days":null,"rating":0,"photo_url":null,"description":null,"www":null},{"place_id":"129378813","geometry":{"type":"Point","coordinates":[11.817040864,43.8106152]},"display_name":"CAI 70, Casotto Braga, Poppi, AR, TOS, Italia","category":"attractions","type":"place_of_worship","importance":0.001,"icon":"http://nominatim.openstreetmap.org/images/mapicons/place_of_worship_unknown3.p.20.png","visiting_time":30.0,"opening_hours":null,"opening_days":null,"rating":0,"photo_url":null,"description":null,"www":null},{"place_id":"50124499","geometry":{"type":"Point","coordinates":[11.8209428,43.7969435]},"display_name":"Cappella della Neve, CAI 68, Metaleto, Poppi, AR, TOS, 52014, Italia","category":"attractions","type":"place_of_worship","importance":0.001,"icon":"http://nominatim.openstreetmap.org/images/mapicons/place_of_worship_unknown3.p.20.png","visiting_time":30.0,"opening_hours":null,"opening_days":null,"rating":0,"photo_url":null,"description":null,"www":null},{"place_id":"165580278","geometry":{"type":"Point","coordinates":[11.877084805,43.7944125]},"display_name":"Parrocchia S. Maria Assunta, Via Eden, Centro Montano Sant'Antonio, Poppi, AR, TOS, Italia","category":"attractions","type":"place_of_worship","importance":0.001,"icon":"http://nominatim.openstreetmap.org/images/mapicons/place_of_worship_unknown3.p.20.png","visiting_time":30.0,"opening_hours":null,"opening_days":null,"rating":0,"photo_url":null,"description":null,"www":null},{"place_id":"7498404","geometry":{"type":"Point","coordinates":[12.0959117,43.8006818]},"display_name":"La Cella, 121, Verghereto, FC, EMR, 47028, Italia","category":"attractions","type":"place_of_worship","importance":0.001,"icon":"http://nominatim.openstreetmap.org/images/mapicons/place_of_worship_unknown3.p.20.png","visiting_time":30.0,"opening_hours":null,"opening_days":null,"rating":0,"photo_url":null,"description":null,"www":null},{"place_id":"88186441","geometry":{"type":"Point","coordinates":[12.069204276,43.836267]},"display_name":"Via Riofreddo, Verghereto, FC, EMR, 47028, Italia","category":"attractions","type":"place_of_worship","importance":0.001,"icon":"http://nominatim.openstreetmap.org/images/mapicons/place_of_worship_unknown3.p.20.png","visiting_time":30.0,"opening_hours":null,"opening_days":null,"rating":0,"photo_url":null,"description":null,"www":null},{"place_id":"7309929","geometry":{"type":"Point","coordinates":[12.0960067,43.8014051]},"display_name":"Ex San Giovanni, 121, Verghereto, FC, EMR, 47028, Italia","category":"attractions","type":"place_of_worship","importance":0.001,"icon":"http://nominatim.openstreetmap.org/images/mapicons/place_of_worship_unknown3.p.20.png","visiting_time":30.0,"opening_hours":null,"opening_days":null,"rating":0,"photo_url":null,"description":null,"www":null},{"place_id":"113686117","geometry":{"type":"Point","coordinates":[11.836986908,43.83196855]},"display_name":"CAI 235, Seghettina, Bagno di Romagna, FC, EMR, Italia","category":"attractions","type":"place_of_worship","importance":0.001,"icon":"http://nominatim.openstreetmap.org/images/mapicons/place_of_worship_unknown3.p.20.png","visiting_time":30.0,"opening_hours":null,"opening_days":null,"rating":0,"photo_url":null,"description":null,"www":null},{"place_id":"6278671","geometry":{"type":"Point","coordinates":[11.8929188,43.8253785]},"display_name":"L'Eremo Nuovo, CAI 205, La Berlesca, Bagno di Romagna, FC, EMR, Italia","category":"attractions","type":"place_of_worship","importance":0.001,"icon":"http://nominatim.openstreetmap.org/images/mapicons/place_of_worship_unknown3.p.20.png","visiting_time":30.0,"opening_hours":null,"opening_days":null,"rating":0,"photo_url":null,"description":null,"www":null},{"place_id":"113124998","geometry":{"type":"Point","coordinates":[11.904407676,43.8997941]},"display_name":"Santa Sofia - Poggio Alla Lastra - Pietrapazza, Camporlandino di Sotto, Bagno di Romagna, FC, EMR, Italia","category":"attractions","type":"place_of_worship","importance":0.001,"icon":"http://nominatim.openstreetmap.org/images/mapicons/place_of_worship_unknown3.p.20.png","visiting_time":30.0,"opening_hours":null,"opening_days":null,"rating":0,"photo_url":null,"description":null,"www":null},{"place_id":"11622773","geometry":{"type":"Point","coordinates":[11.8854937,43.9196837]},"display_name":"rondinaia, Rondinaia, Bagno di Romagna, FC, EMR, Italia","category":"attractions","type":"place_of_worship","importance":0.001,"icon":"http://nominatim.openstreetmap.org/images/mapicons/place_of_worship_unknown3.p.20.png","visiting_time":30.0,"opening_hours":null,"opening_days":null,"rating":0,"photo_url":null,"description":null,"www":null},{"place_id":"115125564","geometry":{"type":"Point","coordinates":[11.881601223,43.8721545]},"display_name":"Sentiero del partigiano, Strabatenza, Bagno di Romagna, FC, EMR, Italia","category":"attractions","type":"place_of_worship","importance":0.001,"icon":"http://nominatim.openstreetmap.org/images/mapicons/place_of_worship_unknown3.p.20.png","visiting_time":30.0,"opening_hours":null,"opening_days":null,"rating":0,"photo_url":null,"description":null,"www":null},{"place_id":"112702310","geometry":{"type":"Point","coordinates":[11.975351432,43.8577574]},"display_name":"Via del Chiasso, Il Pittore, Bagno di Romagna, FC, EMR, Italia","category":"attractions","type":"place_of_worship","importance":0.001,"icon":"http://nominatim.openstreetmap.org/images/mapicons/place_of_worship_unknown3.p.20.png","visiting_time":30.0,"opening_hours":null,"opening_days":null,"rating":0,"photo_url":null,"description":null,"www":null},{"place_id":"165456923","geometry":{"type":"Point","coordinates":[11.866466265,43.858223]},"display_name":"podere Romiceto, Bagno di Romagna, FC, EMR, Italia","category":"attractions","type":"place_of_worship","importance":0.001,"icon":"http://nominatim.openstreetmap.org/images/mapicons/place_of_worship_unknown3.p.20.png","visiting_time":30.0,"opening_hours":null,"opening_days":null,"rating":0,"photo_url":null,"description":null,"www":null},{"place_id":"114843812","geometry":{"type":"Point","coordinates":[11.945270251,43.90704415]},"display_name":"SP26, Botteghino, Bagno di Romagna, FC, EMR, Italia","category":"attractions","type":"place_of_worship","importance":0.001,"icon":"http://nominatim.openstreetmap.org/images/mapicons/place_of_worship_unknown3.p.20.png","visiting_time":30.0,"opening_hours":null,"opening_days":null,"rating":0,"photo_url":null,"description":null,"www":null},{"place_id":"113007633","geometry":{"type":"Point","coordinates":[11.898610566,43.8399096]},"display_name":"CAI 209, Casa Pasquino, Bagno di Romagna, FC, EMR, Italia","category":"attractions","type":"place_of_worship","importance":0.001,"icon":"http://nominatim.openstreetmap.org/images/mapicons/place_of_worship_unknown3.p.20.png","visiting_time":30.0,"opening_hours":null,"opening_days":null,"rating":0,"photo_url":null,"description":null,"www":null},{"place_id":"14793913","geometry":{"type":"Point","coordinates":[11.9534485,43.8140257]},"display_name":"SP142, Nocicchio, Bagno di Romagna, FC, EMR, Italia","category":"attractions","type":"place_of_worship","importance":0.001,"icon":"http://nominatim.openstreetmap.org/images/mapicons/place_of_worship_unknown3.p.20.png","visiting_time":30.0,"opening_hours":null,"opening_days":null,"rating":0,"photo_url":null,"description":null,"www":null},{"place_id":"95695621","geometry":{"type":"Point","coordinates":[11.968829734,43.8542725]},"display_name":"Santuario della Madonna di Corzano, Antica Mulattiera di Corzano, Corzano, Bagno di Romagna, FC, EMR, Italia","category":"attractions","type":"place_of_worship","importance":0.001,"icon":"http://nominatim.openstreetmap.org/images/mapicons/place_of_worship_unknown3.p.20.png","visiting_time":30.0,"opening_hours":null,"opening_days":null,"rating":0,"photo_url":null,"description":null,"www":null},{"place_id":"112519736","geometry":{"type":"Point","coordinates":[11.907750354,43.94780955]},"display_name":"Via Nefetti, Caselle, Santa Sofia, FC, EMR, Italia","category":"attractions","type":"place_of_worship","importance":0.001,"icon":"http://nominatim.openstreetmap.org/images/mapicons/place_of_worship_unknown3.p.20.png","visiting_time":30.0,"opening_hours":null,"opening_days":null,"rating":0,"photo_url":null,"description":null,"www":null},{"place_id":"112689105","geometry":{"type":"Point","coordinates":[11.864110856,43.9481748]},"display_name":"Cappella, CAI 271, Castello di Spescia, Santa Sofia, FC, EMR, Italia","category":"attractions","type":"place_of_worship","importance":0.001,"icon":"http://nominatim.openstreetmap.org/images/mapicons/place_of_worship_unknown3.p.20.png","visiting_time":30.0,"opening_hours":null,"opening_days":null,"rating":0,"photo_url":null,"description":null,"www":null},{"place_id":"108268800","geometry":{"type":"Point","coordinates":[11.79530387,43.9071618]},"display_name":"Strada Fiumicello Braccina, Valdonasso di Sotto, Santa Sofia, FC, EMR, 47010, Italia","category":"attractions","type":"place_of_worship","importance":0.001,"icon":"http://nominatim.openstreetmap.org/images/mapicons/place_of_worship_unknown3.p.20.png","visiting_time":30.0,"opening_hours":null,"opening_days":null,"rating":0,"photo_url":null,"description":null,"www":null},{"place_id":"6231903","geometry":{"type":"Point","coordinates":[11.9124396,43.9459334]},"display_name":"Oratorio, Via Meleto, Casanova, Santa Sofia, FC, EMR, Italia","category":"attractions","type":"place_of_worship","importance":0.001,"icon":"http://nominatim.openstreetmap.org/images/mapicons/place_of_worship_unknown3.p.20.png","visiting_time":30.0,"opening_hours":null,"opening_days":null,"rating":0,"photo_url":null,"description":null,"www":null},{"place_id":"6116798","geometry":{"type":"Point","coordinates":[11.9116382,43.9455631]},"display_name":"Oratorio, Via Spinello, Casanova, Santa Sofia, FC, EMR, Italia","category":"attractions","type":"place_of_worship","importance":0.001,"icon":"http://nominatim.openstreetmap.org/images/mapicons/place_of_worship_unknown3.p.20.png","visiting_time":30.0,"opening_hours":null,"opening_days":null,"rating":0,"photo_url":null,"description":null,"www":null},{"place_id":"165117295","geometry":{"type":"Point","coordinates":[11.8469426,43.90368325]},"display_name":"Isola - Ridracoli, Ca' d'Achille, Santa Sofia, FC, EMR, Italia","category":"attractions","type":"place_of_worship","importance":0.001,"icon":"http://nominatim.openstreetmap.org/images/mapicons/place_of_worship_unknown3.p.20.png","visiting_time":30.0,"opening_hours":null,"opening_days":null,"rating":0,"photo_url":null,"description":null,"www":null},{"place_id":"25063001","geometry":{"type":"Point","coordinates":[12.073743,43.7899424]},"display_name":"Fumaiolo Paradise Hotel, 128, Molino, Verghereto, FC, EMR, 47028, Italia","category":"resting","type":"hotel","importance":0.101,"icon":"http://nominatim.openstreetmap.org/images/mapicons/accommodation_hotel2.p.20.png","visiting_time":10.0,"opening_hours":null,"opening_days":null,"rating":0,"photo_url":null,"description":null,"www":null},{"place_id":"24248436","geometry":{"type":"Point","coordinates":[11.8197227,43.792558]},"display_name":"Hotel Locanda dei Baroni, 5, Camaldoli, AR, TOS, 52014, Italia","category":"resting","type":"hotel","importance":0.101,"icon":"http://nominatim.openstreetmap.org/images/mapicons/accommodation_hotel2.p.20.png","visiting_time":10.0,"opening_hours":null,"opening_days":null,"rating":0,"photo_url":null,"description":null,"www":null},{"place_id":"83882156","geometry":{"type":"Point","coordinates":[11.9571336,43.83160895]},"display_name":"Hotel Euroterme, Via Casentinese, Roccaccia, Bagno di Romagna, FC, EMR, Italia","category":"resting","type":"hotel","importance":0.101,"icon":"http://nominatim.openstreetmap.org/images/mapicons/accommodation_hotel2.p.20.png","visiting_time":10.0,"opening_hours":null,"opening_days":null,"rating":0,"photo_url":null,"description":null,"www":null},{"place_id":"48426730","geometry":{"type":"Point","coordinates":[11.9589997,43.8339338]},"display_name":"Grand Hotel Terme Roseo, Via Daniele Manin, Roccaccia, Bagno di Romagna, FC, EMR, Italia","category":"resting","type":"hotel","importance":0.101,"icon":"http://nominatim.openstreetmap.org/images/mapicons/accommodation_hotel2.p.20.png","visiting_time":10.0,"opening_hours":null,"opening_days":null,"rating":0,"photo_url":null,"description":null,"www":null},{"place_id":"48176994","geometry":{"type":"Point","coordinates":[11.9579698,43.8328251]},"display_name":"Hotel Tosco Romagnolo, Via Casentinese, Roccaccia, Bagno di Romagna, FC, EMR, Italia","category":"resting","type":"hotel","importance":0.101,"icon":"http://nominatim.openstreetmap.org/images/mapicons/accommodation_hotel2.p.20.png","visiting_time":10.0,"opening_hours":null,"opening_days":null,"rating":0,"photo_url":null,"description":null,"www":null},{"place_id":"86046105","geometry":{"type":"Point","coordinates":[11.9579651,43.8317455]},"display_name":"Hotel Euroterme, CAI 161, Roccaccia, Bagno di Romagna, FC, EMR, Italia","category":"resting","type":"hotel","importance":0.101,"icon":"http://nominatim.openstreetmap.org/images/mapicons/accommodation_hotel2.p.20.png","visiting_time":10.0,"opening_hours":null,"opening_days":null,"rating":0,"photo_url":null,"description":null,"www":null},{"place_id":"178795444","geometry":{"type":"Point","coordinates":[11.958544277,43.83205045]},"display_name":"Hotel Euroterme, Via Lungo Savio, Roccaccia, Bagno di Romagna, FC, EMR, Italia","category":"resting","type":"hotel","importance":0.101,"icon":"http://nominatim.openstreetmap.org/images/mapicons/accommodation_hotel2.p.20.png","visiting_time":10.0,"opening_hours":null,"opening_days":null,"rating":0,"photo_url":null,"description":null,"www":null},{"place_id":"179387546","geometry":{"type":"Point","coordinates":[11.876394875,43.7945767]},"display_name":"Pensione Giardino, 15, Strada Regionale 71 Umbro Casentinese, Centro Montano Sant'Antonio, Poppi, AR, TOS, 52010, Italia","category":"resting","type":"hotel","importance":0.001,"icon":"http://nominatim.openstreetmap.org/images/mapicons/accommodation_hotel2.p.20.png","visiting_time":10.0,"opening_hours":null,"opening_days":null,"rating":0,"photo_url":null,"description":null,"www":null},{"place_id":"49673381","geometry":{"type":"Point","coordinates":[11.8799438,43.7936428]},"display_name":"Residence Gloria, 47/B, Strada Regionale 71 Umbro Casentinese, Centro Montano Sant'Antonio, Poppi, AR, TOS, 52010, Italia","category":"resting","type":"hotel","importance":0.001,"icon":"http://nominatim.openstreetmap.org/images/mapicons/accommodation_hotel2.p.20.png","visiting_time":10.0,"opening_hours":null,"opening_days":null,"rating":0,"photo_url":null,"description":null,"www":null},{"place_id":"50148157","geometry":{"type":"Point","coordinates":[11.8904997,43.7966772]},"display_name":"Locanda Carbonile, Strada Regionale 71 Umbro Casentinese, Centro Montano Sant'Antonio, Poppi, AR, TOS, Italia","category":"resting","type":"hostel","importance":0.001,"icon":null,"visiting_time":10.0,"opening_hours":null,"opening_days":null,"rating":0,"photo_url":null,"description":null,"www":null},{"place_id":"97089946","geometry":{"type":"Point","coordinates":[11.958747236,43.83314545]},"display_name":"Terme di S. Agnese, Via Fiorentina, Roccaccia, Bagno di Romagna, FC, EMR, Italia","category":"resting","type":"hotel","importance":0.001,"icon":"http://nominatim.openstreetmap.org/images/mapicons/accommodation_hotel2.p.20.png","visiting_time":10.0,"opening_hours":null,"opening_days":null,"rating":0,"photo_url":null,"description":null,"www":null},{"place_id":"50148157","geometry":{"type":"Point","coordinates":[11.8904997,43.7966772]},"display_name":"Locanda Carbonile, Strada Regionale 71 Umbro Casentinese, Centro Montano Sant'Antonio, Poppi, AR, TOS, Italia","category":"resting","type":"hostel","importance":0.001,"icon":null,"visiting_time":10.0,"opening_hours":null,"opening_days":null,"rating":0,"photo_url":null,"description":null,"www":null},{"place_id":"61224542","geometry":{"type":"Point","coordinates":[11.8662069,43.8001658]},"display_name":"Camping Il Capanno, Badia Prataglia - Passo Fangacci, Il Capanno, Poppi, AR, TOS, Italia","category":"resting","type":"camp_site","importance":0.101,"icon":null,"visiting_time":10.0,"opening_hours":null,"opening_days":null,"rating":0,"photo_url":null,"description":null,"www":null},{"place_id":"158675476","geometry":{"type":"Point","coordinates":[11.833639134,43.88501995]},"display_name":"Campeggio di Ridracoli, Isola - Ridracoli, Palazzo Giovannetti, Bagno di Romagna, FC, EMR, Italia","category":"resting","type":"camp_site","importance":0.101,"icon":null,"visiting_time":10.0,"opening_hours":null,"opening_days":null,"rating":0,"photo_url":null,"description":null,"www":null},{"place_id":"7883977","geometry":{"type":"Point","coordinates":[11.7888819,43.9169639]},"display_name":"Camping Vivaio, Strada Fiumicello Braccina, Valdonasso di Sotto, Santa Sofia, FC, EMR, 47010, Italia","category":"resting","type":"camp_site","importance":0.101,"icon":null,"visiting_time":10.0,"opening_hours":null,"opening_days":null,"rating":0,"photo_url":null,"description":null,"www":null},{"place_id":"137969","geometry":{"type":"Point","coordinates":[11.994444,43.853056]},"display_name":"Altosavio, SP43, Verghereto, FC, EMR, 47028, Italia","category":"resting","type":"camp_site","importance":0.001,"icon":null,"visiting_time":10.0,"opening_hours":null,"opening_days":null,"rating":0,"photo_url":null,"description":null,"www":null}]