[{"place_id":"44,22517041361050","geometry":{"type":"Point","coordinates":[11.531699957,44.225170414]},"display_name":"Comune di Fontanelice,from:IBC","category":"attractions","type":"HolderOfArchives","importance":0.0,"icon":"","visiting_time":0.0,"opening_hours":"ok","opening_days":"ok","rating":0,"photo_url":null,"description":null,"www":"http://www.comune.fontanelice.bo.it"},{"place_id":"44,27737923202520","geometry":{"type":"Point","coordinates":[11.589140955,44.277379232]},"display_name":"Comune di Borgo Tossignano,from:IBC","category":"attractions","type":"HolderOfArchives","importance":0.0,"icon":"","visiting_time":0.0,"opening_hours":"ok","opening_days":"ok","rating":0,"photo_url":null,"description":null,"www":"http://www.comune.borgotossignano.bo.it"},{"place_id":"44,25910141775020","geometry":{"type":"Point","coordinates":[11.560121584,44.259101418]},"display_name":"Biblioteca comunale La Fonte,from:IBC","category":"attractions","type":"Library","importance":0.0,"icon":"","visiting_time":0.0,"opening_hours":"ok","opening_days":"ok","rating":0,"photo_url":null,"description":null,"www":"http://dati.emilia-romagna.it/id/ibc/condition/IT-BO0192_orari"},{"place_id":"44,27811761199550","geometry":{"type":"Point","coordinates":[11.597594483,44.278117612]},"display_name":"Biblioteca comunale Mario Visani,from:IBC","category":"attractions","type":"Library","importance":0.0,"icon":"","visiting_time":0.0,"opening_hours":"ok","opening_days":"ok","rating":0,"photo_url":null,"description":null,"www":"http://www.comune.borgotossignano.bo.it/biblio.htm"},{"place_id":"44,26005562103310","geometry":{"type":"Point","coordinates":[11.559922466,44.260055621]},"display_name":"Museo Archivio Mengoni,from:IBC","category":"attractions","type":"Museum","importance":0.0,"icon":"","visiting_time":0.0,"opening_hours":"ok","opening_days":"ok","rating":0,"photo_url":null,"description":null,"www":"http://dati.emilia-romagna.it/id/ibc/condition/IT-ER-BO037"},{"place_id":"Una Quercia Fontanelice Fornione (Cà di Maranelli) 751","geometry":{"type":"Point","coordinates":[11.54432831,44.23506546]},"display_name":"Una Quercia Fontanelice Fornione (Cà di Maranelli),from:IBC","category":"tree","type":"tree","importance":0.0,"icon":"","visiting_time":0.0,"opening_hours":"ok","opening_days":"ok","rating":0,"photo_url":"http://online.ibc.regione.emilia-romagna.it/mtrees/image/67.jpg","description":null,"www":null}]