[{"place_id":"44,89534120320790","geometry":{"type":"Point","coordinates":[11.826396367,44.895341203]},"display_name":"Comune di Copparo,from:IBC","category":"attractions","type":"HolderOfArchives","importance":0.0,"icon":"","visiting_time":0.0,"opening_hours":"ok","opening_days":"ok","rating":0,"photo_url":null,"description":null,"www":"http://www.comune.copparo.fe.it"},{"place_id":"44,71891615993300","geometry":{"type":"Point","coordinates":[11.534016248,44.71891616]},"display_name":"Comune di Malalbergo,from:IBC","category":"attractions","type":"HolderOfArchives","importance":0.0,"icon":"","visiting_time":0.0,"opening_hours":"ok","opening_days":"ok","rating":0,"photo_url":null,"description":null,"www":"http://www.comune.malalbergo.bo.it"},{"place_id":"44,76466391122360","geometry":{"type":"Point","coordinates":[11.485257115,44.764663911]},"display_name":"Comune di Poggio Renatico,from:IBC","category":"attractions","type":"HolderOfArchives","importance":0.0,"icon":"","visiting_time":0.0,"opening_hours":"ok","opening_days":"ok","rating":0,"photo_url":null,"description":null,"www":"http://www.comune.poggiorenatico.fe.it"},{"place_id":"44,84243435479800","geometry":{"type":"Point","coordinates":[11.858685117,44.842434355]},"display_name":"Comune di Formignana,from:IBC","category":"attractions","type":"HolderOfArchives","importance":0.0,"icon":"","visiting_time":0.0,"opening_hours":"ok","opening_days":"ok","rating":0,"photo_url":null,"description":null,"www":"http://www.comune.formignana.fe.it"},{"place_id":"44,83854841414820","geometry":{"type":"Point","coordinates":[11.62078437,44.838548414]},"display_name":"Consorzio di Bonifica Pianura di Ferrara,from:IBC","category":"attractions","type":"HolderOfArchives","importance":0.0,"icon":"","visiting_time":0.0,"opening_hours":"ok","opening_days":"ok","rating":0,"photo_url":null,"description":null,"www":"http://siafe.comune.fe.it"},{"place_id":"44,83854841414820","geometry":{"type":"Point","coordinates":[11.62078437,44.838548414]},"display_name":"Consorzio di Bonifica Pianura di Ferrara,from:IBC","category":"attractions","type":"HolderOfArchives","importance":0.0,"icon":"","visiting_time":0.0,"opening_hours":"ok","opening_days":"ok","rating":0,"photo_url":null,"description":null,"www":"http://www.archivistoricibonificaferrara.it/"},{"place_id":"44,83854841414820","geometry":{"type":"Point","coordinates":[11.62078437,44.838548414]},"display_name":"Consorzio di Bonifica Pianura di Ferrara,from:IBC","category":"attractions","type":"HolderOfArchives","importance":0.0,"icon":"","visiting_time":0.0,"opening_hours":"ok","opening_days":"ok","rating":0,"photo_url":null,"description":null,"www":"http://www.bonificaferrara.it/"},{"place_id":"44,83178762627750","geometry":{"type":"Point","coordinates":[11.621624576,44.831787626]},"display_name":"Archivio storico comunale di Ferrara,from:IBC","category":"attractions","type":"HolderOfArchives","importance":0.0,"icon":"","visiting_time":0.0,"opening_hours":"ok","opening_days":"ok","rating":0,"photo_url":null,"description":null,"www":"http://www.comune.fe.it"},{"place_id":"44,7581404","geometry":{"type":"Point","coordinates":[11.7506938,44.7581404]},"display_name":"Comune di Voghiera,from:IBC","category":"attractions","type":"HolderOfArchives","importance":0.0,"icon":"","visiting_time":0.0,"opening_hours":"ok","opening_days":"ok","rating":0,"photo_url":null,"description":null,"www":"http://www.comune.voghiera.fe.it"},{"place_id":"44,69591994960850","geometry":{"type":"Point","coordinates":[11.807748567,44.69591995]},"display_name":"Comune di Portomaggiore,from:IBC","category":"attractions","type":"HolderOfArchives","importance":0.0,"icon":"","visiting_time":0.0,"opening_hours":"ok","opening_days":"ok","rating":0,"photo_url":null,"description":null,"www":"http://www.portoinrete.com"},{"place_id":"44,79406432697940","geometry":{"type":"Point","coordinates":[11.795242832,44.794064327]},"display_name":"Comune di Masi Torello,from:IBC","category":"attractions","type":"HolderOfArchives","importance":0.0,"icon":"","visiting_time":0.0,"opening_hours":"ok","opening_days":"ok","rating":0,"photo_url":null,"description":null,"www":"http://www.comune.masitorello.fe.it"},{"place_id":"44,84030778566220","geometry":{"type":"Point","coordinates":[11.498768895,44.840307786]},"display_name":"Comune di Vigarano Mainarda,from:IBC","category":"attractions","type":"HolderOfArchives","importance":0.0,"icon":"","visiting_time":0.0,"opening_hours":"ok","opening_days":"ok","rating":0,"photo_url":null,"description":null,"www":"http://www.comune.vigarano.fe.it"},{"place_id":"44,83291244548040","geometry":{"type":"Point","coordinates":[11.621730279,44.832912445]},"display_name":"Biblioteca comunale Ariostea,from:IBC","category":"attractions","type":"Library","importance":0.0,"icon":"","visiting_time":0.0,"opening_hours":"ok","opening_days":"ok","rating":0,"photo_url":null,"description":null,"www":"http://www.artecultura.fe.it/index.phtml?id=271"},{"place_id":"44,84999726130120","geometry":{"type":"Point","coordinates":[11.553024783,44.849997261]},"display_name":"Biblioteca comunale Aldo Luppi di Porotto,from:IBC","category":"attractions","type":"Library","importance":0.0,"icon":"","visiting_time":0.0,"opening_hours":"ok","opening_days":"ok","rating":0,"photo_url":null,"description":null,"www":"http://www.comune.fe.it/canali/biblioteche/porotto.htm"},{"place_id":"44,8634694","geometry":{"type":"Point","coordinates":[11.605104,44.8634694]},"display_name":"Biblioteca comunale Giorgio Bassani,from:IBC","category":"attractions","type":"Library","importance":0.0,"icon":"","visiting_time":0.0,"opening_hours":"ok","opening_days":"ok","rating":0,"photo_url":null,"description":null,"www":"http://archibiblio.comune.fe.it/355/index.php?id=298"},{"place_id":"44,84211881226350","geometry":{"type":"Point","coordinates":[11.499142704,44.842118812]},"display_name":"Centro culturale polivalente C. Rambaldi,from:IBC","category":"attractions","type":"Library","importance":0.0,"icon":"","visiting_time":0.0,"opening_hours":"ok","opening_days":"ok","rating":0,"photo_url":null,"description":null,"www":"http://www.comune.vigarano.fe.it/Biblioteca"},{"place_id":"44,7581111","geometry":{"type":"Point","coordinates":[11.7509506,44.7581111]},"display_name":"Biblioteca comunale L. Chiappini,from:IBC","category":"attractions","type":"Library","importance":0.0,"icon":"","visiting_time":0.0,"opening_hours":"ok","opening_days":"ok","rating":0,"photo_url":null,"description":null,"www":"http://www.comune.voghiera.fe.it/116/biblioteca"},{"place_id":"44,81972118675960","geometry":{"type":"Point","coordinates":[11.632184083,44.819721187]},"display_name":"Biblioteca di Scienze della Salute dell'Azienda Ospedaliero-Universitaria di Ferrara Arcispedale S. Anna,from:IBC","category":"attractions","type":"Library","importance":0.0,"icon":"","visiting_time":0.0,"opening_hours":"ok","opening_days":"ok","rating":0,"photo_url":null,"description":null,"www":"http://www.ospfe.it/per-la-formazione/biblioteca/default-page"},{"place_id":"44,76490300342060","geometry":{"type":"Point","coordinates":[11.487575089,44.764903003]},"display_name":"Biblioteca comunale,from:IBC","category":"attractions","type":"Library","importance":0.0,"icon":"","visiting_time":0.0,"opening_hours":"ok","opening_days":"ok","rating":0,"photo_url":null,"description":null,"www":"http://dati.emilia-romagna.it/id/ibc/condition/IT-FE0048_orari"},{"place_id":"44,79402624080840","geometry":{"type":"Point","coordinates":[11.797126623,44.794026241]},"display_name":"Biblioteca comunale,from:IBC","category":"attractions","type":"Library","importance":0.0,"icon":"","visiting_time":0.0,"opening_hours":"ok","opening_days":"ok","rating":0,"photo_url":null,"description":null,"www":"http://dati.emilia-romagna.it/id/ibc/condition/IT-FE0041_orari"},{"place_id":"44,83178762627750","geometry":{"type":"Point","coordinates":[11.621624576,44.831787626]},"display_name":"Archivio storico comunale - Biblioteca,from:IBC","category":"attractions","type":"Library","importance":0.0,"icon":"","visiting_time":0.0,"opening_hours":"ok","opening_days":"ok","rating":0,"photo_url":null,"description":null,"www":"http://dati.emilia-romagna.it/id/ibc/condition/IT-FE0164_orari"},{"place_id":"44,69591994960850","geometry":{"type":"Point","coordinates":[11.807748567,44.69591995]},"display_name":"Biblioteca comunale,from:IBC","category":"attractions","type":"Library","importance":0.0,"icon":"","visiting_time":0.0,"opening_hours":"ok","opening_days":"ok","rating":0,"photo_url":null,"description":null,"www":"http://www.bibliotecaportomaggiore.com"},{"place_id":"44,8385752","geometry":{"type":"Point","coordinates":[11.6219527,44.8385752]},"display_name":"Videoteca - Biblioteca Vigor,from:IBC","category":"attractions","type":"Library","importance":0.0,"icon":"","visiting_time":0.0,"opening_hours":"ok","opening_days":"ok","rating":0,"photo_url":null,"description":null,"www":"http://servizi.comune.fe.it/index.phtml?id=2270"},{"place_id":"44,83823061593940","geometry":{"type":"Point","coordinates":[11.622417714,44.838230616]},"display_name":"Biblioteca del Museo Civico di Storia Naturale,from:IBC","category":"attractions","type":"Library","importance":0.0,"icon":"","visiting_time":0.0,"opening_hours":"ok","opening_days":"ok","rating":0,"photo_url":null,"description":null,"www":"http://storianaturale.comune.fe.it/index.phtml?id=134"},{"place_id":"44,89565709593630","geometry":{"type":"Point","coordinates":[11.827419322,44.895657096]},"display_name":"Biblioteca comunale,from:IBC","category":"attractions","type":"Library","importance":0.0,"icon":"","visiting_time":0.0,"opening_hours":"ok","opening_days":"ok","rating":0,"photo_url":null,"description":null,"www":"http://www.bibliotecacomunaledicopparo.it"},{"place_id":"44,82517672593740","geometry":{"type":"Point","coordinates":[11.600172332,44.825176726]},"display_name":"Biblioteca comunale Gianni Rodari,from:IBC","category":"attractions","type":"Library","importance":0.0,"icon":"","visiting_time":0.0,"opening_hours":"ok","opening_days":"ok","rating":0,"photo_url":null,"description":null,"www":"http://archibiblio.comune.fe.it/301/biblioteca-comunale-quotg-rodariquot"},{"place_id":"44,82167937116070","geometry":{"type":"Point","coordinates":[11.628605092,44.821679371]},"display_name":"Biblioteca comunale Dino Tebaldi San Giorgio,from:IBC","category":"attractions","type":"Library","importance":0.0,"icon":"","visiting_time":0.0,"opening_hours":"ok","opening_days":"ok","rating":0,"photo_url":null,"description":null,"www":"http://archibiblio.comune.fe.it/303/biblioteca-comunale-dino-tebaldi-san-giorgio"},{"place_id":"44,84206626969390","geometry":{"type":"Point","coordinates":[11.624956739,44.84206627]},"display_name":"Biblioteca delle Gallerie d'Arte Moderna e Contemporanea,from:IBC","category":"attractions","type":"Library","importance":0.0,"icon":"","visiting_time":0.0,"opening_hours":"ok","opening_days":"ok","rating":0,"photo_url":null,"description":null,"www":"http://www.artecultura.fe.it/index.phtml?id=340"},{"place_id":"44,71922760679530","geometry":{"type":"Point","coordinates":[11.531983869,44.719227607]},"display_name":"Biblioteca comunale,from:IBC","category":"attractions","type":"Library","importance":0.0,"icon":"","visiting_time":0.0,"opening_hours":"ok","opening_days":"ok","rating":0,"photo_url":null,"description":null,"www":"http://www.comune.malalbergo.bo.it/vivere/biblioteca.aspx?ID=4"},{"place_id":"44,71922760679530","geometry":{"type":"Point","coordinates":[11.531983869,44.719227607]},"display_name":"Biblioteca comunale,from:IBC","category":"attractions","type":"Library","importance":0.0,"icon":"","visiting_time":0.0,"opening_hours":"ok","opening_days":"ok","rating":0,"photo_url":null,"description":null,"www":"http://www.bibliotecheassociate.it/BiblioSchede/BA-malalbergo-fr.html"},{"place_id":"44,83796353243430","geometry":{"type":"Point","coordinates":[11.627814686,44.837963532]},"display_name":"Biblioteca dell'Associazione Istituto di Storia contemporanea,from:IBC","category":"attractions","type":"Library","importance":0.0,"icon":"","visiting_time":0.0,"opening_hours":"ok","opening_days":"ok","rating":0,"photo_url":null,"description":null,"www":"http://www.isco-ferrara.com/"},{"place_id":"44,83200767996400","geometry":{"type":"Point","coordinates":[11.628934321,44.83200768]},"display_name":"Biblioteca d'arte e archeologia dei Musei civici d'arte antica,from:IBC","category":"attractions","type":"Library","importance":0.0,"icon":"","visiting_time":0.0,"opening_hours":"ok","opening_days":"ok","rating":0,"photo_url":null,"description":null,"www":"http://www.artecultura.fe.it"},{"place_id":"44,83178762627750","geometry":{"type":"Point","coordinates":[11.621624576,44.831787626]},"display_name":"Biblioethnica,from:IBC","category":"attractions","type":"Library","importance":0.0,"icon":"","visiting_time":0.0,"opening_hours":"ok","opening_days":"ok","rating":0,"photo_url":null,"description":null,"www":"http://siafe.comune.fe.it/index.phtml?id=234"},{"place_id":"44,84229135577530","geometry":{"type":"Point","coordinates":[11.858968023,44.842291356]},"display_name":"Biblioteca comunale,from:IBC","category":"attractions","type":"Library","importance":0.0,"icon":"","visiting_time":0.0,"opening_hours":"ok","opening_days":"ok","rating":0,"photo_url":null,"description":null,"www":"http://dati.emilia-romagna.it/id/ibc/condition/IT-FE0037_orari"},{"place_id":"44,83545879623830","geometry":{"type":"Point","coordinates":[11.624554145,44.835458796]},"display_name":"Biblioteca dell'Archivio storico dell'U.D.I.,from:IBC","category":"attractions","type":"Library","importance":0.0,"icon":"","visiting_time":0.0,"opening_hours":"ok","opening_days":"ok","rating":0,"photo_url":null,"description":null,"www":"http://www.udiferrara.it/home/archivio-storico/biblioteca"},{"place_id":"44,83200767996400","geometry":{"type":"Point","coordinates":[11.628934321,44.83200768]},"display_name":"Musei Civici di Arte Antica - Palazzo Bonacossi,from:IBC","category":"attractions","type":"Museum","importance":0.0,"icon":"","visiting_time":0.0,"opening_hours":"ok","opening_days":"ok","rating":0,"photo_url":null,"description":null,"www":"http://dati.emilia-romagna.it/id/ibc/condition/IT-ER-FE053"},{"place_id":"44,90022477196340","geometry":{"type":"Point","coordinates":[11.832835077,44.900224772]},"display_name":"Museo delle Tradizioni e della Cultura Materiale del Copparese La Tratta,from:IBC","category":"attractions","type":"Museum","importance":0.0,"icon":"","visiting_time":0.0,"opening_hours":"ok","opening_days":"ok","rating":0,"photo_url":null,"description":null,"www":"http://www.comune.copparo.fe.it/nqcontent.cfm?a_id=1"},{"place_id":"44,75279662297470","geometry":{"type":"Point","coordinates":[11.755924037,44.752796623]},"display_name":"Museo Civico di Belriguardo,from:IBC","category":"attractions","type":"Museum","importance":0.0,"icon":"","visiting_time":0.0,"opening_hours":"ok","opening_days":"ok","rating":0,"photo_url":null,"description":null,"www":"http://www.voghieraonline.it/199/museo-civico-di-belriguardo"},{"place_id":"44,83823061593940","geometry":{"type":"Point","coordinates":[11.622417714,44.838230616]},"display_name":"Museo Civico di Storia Naturale,from:IBC","category":"attractions","type":"Museum","importance":0.0,"icon":"","visiting_time":0.0,"opening_hours":"ok","opening_days":"ok","rating":0,"photo_url":null,"description":null,"www":"http://www.comune.fe.it/storianaturale"},{"place_id":"44,88504561487650","geometry":{"type":"Point","coordinates":[11.508706329,44.885045615]},"display_name":"Esposizione del Progresso Agricolo E. Cavallari,from:IBC","category":"attractions","type":"Museum","importance":0.0,"icon":"","visiting_time":0.0,"opening_hours":"ok","opening_days":"ok","rating":0,"photo_url":null,"description":null,"www":"http://dati.emilia-romagna.it/id/ibc/condition/IT-ER-FE014"},{"place_id":"44,83320380204980","geometry":{"type":"Point","coordinates":[11.629733026,44.833203802]},"display_name":"Musei Civici di Arte Antica - Palazzina Marfisa,from:IBC","category":"attractions","type":"Museum","importance":0.0,"icon":"","visiting_time":0.0,"opening_hours":"ok","opening_days":"ok","rating":0,"photo_url":null,"description":null,"www":"http://dati.emilia-romagna.it/id/ibc/condition/IT-ER-FE021"},{"place_id":"44,76656195532630","geometry":{"type":"Point","coordinates":[11.750685405,44.766561955]},"display_name":"Museo del Modellismo Storico,from:IBC","category":"attractions","type":"Museum","importance":0.0,"icon":"","visiting_time":0.0,"opening_hours":"ok","opening_days":"ok","rating":0,"photo_url":null,"description":null,"www":"http://www.museomodellismostorico.it"},{"place_id":"44,84202710736870","geometry":{"type":"Point","coordinates":[11.62151075,44.842027107]},"display_name":"MuseoPaleontologico e Preistorico Piero Leonardi,from:IBC","category":"attractions","type":"Museum","importance":0.0,"icon":"","visiting_time":0.0,"opening_hours":"ok","opening_days":"ok","rating":0,"photo_url":null,"description":null,"www":"http://www.unife.it/dipartimento/biologia-evoluzione/strutture/sezioni/sezioni-di-palazzo-di-bagno/museo-paleontologico-e-preistorico-piero-leonardi"},{"place_id":"44,84180210131590","geometry":{"type":"Point","coordinates":[11.620854232,44.841802101]},"display_name":"Museo del Risorgimento e della Resistenza,from:IBC","category":"attractions","type":"Museum","importance":0.0,"icon":"","visiting_time":0.0,"opening_hours":"ok","opening_days":"ok","rating":0,"photo_url":null,"description":null,"www":"https://museorisorgimentoresistenzaferrara.wordpress.com/"},{"place_id":"44,71860551280580","geometry":{"type":"Point","coordinates":[11.58731218,44.718605513]},"display_name":"Centro di Documentazione del Mondo Agricolo Ferrarese,from:IBC","category":"attractions","type":"Museum","importance":0.0,"icon":"","visiting_time":0.0,"opening_hours":"ok","opening_days":"ok","rating":0,"photo_url":null,"description":null,"www":"http://www.mondoagricoloferrarese.it/"},{"place_id":"44,83340342524750","geometry":{"type":"Point","coordinates":[11.618662158,44.833403425]},"display_name":"Museo della Cattedrale,from:IBC","category":"attractions","type":"Museum","importance":0.0,"icon":"","visiting_time":0.0,"opening_hours":"ok","opening_days":"ok","rating":0,"photo_url":null,"description":null,"www":"http://www.comune.fe.it/museocattedrale"},{"place_id":"44,84228365988500","geometry":{"type":"Point","coordinates":[11.616363497,44.84228366]},"display_name":"Musei Civici di Arte Antica - Casa dell'Ariosto,from:IBC","category":"attractions","type":"Museum","importance":0.0,"icon":"","visiting_time":0.0,"opening_hours":"ok","opening_days":"ok","rating":0,"photo_url":null,"description":null,"www":"http://www.artecultura.fe.it/index.phtml"},{"place_id":"44,83694523072770","geometry":{"type":"Point","coordinates":[11.632076398,44.836945231]},"display_name":"Museo Anatomico G.Tumiati,from:IBC","category":"attractions","type":"Museum","importance":0.0,"icon":"","visiting_time":0.0,"opening_hours":"ok","opening_days":"ok","rating":0,"photo_url":null,"description":null,"www":"http://dati.emilia-romagna.it/id/ibc/condition/IT-ER-FE035"},{"place_id":"44,84206626969390","geometry":{"type":"Point","coordinates":[11.624956739,44.84206627]},"display_name":"Museo Giovanni Boldini e Museo dell'Ottocento,from:IBC","category":"attractions","type":"Museum","importance":0.0,"icon":"","visiting_time":0.0,"opening_hours":"ok","opening_days":"ok","rating":0,"photo_url":null,"description":null,"www":"http://dati.emilia-romagna.it/id/ibc/condition/IT-ER-FE045"},{"place_id":"44,84206626969390","geometry":{"type":"Point","coordinates":[11.624956739,44.84206627]},"display_name":"Museo d'Arte Moderna e Contemporanea Filippo de Pisis,from:IBC","category":"attractions","type":"Museum","importance":0.0,"icon":"","visiting_time":0.0,"opening_hours":"ok","opening_days":"ok","rating":0,"photo_url":null,"description":null,"www":"http://dati.emilia-romagna.it/id/ibc/condition/IT-ER-FE046"},{"place_id":"44,83047924754710","geometry":{"type":"Point","coordinates":[11.628970042,44.830479248]},"display_name":"Musei Civici di Arte Antica - Palazzo Schifanoia,from:IBC","category":"attractions","type":"Museum","importance":0.0,"icon":"","visiting_time":0.0,"opening_hours":"ok","opening_days":"ok","rating":0,"photo_url":null,"description":null,"www":"http://dati.emilia-romagna.it/id/ibc/condition/IT-ER-FE020"},{"place_id":"44,84219263885700","geometry":{"type":"Point","coordinates":[11.621839228,44.842192639]},"display_name":"Orto Botanico,from:IBC","category":"attractions","type":"Museum","importance":0.0,"icon":"","visiting_time":0.0,"opening_hours":"ok","opening_days":"ok","rating":0,"photo_url":null,"description":null,"www":"http://www.unife.it/dipartimento/biologia-evoluzione/strutture/orto-botanico"},{"place_id":"44,74119923249940","geometry":{"type":"Point","coordinates":[11.815607171,44.741199232]},"display_name":"Mostra permanente Mors inmatura. Il sepolcreto dei Fadieni,from:IBC","category":"attractions","type":"Museum","importance":0.0,"icon":"","visiting_time":0.0,"opening_hours":"ok","opening_days":"ok","rating":0,"photo_url":null,"description":null,"www":"http://dati.emilia-romagna.it/id/ibc/condition/IT-ER-FE055"},{"place_id":"44,83009965310790","geometry":{"type":"Point","coordinates":[11.629852354,44.830099653]},"display_name":"Musei Civici di Arte Antica - Lapidario Civico,from:IBC","category":"attractions","type":"Museum","importance":0.0,"icon":"","visiting_time":0.0,"opening_hours":"ok","opening_days":"ok","rating":0,"photo_url":null,"description":null,"www":"http://www.artecultura.fe.it/index.phtml"},{"place_id":"44,83365100087210","geometry":{"type":"Point","coordinates":[11.622300475,44.833651001]},"display_name":"Museo Ebraico,from:IBC","category":"attractions","type":"Museum","importance":0.0,"icon":"","visiting_time":0.0,"opening_hours":"ok","opening_days":"ok","rating":0,"photo_url":null,"description":null,"www":"http://www.comune.fe.it/museoebraico/"},{"place_id":"Ciliegio giapponese Ferrara Via Gambone, 17 24","geometry":{"type":"Point","coordinates":[11.62416737,44.82706568]},"display_name":"Ciliegio giapponese Ferrara Via Gambone, 17,from:IBC","category":"tree","type":"tree","importance":0.0,"icon":"","visiting_time":0.0,"opening_hours":"ok","opening_days":"ok","rating":0,"photo_url":"http://online.ibc.regione.emilia-romagna.it/mtrees/image/222.jpg","description":null,"www":null},{"place_id":"Farnia Ferrara Quartesana Via Ducentola, 11 280","geometry":{"type":"Point","coordinates":[11.73799023,44.80521655]},"display_name":"Farnia Ferrara Quartesana Via Ducentola, 11,from:IBC","category":"tree","type":"tree","importance":0.0,"icon":"","visiting_time":0.0,"opening_hours":"ok","opening_days":"ok","rating":0,"photo_url":"http://online.ibc.regione.emilia-romagna.it/mtrees/image/231.jpg","description":null,"www":null},{"place_id":"Olmo campestre Viconovo Poss. Bosco 356","geometry":{"type":"Point","coordinates":[11.75930296,44.85805749]},"display_name":"Olmo campestre Viconovo Poss. Bosco,from:IBC","category":"tree","type":"tree","importance":0.0,"icon":"","visiting_time":0.0,"opening_hours":"ok","opening_days":"ok","rating":0,"photo_url":"http://online.ibc.regione.emilia-romagna.it/mtrees/image/217.jpg","description":null,"www":null},{"place_id":"Un Frassino maggiore Poggio Renatico Via Lambertini, 74 477","geometry":{"type":"Point","coordinates":[11.47611764,44.76771284]},"display_name":"Un Frassino maggiore Poggio Renatico Via Lambertini, 74,from:IBC","category":"tree","type":"tree","importance":0.0,"icon":"","visiting_time":0.0,"opening_hours":"ok","opening_days":"ok","rating":0,"photo_url":"http://online.ibc.regione.emilia-romagna.it/mtrees/image/194.jpg","description":null,"www":null},{"place_id":"Una Farnia Poggio Renatico Via Molinazzo 489","geometry":{"type":"Point","coordinates":[11.4865129,44.77731691]},"display_name":"Una Farnia Poggio Renatico Via Molinazzo,from:IBC","category":"tree","type":"tree","importance":0.0,"icon":"","visiting_time":0.0,"opening_hours":"ok","opening_days":"ok","rating":0,"photo_url":"http://online.ibc.regione.emilia-romagna.it/mtrees/image/188.jpg","description":null,"www":null},{"place_id":"Una Farnia Poggio Renatico Via Chiesa Vecchia, 45 643","geometry":{"type":"Point","coordinates":[11.4731965,44.76174485]},"display_name":"Una Farnia Poggio Renatico Via Chiesa Vecchia, 45,from:IBC","category":"tree","type":"tree","importance":0.0,"icon":"","visiting_time":0.0,"opening_hours":"ok","opening_days":"ok","rating":0,"photo_url":"http://online.ibc.regione.emilia-romagna.it/mtrees/image/191.jpg","description":null,"www":null},{"place_id":"Un Pioppo bianco Ferrara Francolino (area golenale fiume Po) 698","geometry":{"type":"Point","coordinates":[11.64538894,44.89463002]},"display_name":"Un Pioppo bianco Ferrara Francolino (area golenale fiume Po),from:IBC","category":"tree","type":"tree","importance":0.0,"icon":"","visiting_time":0.0,"opening_hours":"ok","opening_days":"ok","rating":0,"photo_url":"http://online.ibc.regione.emilia-romagna.it/mtrees/image/200.jpg","description":null,"www":null},{"place_id":"Un Platano orientale Ferrara Porotto Via Catena, 63 1056","geometry":{"type":"Point","coordinates":[11.54292763,44.80914639]},"display_name":"Un Platano orientale Ferrara Porotto Via Catena, 63,from:IBC","category":"tree","type":"tree","importance":0.0,"icon":"","visiting_time":0.0,"opening_hours":"ok","opening_days":"ok","rating":0,"photo_url":"http://online.ibc.regione.emilia-romagna.it/mtrees/image/203.jpg","description":null,"www":null}]