[{"place_id":"44,51094212255200","geometry":{"type":"Point","coordinates":[11.46971728,44.510942123]},"display_name":"Comune di Castenaso,from:IBC","category":"attractions","type":"HolderOfArchives","importance":0.0,"icon":"","visiting_time":0.0,"opening_hours":"ok","opening_days":"ok","rating":0,"photo_url":null,"description":null,"www":"http://www.comune.castenaso.bo.it/"},{"place_id":"44,51094212255200","geometry":{"type":"Point","coordinates":[11.46971728,44.510942123]},"display_name":"Comune di Castenaso,from:IBC","category":"attractions","type":"HolderOfArchives","importance":0.0,"icon":"","visiting_time":0.0,"opening_hours":"ok","opening_days":"ok","rating":0,"photo_url":null,"description":null,"www":"http://www.comune.castenaso.bo.it/aree-tematiche/cultura/archivio-storico"},{"place_id":"44,621394","geometry":{"type":"Point","coordinates":[11.4858813,44.621394]},"display_name":"Comune di Minerbio,from:IBC","category":"attractions","type":"HolderOfArchives","importance":0.0,"icon":"","visiting_time":0.0,"opening_hours":"ok","opening_days":"ok","rating":0,"photo_url":null,"description":null,"www":"http://www.comune.minerbio.bo.it"},{"place_id":"44,53734924217830","geometry":{"type":"Point","coordinates":[11.53792262,44.537349242]},"display_name":"Comune di Budrio,from:IBC","category":"attractions","type":"HolderOfArchives","importance":0.0,"icon":"","visiting_time":0.0,"opening_hours":"ok","opening_days":"ok","rating":0,"photo_url":null,"description":null,"www":"http://www.comune.budrio.bo.it"},{"place_id":"44,61924231657970","geometry":{"type":"Point","coordinates":[11.49105623,44.619242317]},"display_name":"Biblioteca comunale Prometeo,from:IBC","category":"attractions","type":"Library","importance":0.0,"icon":"","visiting_time":0.0,"opening_hours":"ok","opening_days":"ok","rating":0,"photo_url":null,"description":null,"www":"http://www.bibliotecheassociate.it/BiblioSchede/BA-minerbio-fr.html"},{"place_id":"44,61924231657970","geometry":{"type":"Point","coordinates":[11.49105623,44.619242317]},"display_name":"Biblioteca comunale Prometeo,from:IBC","category":"attractions","type":"Library","importance":0.0,"icon":"","visiting_time":0.0,"opening_hours":"ok","opening_days":"ok","rating":0,"photo_url":null,"description":null,"www":"http://www.comune.minerbio.bo.it/uffici_servizi/-categoria7/pagina44.html"},{"place_id":"44,51122726597500","geometry":{"type":"Point","coordinates":[11.469910876,44.511227266]},"display_name":"Biblioteca comunale Casa Bondi,from:IBC","category":"attractions","type":"Library","importance":0.0,"icon":"","visiting_time":0.0,"opening_hours":"ok","opening_days":"ok","rating":0,"photo_url":null,"description":null,"www":"http://www.comune.castenaso.bo.it/aree-tematiche/cultura/biblioteca"},{"place_id":"44,64443545951390","geometry":{"type":"Point","coordinates":[11.53248168,44.64443546]},"display_name":"Biblioteca comunale Antonio Gramsci,from:IBC","category":"attractions","type":"Library","importance":0.0,"icon":"","visiting_time":0.0,"opening_hours":"ok","opening_days":"ok","rating":0,"photo_url":null,"description":null,"www":"http://www.bibliotecheassociate.it/BiblioSchede/BA-baricella-fr.html"},{"place_id":"44,64443545951390","geometry":{"type":"Point","coordinates":[11.53248168,44.64443546]},"display_name":"Biblioteca comunale Antonio Gramsci,from:IBC","category":"attractions","type":"Library","importance":0.0,"icon":"","visiting_time":0.0,"opening_hours":"ok","opening_days":"ok","rating":0,"photo_url":null,"description":null,"www":"http://www.comune.baricella.bo.it/biblioteca/index.htm"},{"place_id":"44,58870498223120","geometry":{"type":"Point","coordinates":[11.565062774,44.588704982]},"display_name":"Sala di lettura di Mezzolara,from:IBC","category":"attractions","type":"Library","importance":0.0,"icon":"","visiting_time":0.0,"opening_hours":"ok","opening_days":"ok","rating":0,"photo_url":null,"description":null,"www":"http://www.comune.budrio.bo.it"},{"place_id":"44,53734924217830","geometry":{"type":"Point","coordinates":[11.53792262,44.537349242]},"display_name":"Biblioteca comunale Augusto Majani-Nasica,from:IBC","category":"attractions","type":"Library","importance":0.0,"icon":"","visiting_time":0.0,"opening_hours":"ok","opening_days":"ok","rating":0,"photo_url":null,"description":null,"www":"http://www.comune.budrio.bo.it/ita/docs/cultura/homebiblio.htm"},{"place_id":"44,53788033827120","geometry":{"type":"Point","coordinates":[11.536479507,44.537880338]},"display_name":"Museo dei Burattini,from:IBC","category":"attractions","type":"Museum","importance":0.0,"icon":"","visiting_time":0.0,"opening_hours":"ok","opening_days":"ok","rating":0,"photo_url":null,"description":null,"www":"http://www.comune.budrio.bo.it"},{"place_id":"44,53763739459800","geometry":{"type":"Point","coordinates":[11.537087596,44.537637395]},"display_name":"Museo dell'Ocarina e degli Strumenti Musicali in Terracotta,from:IBC","category":"attractions","type":"Museum","importance":0.0,"icon":"","visiting_time":0.0,"opening_hours":"ok","opening_days":"ok","rating":0,"photo_url":null,"description":null,"www":"http://www.comune.budrio.bo.it"},{"place_id":"44,53779785843070","geometry":{"type":"Point","coordinates":[11.536709158,44.537797858]},"display_name":"Pinacoteca Civica Domenico Inzaghi,from:IBC","category":"attractions","type":"Museum","importance":0.0,"icon":"","visiting_time":0.0,"opening_hours":"ok","opening_days":"ok","rating":0,"photo_url":null,"description":null,"www":"http://www.comune.budrio.bo.it"},{"place_id":"44,53779785843070","geometry":{"type":"Point","coordinates":[11.536709158,44.537797858]},"display_name":"Museo Civico Archeologico e Paleoambientale E. Silvestri,from:IBC","category":"attractions","type":"Museum","importance":0.0,"icon":"","visiting_time":0.0,"opening_hours":"ok","opening_days":"ok","rating":0,"photo_url":null,"description":null,"www":"http://www.comune.budrio.bo.it"},{"place_id":"Un Ontano nero Budrio Mezzolara (proseguimento Via Viazza S.) 5","geometry":{"type":"Point","coordinates":[11.55964618,44.5770133]},"display_name":"Un Ontano nero Budrio Mezzolara (proseguimento Via Viazza S.),from:IBC","category":"tree","type":"tree","importance":0.0,"icon":"","visiting_time":0.0,"opening_hours":"ok","opening_days":"ok","rating":0,"photo_url":"http://online.ibc.regione.emilia-romagna.it/mtrees/image/39.jpg","description":null,"www":null},{"place_id":"Una Farnia Budrio Bagnarola Via Bagnaresa, 10 22","geometry":{"type":"Point","coordinates":[11.49303168,44.53608779]},"display_name":"Una Farnia Budrio Bagnarola Via Bagnaresa, 10,from:IBC","category":"tree","type":"tree","importance":0.0,"icon":"","visiting_time":0.0,"opening_hours":"ok","opening_days":"ok","rating":0,"photo_url":"http://online.ibc.regione.emilia-romagna.it/mtrees/image/34.jpg","description":null,"www":null},{"place_id":"Un Olmo Budrio Vigorso Via Taruffo, 7 85","geometry":{"type":"Point","coordinates":[11.51249118,44.54079221]},"display_name":"Un Olmo Budrio Vigorso Via Taruffo, 7,from:IBC","category":"tree","type":"tree","importance":0.0,"icon":"","visiting_time":0.0,"opening_hours":"ok","opening_days":"ok","rating":0,"photo_url":"http://online.ibc.regione.emilia-romagna.it/mtrees/image/42.jpg","description":null,"www":null},{"place_id":"Un Pioppo nero Budrio Armarolo Via San Donato 181","geometry":{"type":"Point","coordinates":[11.47173186,44.5974966]},"display_name":"Un Pioppo nero Budrio Armarolo Via San Donato,from:IBC","category":"tree","type":"tree","importance":0.0,"icon":"","visiting_time":0.0,"opening_hours":"ok","opening_days":"ok","rating":0,"photo_url":"http://online.ibc.regione.emilia-romagna.it/mtrees/image/33.jpg","description":null,"www":null},{"place_id":"Una Farnia Budrio Maddalena di Cazzano Via Armiggia, 57 247","geometry":{"type":"Point","coordinates":[11.50135031,44.57218488]},"display_name":"Una Farnia Budrio Maddalena di Cazzano Via Armiggia, 57,from:IBC","category":"tree","type":"tree","importance":0.0,"icon":"","visiting_time":0.0,"opening_hours":"ok","opening_days":"ok","rating":0,"photo_url":"http://online.ibc.regione.emilia-romagna.it/mtrees/image/7192.jpg","description":null,"www":null},{"place_id":"Un Pioppo nero Minerbio S. Martino in Soverzano Via S. Donato, 58 289","geometry":{"type":"Point","coordinates":[11.52434219,44.61219747]},"display_name":"Un Pioppo nero Minerbio S. Martino in Soverzano Via S. Donato, 58,from:IBC","category":"tree","type":"tree","importance":0.0,"icon":"","visiting_time":0.0,"opening_hours":"ok","opening_days":"ok","rating":0,"photo_url":"http://online.ibc.regione.emilia-romagna.it/mtrees/image/101.jpg","description":null,"www":null},{"place_id":"Due Farnie Budrio Armarolo Via Armarolo, 34 342","geometry":{"type":"Point","coordinates":[11.46383171,44.58974553]},"display_name":"Due Farnie Budrio Armarolo Via Armarolo, 34,from:IBC","category":"tree","type":"tree","importance":0.0,"icon":"","visiting_time":0.0,"opening_hours":"ok","opening_days":"ok","rating":0,"photo_url":"http://online.ibc.regione.emilia-romagna.it/mtrees/image/6704.12.06.pdf","description":null,"www":null},{"place_id":"Un Ippocastano Budrio Via Viazza in destra, 3 387","geometry":{"type":"Point","coordinates":[11.53735978,44.54041286]},"display_name":"Un Ippocastano Budrio Via Viazza in destra, 3,from:IBC","category":"tree","type":"tree","importance":0.0,"icon":"","visiting_time":0.0,"opening_hours":"ok","opening_days":"ok","rating":0,"photo_url":"http://online.ibc.regione.emilia-romagna.it/mtrees/image/36.jpg","description":null,"www":null},{"place_id":"Una Farnia Minerbio S. Martino in Soverzano Via Cantalupo 670","geometry":{"type":"Point","coordinates":[11.52179689,44.61046233]},"display_name":"Una Farnia Minerbio S. Martino in Soverzano Via Cantalupo,from:IBC","category":"tree","type":"tree","importance":0.0,"icon":"","visiting_time":0.0,"opening_hours":"ok","opening_days":"ok","rating":0,"photo_url":"http://online.ibc.regione.emilia-romagna.it/mtrees/image/6662.12.06.pdf","description":null,"www":null},{"place_id":"Un Platano Budrio Vigorso Via 36 Martiri, 3 918","geometry":{"type":"Point","coordinates":[11.50093925,44.52970313]},"display_name":"Un Platano Budrio Vigorso Via 36 Martiri, 3,from:IBC","category":"tree","type":"tree","importance":0.0,"icon":"","visiting_time":0.0,"opening_hours":"ok","opening_days":"ok","rating":0,"photo_url":"http://online.ibc.regione.emilia-romagna.it/mtrees/image/2608.jpg","description":null,"www":null},{"place_id":"Un Platano Budrio Cento Via Zenzalino Sud, 78 1046","geometry":{"type":"Point","coordinates":[11.51861925,44.51653091]},"display_name":"Un Platano Budrio Cento Via Zenzalino Sud, 78,from:IBC","category":"tree","type":"tree","importance":0.0,"icon":"","visiting_time":0.0,"opening_hours":"ok","opening_days":"ok","rating":0,"photo_url":"http://online.ibc.regione.emilia-romagna.it/mtrees/image/37.jpg","description":null,"www":null}]