[{"place_id":"44,1144247","geometry":{"type":"Point","coordinates":[12.3643572,44.1144247]},"display_name":"Comune di Gatteo,from:IBC","category":"attractions","type":"HolderOfArchives","importance":0.0,"icon":"","visiting_time":0.0,"opening_hours":"ok","opening_days":"ok","rating":0,"photo_url":null,"description":null,"www":"http://www.comune.gatteo.fo.it"},{"place_id":"44,09260397113020","geometry":{"type":"Point","coordinates":[12.39647434,44.092603971]},"display_name":"Istituzione Cultura Savignano del Comune di Savignano sul Rubicone,from:IBC","category":"attractions","type":"HolderOfArchives","importance":0.0,"icon":"","visiting_time":0.0,"opening_hours":"ok","opening_days":"ok","rating":0,"photo_url":null,"description":null,"www":"http://www.xsavignano.it"},{"place_id":"44,09260397113020","geometry":{"type":"Point","coordinates":[12.39647434,44.092603971]},"display_name":"Istituzione Cultura Savignano del Comune di Savignano sul Rubicone,from:IBC","category":"attractions","type":"HolderOfArchives","importance":0.0,"icon":"","visiting_time":0.0,"opening_hours":"ok","opening_days":"ok","rating":0,"photo_url":null,"description":null,"www":"http://www.savignanosulrubicone.it"},{"place_id":"44,09260397113020","geometry":{"type":"Point","coordinates":[12.39647434,44.092603971]},"display_name":"Istituzione Cultura Savignano del Comune di Savignano sul Rubicone,from:IBC","category":"attractions","type":"HolderOfArchives","importance":0.0,"icon":"","visiting_time":0.0,"opening_hours":"ok","opening_days":"ok","rating":0,"photo_url":null,"description":null,"www":"http://www.comune.savignano-sul-rubicone.fc.it"},{"place_id":"44,10244690057070","geometry":{"type":"Point","coordinates":[12.414304355,44.102446901]},"display_name":"Comune di San Mauro Pascoli,from:IBC","category":"attractions","type":"HolderOfArchives","importance":0.0,"icon":"","visiting_time":0.0,"opening_hours":"ok","opening_days":"ok","rating":0,"photo_url":null,"description":null,"www":"http://www.comune.sanmauropascoli.fc.it"},{"place_id":"44,10860162650950","geometry":{"type":"Point","coordinates":[12.417815811,44.108601627]},"display_name":"Biblioteca comunale Giovanni Pascoli,from:IBC","category":"attractions","type":"Library","importance":0.0,"icon":"","visiting_time":0.0,"opening_hours":"ok","opening_days":"ok","rating":0,"photo_url":null,"description":null,"www":"http://dati.emilia-romagna.it/id/ibc/condition/IT-FC0061_orari"},{"place_id":"44,09260397113020","geometry":{"type":"Point","coordinates":[12.39647434,44.092603971]},"display_name":"Biblioteca comunale Palazzo Vendemini,from:IBC","category":"attractions","type":"Library","importance":0.0,"icon":"","visiting_time":0.0,"opening_hours":"ok","opening_days":"ok","rating":0,"photo_url":null,"description":null,"www":"http://www.comune.savignano-sul-rubicone.fo.it/servizi/menu/dinamica.aspx?ID=700"},{"place_id":"44,09260397113020","geometry":{"type":"Point","coordinates":[12.39647434,44.092603971]},"display_name":"Biblioteca dei Ragazzi,from:IBC","category":"attractions","type":"Library","importance":0.0,"icon":"","visiting_time":0.0,"opening_hours":"ok","opening_days":"ok","rating":0,"photo_url":null,"description":null,"www":"http://www.comune.savignano-sul-rubicone.fc.it/servizi/Procedimenti/ricerca_fase03.aspx?id=1568"},{"place_id":"44,10734749677400","geometry":{"type":"Point","coordinates":[12.385456482,44.107347497]},"display_name":"Biblioteca comunale Giuseppe Ceccarelli,from:IBC","category":"attractions","type":"Library","importance":0.0,"icon":"","visiting_time":0.0,"opening_hours":"ok","opening_days":"ok","rating":0,"photo_url":null,"description":null,"www":"http://dati.emilia-romagna.it/id/ibc/condition/IT-FC0029_orari"},{"place_id":"44,09661968626060","geometry":{"type":"Point","coordinates":[12.380077789,44.096619686]},"display_name":"Museo Archeologico del Compito Don Giorgio Franchini,from:IBC","category":"attractions","type":"Museum","importance":0.0,"icon":"","visiting_time":0.0,"opening_hours":"ok","opening_days":"ok","rating":0,"photo_url":null,"description":null,"www":"http://www.museodelcompito.com"},{"place_id":"44,15739065612970","geometry":{"type":"Point","coordinates":[12.374566978,44.157390656]},"display_name":"Casa Moretti,from:IBC","category":"attractions","type":"Museum","importance":0.0,"icon":"","visiting_time":0.0,"opening_hours":"ok","opening_days":"ok","rating":0,"photo_url":null,"description":null,"www":"http://www.casamoretti.it/"},{"place_id":"44,06413384968170","geometry":{"type":"Point","coordinates":[12.443775384,44.06413385]},"display_name":"Museo del Bottone,from:IBC","category":"attractions","type":"Museum","importance":0.0,"icon":"","visiting_time":0.0,"opening_hours":"ok","opening_days":"ok","rating":0,"photo_url":null,"description":null,"www":"http://bottone.art-italy.net/Museo"},{"place_id":"44,06437166611180","geometry":{"type":"Point","coordinates":[12.443492119,44.064371666]},"display_name":"MUSAS - Museo Storico Archeologico,from:IBC","category":"attractions","type":"Museum","importance":0.0,"icon":"","visiting_time":0.0,"opening_hours":"ok","opening_days":"ok","rating":0,"photo_url":null,"description":null,"www":"http://www.metweb.org/musas/"},{"place_id":"44,10562637960960","geometry":{"type":"Point","coordinates":[12.415369618,44.10562638]},"display_name":"Casa Pascoli,from:IBC","category":"attractions","type":"Museum","importance":0.0,"icon":"","visiting_time":0.0,"opening_hours":"ok","opening_days":"ok","rating":0,"photo_url":null,"description":null,"www":"http://www.casapascoli.it"},{"place_id":"44,06423775780680","geometry":{"type":"Point","coordinates":[12.443626608,44.064237758]},"display_name":"Museo Nel mondo di Tonino Guerra,from:IBC","category":"attractions","type":"Museum","importance":0.0,"icon":"","visiting_time":0.0,"opening_hours":"ok","opening_days":"ok","rating":0,"photo_url":null,"description":null,"www":"http://museotoninoguerra.com/"},{"place_id":"Un Tiglio nostrano Savignano sul Rubicone Via Leonardo da Vinci 143","geometry":{"type":"Point","coordinates":[12.39413431,44.094383]},"display_name":"Un Tiglio nostrano Savignano sul Rubicone Via Leonardo da Vinci,from:IBC","category":"tree","type":"tree","importance":0.0,"icon":"","visiting_time":0.0,"opening_hours":"ok","opening_days":"ok","rating":0,"photo_url":"http://online.ibc.regione.emilia-romagna.it/mtrees/image/353.jpg","description":null,"www":null}]