[{"place_id":"76140869","geometry":{"type":"Point","coordinates":[10.92551197,44.64632405]},"display_name":"Duomo Di Modena, Via Lanfranco, Quartiere Cittanova, Centro Storico, Modena, MO, EMR, 41121, Italia","category":"attractions","type":"attraction","importance":0.39263722,"icon":"http://nominatim.openstreetmap.org/images/mapicons/poi_point_of_interest.p.20.png","visiting_time":30.0,"opening_hours":null,"opening_days":null,"rating":0,"photo_url":null,"description":null,"www":null},{"place_id":"77741025","geometry":{"type":"Point","coordinates":[10.92590703,44.64637145]},"display_name":"Ghirlandina, Piazza Della Torre, Quartiere Cittanova, Centro Storico, Modena, MO, EMR, 41121, Italia","category":"attractions","type":"attraction","importance":0.36081675,"icon":"http://nominatim.openstreetmap.org/images/mapicons/poi_point_of_interest.p.20.png","visiting_time":30.0,"opening_hours":null,"opening_days":null,"rating":0,"photo_url":null,"description":null,"www":null},{"place_id":"179609176","geometry":{"type":"Point","coordinates":[10.929811372,44.6488084]},"display_name":"Palazzo Ducale, Piazzale Mario D'Aleo ed Emanuele Basile, Addizione Erculea, Centro Storico, Modena, MO, EMR, 41121, Italia","category":"attractions","type":"attraction","importance":0.1667999,"icon":"http://nominatim.openstreetmap.org/images/mapicons/poi_point_of_interest.p.20.png","visiting_time":30.0,"opening_hours":null,"opening_days":null,"rating":0,"photo_url":null,"description":null,"www":null},{"place_id":"158912227","geometry":{"type":"Point","coordinates":[10.9224641,44.6512476]},"display_name":"Via Mutina-Mantua, Quartiere Cittanova, Centro Storico, Modena, MO, EMR, 41121, Italia","category":"attractions","type":"attraction","importance":0.001,"icon":"http://nominatim.openstreetmap.org/images/mapicons/poi_point_of_interest.p.20.png","visiting_time":30.0,"opening_hours":null,"opening_days":null,"rating":0,"photo_url":null,"description":null,"www":null},{"place_id":"108105755","geometry":{"type":"Point","coordinates":[10.924412,44.64761025]},"display_name":"San Giovanni Battista, Piazza Giacomo Matteotti, Quartiere Cittanova, Centro Storico, Modena, MO, EMR, 41121, Italia","category":"attractions","type":"attraction","importance":0.001,"icon":"http://nominatim.openstreetmap.org/images/mapicons/poi_point_of_interest.p.20.png","visiting_time":30.0,"opening_hours":null,"opening_days":null,"rating":0,"photo_url":null,"description":null,"www":null},{"place_id":"56142350","geometry":{"type":"Point","coordinates":[10.9256628,44.6453684]},"display_name":"Fontana del Putto con I'oca, Piazza Venti Settembre, Quartiere Saliceto, Centro Storico, Modena, MO, EMR, 41121, Italia","category":"attractions","type":"attraction","importance":0.001,"icon":"http://nominatim.openstreetmap.org/images/mapicons/poi_point_of_interest.p.20.png","visiting_time":30.0,"opening_hours":null,"opening_days":null,"rating":0,"photo_url":null,"description":null,"www":null},{"place_id":"108488484","geometry":{"type":"Point","coordinates":[10.933583006,44.6496669]},"display_name":"Palazzina Vigarani, Viale Caduti in Guerra, Addizione Erculea, Centro Storico, Modena, MO, EMR, 41121, Italia","category":"attractions","type":"attraction","importance":0.001,"icon":"http://nominatim.openstreetmap.org/images/mapicons/poi_point_of_interest.p.20.png","visiting_time":30.0,"opening_hours":null,"opening_days":null,"rating":0,"photo_url":null,"description":null,"www":null},{"place_id":"29468665","geometry":{"type":"Point","coordinates":[10.9431569,44.6525016]},"display_name":"Ara dei Piloti Automobilistici, 21, Strada Santa Caterina, Torrenova, Crocetta-San Lazzaro-Modena Est, Modena, MO, EMR, 41122, Italia","category":"attractions","type":"attraction","importance":0.001,"icon":"http://nominatim.openstreetmap.org/images/mapicons/poi_point_of_interest.p.20.png","visiting_time":30.0,"opening_hours":null,"opening_days":null,"rating":0,"photo_url":null,"description":null,"www":null},{"place_id":"107955207","geometry":{"type":"Point","coordinates":[10.925550628,44.64479085]},"display_name":"Mercato Coperto Albinelli, 13, Via Luigi Albinelli, Quartiere Baggiovara, Centro Storico, Modena, MO, EMR, 41121, Italia","category":"attractions","type":"attraction","importance":0.001,"icon":"http://nominatim.openstreetmap.org/images/mapicons/poi_point_of_interest.p.20.png","visiting_time":30.0,"opening_hours":null,"opening_days":null,"rating":0,"photo_url":null,"description":null,"www":null},{"place_id":"167505424","geometry":{"type":"Point","coordinates":[10.799200138,44.6888124]},"display_name":"Via Sant'Agata, Calvetro, Rubiera, Tresinaro - Secchia, RE, EMR, 41123, Italia","category":"attractions","type":"attraction","importance":0.001,"icon":"http://nominatim.openstreetmap.org/images/mapicons/poi_point_of_interest.p.20.png","visiting_time":30.0,"opening_hours":null,"opening_days":null,"rating":0,"photo_url":null,"description":null,"www":null},{"place_id":"80386208","geometry":{"type":"Point","coordinates":[10.909553249,44.57752055]},"display_name":"Parco Archeologico e Museo all'Aperto delle Terramare di Montale, Via Piave, Ca' Bortolani, Castelnuovo Rangone, Unione di comuni Terre di Castelli, MO, EMR, 41125, Italia","category":"attractions","type":"attraction","importance":0.001,"icon":"http://nominatim.openstreetmap.org/images/mapicons/poi_point_of_interest.p.20.png","visiting_time":30.0,"opening_hours":null,"opening_days":null,"rating":0,"photo_url":null,"description":null,"www":null},{"place_id":"14192265","geometry":{"type":"Point","coordinates":[10.7904564,44.6129844]},"display_name":"Percorso Natura Secchia - Destra Po, Sassuolo, Unione dei comuni del Distretto Ceramico, MO, EMR, 41123, Italia","category":"attractions","type":"viewpoint","importance":0.001,"icon":"http://nominatim.openstreetmap.org/images/mapicons/tourist_view_point.p.20.png","visiting_time":10.0,"opening_hours":null,"opening_days":null,"rating":0,"photo_url":null,"description":null,"www":null},{"place_id":"55578741","geometry":{"type":"Point","coordinates":[10.9118926,44.6520874]},"display_name":"Monumento a Enzo Ferrari, Passeggiata Tazio Nuvolari, San Faustino-Madonnina-Quattroville, Modena, MO, EMR, 41121, Italia","category":"attractions","type":"artwork","importance":0.001,"icon":"http://nominatim.openstreetmap.org/images/mapicons/tourist_art_gallery2.p.20.png","visiting_time":5.0,"opening_hours":null,"opening_days":null,"rating":0,"photo_url":null,"description":null,"www":null},{"place_id":"50414905","geometry":{"type":"Point","coordinates":[10.8907075,44.6458446]},"display_name":"Viale Leonardo Da Vinci, Villaggio Giardino, San Faustino-Madonnina-Quattroville, Modena, MO, EMR, 41123, Italia","category":"attractions","type":"artwork","importance":0.001,"icon":"http://nominatim.openstreetmap.org/images/mapicons/tourist_art_gallery2.p.20.png","visiting_time":5.0,"opening_hours":null,"opening_days":null,"rating":0,"photo_url":null,"description":null,"www":null},{"place_id":"46156645","geometry":{"type":"Point","coordinates":[10.9325092,44.6572924]},"display_name":"Largo Alberto Mario Pucci, Crocetta-San Lazzaro-Modena Est, Modena, MO, EMR, 41122, Italia","category":"attractions","type":"artwork","importance":0.001,"icon":"http://nominatim.openstreetmap.org/images/mapicons/tourist_art_gallery2.p.20.png","visiting_time":5.0,"opening_hours":null,"opening_days":null,"rating":0,"photo_url":null,"description":null,"www":null},{"place_id":"55632333","geometry":{"type":"Point","coordinates":[10.925559,44.6447785]},"display_name":"Fanciulla con canestro di frutta, 13, Via Luigi Albinelli, Quartiere Baggiovara, Centro Storico, Modena, MO, EMR, 41121, Italia","category":"attractions","type":"artwork","importance":0.001,"icon":"http://nominatim.openstreetmap.org/images/mapicons/tourist_art_gallery2.p.20.png","visiting_time":5.0,"opening_hours":null,"opening_days":null,"rating":0,"photo_url":null,"description":null,"www":null},{"place_id":"57891672","geometry":{"type":"Point","coordinates":[10.9476852,44.6457123]},"display_name":"Percorso natutali, Torrenova, Crocetta-San Lazzaro-Modena Est, Modena, MO, EMR, 41122, Italia","category":"attractions","type":"artwork","importance":0.001,"icon":"http://nominatim.openstreetmap.org/images/mapicons/tourist_art_gallery2.p.20.png","visiting_time":5.0,"opening_hours":null,"opening_days":null,"rating":0,"photo_url":null,"description":null,"www":null},{"place_id":"114231047","geometry":{"type":"Point","coordinates":[10.932217721,44.6437218]},"display_name":"Fontana dei Due Fiumi, Largo Giuseppe Garibaldi, Quartiere Albareto, Centro Storico, Modena, MO, EMR, 41121, Italia","category":"attractions","type":"artwork","importance":0.001,"icon":"http://nominatim.openstreetmap.org/images/mapicons/tourist_art_gallery2.p.20.png","visiting_time":5.0,"opening_hours":null,"opening_days":null,"rating":0,"photo_url":null,"description":null,"www":null},{"place_id":"57641569","geometry":{"type":"Point","coordinates":[10.9289499,44.6522755]},"display_name":"Piazzetta dal Paltadóri, Addizione Erculea, Centro Storico, Modena, MO, EMR, 41121, Italia","category":"attractions","type":"artwork","importance":0.001,"icon":"http://nominatim.openstreetmap.org/images/mapicons/tourist_art_gallery2.p.20.png","visiting_time":5.0,"opening_hours":null,"opening_days":null,"rating":0,"photo_url":null,"description":null,"www":null},{"place_id":"55996068","geometry":{"type":"Point","coordinates":[10.9222339,44.6446375]},"display_name":"Fontana della Ninfa, Largo San Giacomo, Quartiere Baggiovara, Centro Storico, Modena, MO, EMR, 41121, Italia","category":"attractions","type":"artwork","importance":0.001,"icon":"http://nominatim.openstreetmap.org/images/mapicons/tourist_art_gallery2.p.20.png","visiting_time":5.0,"opening_hours":null,"opening_days":null,"rating":0,"photo_url":null,"description":null,"www":null},{"place_id":"51226878","geometry":{"type":"Point","coordinates":[10.9129091,44.6517786]},"display_name":"Via Emilia Ovest, Cittadella, Centro Storico, Modena, MO, EMR, 41121, Italia","category":"attractions","type":"artwork","importance":0.001,"icon":"http://nominatim.openstreetmap.org/images/mapicons/tourist_art_gallery2.p.20.png","visiting_time":5.0,"opening_hours":null,"opening_days":null,"rating":0,"photo_url":null,"description":null,"www":null},{"place_id":"54857740","geometry":{"type":"Point","coordinates":[10.9258785,44.6456734]},"display_name":"Bonissima, Piazza Grande, Quartiere Cittanova, Centro Storico, Modena, MO, EMR, 41121, Italia","category":"attractions","type":"artwork","importance":0.001,"icon":"http://nominatim.openstreetmap.org/images/mapicons/tourist_art_gallery2.p.20.png","visiting_time":5.0,"opening_hours":null,"opening_days":null,"rating":0,"photo_url":null,"description":null,"www":null},{"place_id":"19356944","geometry":{"type":"Point","coordinates":[10.9057248,44.6333945]},"display_name":"Via Nicola Pisano, Villaggio Zeta, San Faustino-Madonnina-Quattroville, Modena, MO, EMR, 41124, Italia","category":"eating","type":"fast_food","importance":0.001,"icon":"http://nominatim.openstreetmap.org/images/mapicons/food_fastfood.p.20.png","visiting_time":30.0,"opening_hours":null,"opening_days":null,"rating":0,"photo_url":null,"description":null,"www":null},{"place_id":"7516156","geometry":{"type":"Point","coordinates":[10.9228697,44.6483075]},"display_name":"Kebap e Pizza Bosforo, Via Cardinal Giovanni Morone, Quartiere Cittanova, Centro Storico, Modena, MO, EMR, 41121, Italia","category":"eating","type":"fast_food","importance":0.001,"icon":"http://nominatim.openstreetmap.org/images/mapicons/food_fastfood.p.20.png","visiting_time":30.0,"opening_hours":null,"opening_days":null,"rating":0,"photo_url":null,"description":null,"www":null},{"place_id":"107853183","geometry":{"type":"Point","coordinates":[10.906255344,44.65457945]},"display_name":"McDonald's, Via Emilia Ovest, Cittadella, Centro Storico, Modena, MO, EMR, 41123, Italia","category":"eating","type":"fast_food","importance":0.001,"icon":"http://nominatim.openstreetmap.org/images/mapicons/food_fastfood.p.20.png","visiting_time":30.0,"opening_hours":null,"opening_days":null,"rating":0,"photo_url":null,"description":null,"www":null},{"place_id":"162977404","geometry":{"type":"Point","coordinates":[10.9273388,44.6204312]},"display_name":"Mediterranea Pizza la Taglio, 500/28, Strada Morane, Buon Pastore-Sant'Agnese-San Damaso, Modena, MO, EMR, 41126, Italia","category":"eating","type":"fast_food","importance":0.001,"icon":"http://nominatim.openstreetmap.org/images/mapicons/food_fastfood.p.20.png","visiting_time":30.0,"opening_hours":null,"opening_days":null,"rating":0,"photo_url":null,"description":null,"www":null},{"place_id":"58659611","geometry":{"type":"Point","coordinates":[10.9247967,44.6491377]},"display_name":"Pizzeria 360, 18, Via Pomposa, Quartiere Cittanova, Centro Storico, Modena, MO, EMR, 41121, Italia","category":"eating","type":"fast_food","importance":0.001,"icon":"http://nominatim.openstreetmap.org/images/mapicons/food_fastfood.p.20.png","visiting_time":30.0,"opening_hours":null,"opening_days":null,"rating":0,"photo_url":null,"description":null,"www":null},{"place_id":"21315394","geometry":{"type":"Point","coordinates":[10.935663,44.6231546]},"display_name":"Carpe Diem, 222, Via Alassio, Buon Pastore-Sant'Agnese-San Damaso, Modena, MO, EMR, 41125, Italia","category":"eating","type":"fast_food","importance":0.001,"icon":"http://nominatim.openstreetmap.org/images/mapicons/food_fastfood.p.20.png","visiting_time":30.0,"opening_hours":null,"opening_days":null,"rating":0,"photo_url":null,"description":null,"www":null},{"place_id":"16606842","geometry":{"type":"Point","coordinates":[10.9442332,44.6539964]},"display_name":"Il braccio e la mente, Via Nonantolana, Torrenova, Crocetta-San Lazzaro-Modena Est, Modena, MO, EMR, 41122, Italia","category":"eating","type":"fast_food","importance":0.001,"icon":"http://nominatim.openstreetmap.org/images/mapicons/food_fastfood.p.20.png","visiting_time":30.0,"opening_hours":null,"opening_days":null,"rating":0,"photo_url":null,"description":null,"www":null},{"place_id":"217349724","geometry":{"type":"Point","coordinates":[10.9394426,44.6324427]},"display_name":"Rosticceria Cinese Giardino Giada, 544, Strada Vignolese, Buon Pastore-Sant'Agnese-San Damaso, Modena, MO, EMR, 41125, Italia","category":"eating","type":"fast_food","importance":0.001,"icon":"http://nominatim.openstreetmap.org/images/mapicons/food_fastfood.p.20.png","visiting_time":30.0,"opening_hours":null,"opening_days":null,"rating":0,"photo_url":null,"description":null,"www":null},{"place_id":"58306335","geometry":{"type":"Point","coordinates":[10.924197,44.6474015]},"display_name":"La Fornarina, 249, Via Emilia Centro, Quartiere Cittanova, Centro Storico, Modena, MO, EMR, 41121, Italia","category":"eating","type":"fast_food","importance":0.001,"icon":"http://nominatim.openstreetmap.org/images/mapicons/food_fastfood.p.20.png","visiting_time":30.0,"opening_hours":null,"opening_days":null,"rating":0,"photo_url":null,"description":null,"www":null},{"place_id":"160101726","geometry":{"type":"Point","coordinates":[10.927593282,44.62060795]},"display_name":"Pollo & Friends, 500/19, Strada Morane, Buon Pastore-Sant'Agnese-San Damaso, Modena, MO, EMR, 41126, Italia","category":"eating","type":"fast_food","importance":0.001,"icon":"http://nominatim.openstreetmap.org/images/mapicons/food_fastfood.p.20.png","visiting_time":30.0,"opening_hours":null,"opening_days":null,"rating":0,"photo_url":null,"description":null,"www":null},{"place_id":"57044602","geometry":{"type":"Point","coordinates":[10.8543125,44.6486934]},"display_name":"Ristopoint, Viale Ovidio, Cittanova, San Faustino-Madonnina-Quattroville, Modena, MO, EMR, 41123, Italia","category":"eating","type":"fast_food","importance":0.001,"icon":"http://nominatim.openstreetmap.org/images/mapicons/food_fastfood.p.20.png","visiting_time":30.0,"opening_hours":null,"opening_days":null,"rating":0,"photo_url":null,"description":null,"www":null},{"place_id":"24343348","geometry":{"type":"Point","coordinates":[10.857582,44.6626222]},"display_name":"Burger King, Secchia Est, Tre Olmi, San Faustino-Madonnina-Quattroville, Modena, MO, EMR, 41123, Italia","category":"eating","type":"fast_food","importance":0.001,"icon":"http://nominatim.openstreetmap.org/images/mapicons/food_fastfood.p.20.png","visiting_time":30.0,"opening_hours":null,"opening_days":null,"rating":0,"photo_url":null,"description":null,"www":null},{"place_id":"62255929","geometry":{"type":"Point","coordinates":[10.9587292,44.6359886]},"display_name":"Zona Artigianale, 145, Via Ottorino Respighi, Crocetta-San Lazzaro-Modena Est, Modena, MO, EMR, 41121, Italia","category":"eating","type":"fast_food","importance":0.001,"icon":"http://nominatim.openstreetmap.org/images/mapicons/food_fastfood.p.20.png","visiting_time":30.0,"opening_hours":null,"opening_days":null,"rating":0,"photo_url":null,"description":null,"www":null},{"place_id":"19429504","geometry":{"type":"Point","coordinates":[10.9047365,44.6398779]},"display_name":"Viale Alfeo Corassori, Villaggio Giardino, San Faustino-Madonnina-Quattroville, Modena, MO, EMR, 41124, Italia","category":"eating","type":"fast_food","importance":0.001,"icon":"http://nominatim.openstreetmap.org/images/mapicons/food_fastfood.p.20.png","visiting_time":30.0,"opening_hours":null,"opening_days":null,"rating":0,"photo_url":null,"description":null,"www":null},{"place_id":"57224764","geometry":{"type":"Point","coordinates":[10.9283147,44.6529072]},"display_name":"Kebab Istanbul 2, 11A, Viale Monte Kosica, Addizione Erculea, Centro Storico, Modena, MO, EMR, 41121, Italia","category":"eating","type":"fast_food","importance":0.001,"icon":"http://nominatim.openstreetmap.org/images/mapicons/food_fastfood.p.20.png","visiting_time":30.0,"opening_hours":null,"opening_days":null,"rating":0,"photo_url":null,"description":null,"www":null},{"place_id":"61147908","geometry":{"type":"Point","coordinates":[10.931771,44.6442209]},"display_name":"Street Gio, 30, Largo Giuseppe Garibaldi, Quartiere Albareto, Centro Storico, Modena, MO, EMR, 41124, Italia","category":"eating","type":"fast_food","importance":0.001,"icon":"http://nominatim.openstreetmap.org/images/mapicons/food_fastfood.p.20.png","visiting_time":30.0,"opening_hours":null,"opening_days":null,"rating":0,"photo_url":null,"description":null,"www":null},{"place_id":"51869766","geometry":{"type":"Point","coordinates":[10.9307479,44.6543041]},"display_name":"McDonald's, Piazza Dante Alighieri, Addizione Erculea, Centro Storico, Modena, MO, EMR, 41121, Italia","category":"eating","type":"fast_food","importance":0.001,"icon":"http://nominatim.openstreetmap.org/images/mapicons/food_fastfood.p.20.png","visiting_time":30.0,"opening_hours":null,"opening_days":null,"rating":0,"photo_url":null,"description":null,"www":null},{"place_id":"172655713","geometry":{"type":"Point","coordinates":[10.958031767,44.64347635]},"display_name":"McDonald's, Viale Dello Sport, Torrenova, Crocetta-San Lazzaro-Modena Est, Modena, MO, EMR, 41122, Italia","category":"eating","type":"fast_food","importance":0.001,"icon":"http://nominatim.openstreetmap.org/images/mapicons/food_fastfood.p.20.png","visiting_time":30.0,"opening_hours":null,"opening_days":null,"rating":0,"photo_url":null,"description":null,"www":null},{"place_id":"152064576","geometry":{"type":"Point","coordinates":[10.909936446,44.6537838]},"display_name":"Burger King, 346, Via Emilia Ovest, Cittadella, Centro Storico, Modena, MO, EMR, 41123, Italia","category":"eating","type":"fast_food","importance":0.001,"icon":"http://nominatim.openstreetmap.org/images/mapicons/food_fastfood.p.20.png","visiting_time":30.0,"opening_hours":null,"opening_days":null,"rating":0,"photo_url":null,"description":null,"www":null},{"place_id":"61714318","geometry":{"type":"Point","coordinates":[10.9167666,44.6449724]},"display_name":"Patapollo, 228, Viale Jacopo Barozzi, Cittadella, Centro Storico, Modena, MO, EMR, 41124, Italia","category":"eating","type":"fast_food","importance":0.001,"icon":"http://nominatim.openstreetmap.org/images/mapicons/food_fastfood.p.20.png","visiting_time":30.0,"opening_hours":null,"opening_days":null,"rating":0,"photo_url":null,"description":null,"www":null},{"place_id":"7468012","geometry":{"type":"Point","coordinates":[10.9249627,44.6445765]},"display_name":"Via Luigi Albinelli, Quartiere Baggiovara, Centro Storico, Modena, MO, EMR, 41121, Italia","category":"eating","type":"fast_food","importance":0.001,"icon":"http://nominatim.openstreetmap.org/images/mapicons/food_fastfood.p.20.png","visiting_time":30.0,"opening_hours":null,"opening_days":null,"rating":0,"photo_url":null,"description":null,"www":null},{"place_id":"16854501","geometry":{"type":"Point","coordinates":[10.9431881,44.6538314]},"display_name":"Officina del Pizza-Kebap, Via Nonantolana, Torrenova, Crocetta-San Lazzaro-Modena Est, Modena, MO, EMR, 41122, Italia","category":"eating","type":"fast_food","importance":0.001,"icon":"http://nominatim.openstreetmap.org/images/mapicons/food_fastfood.p.20.png","visiting_time":30.0,"opening_hours":null,"opening_days":null,"rating":0,"photo_url":null,"description":null,"www":null},{"place_id":"57045785","geometry":{"type":"Point","coordinates":[10.8531218,44.6476465]},"display_name":"McDonald's, Viale Catullo, Cittanova, San Faustino-Madonnina-Quattroville, Modena, MO, EMR, 41123, Italia","category":"eating","type":"fast_food","importance":0.001,"icon":"http://nominatim.openstreetmap.org/images/mapicons/food_fastfood.p.20.png","visiting_time":30.0,"opening_hours":null,"opening_days":null,"rating":0,"photo_url":null,"description":null,"www":null},{"place_id":"56719055","geometry":{"type":"Point","coordinates":[10.9297912,44.6438697]},"display_name":"Guda, 15, Corso Adriano, Quartiere Saliceto, Centro Storico, Modena, MO, EMR, 41121, Italia","category":"eating","type":"fast_food","importance":0.001,"icon":"http://nominatim.openstreetmap.org/images/mapicons/food_fastfood.p.20.png","visiting_time":30.0,"opening_hours":null,"opening_days":null,"rating":0,"photo_url":null,"description":null,"www":null},{"place_id":"7434077","geometry":{"type":"Point","coordinates":[10.927146,44.6464542]},"display_name":"Pizzeria ALT!, Piazza Giuseppe Mazzini, Quartiere Albareto, Centro Storico, Modena, MO, EMR, 41121, Italia","category":"eating","type":"fast_food","importance":0.001,"icon":"http://nominatim.openstreetmap.org/images/mapicons/food_fastfood.p.20.png","visiting_time":30.0,"opening_hours":null,"opening_days":null,"rating":0,"photo_url":null,"description":null,"www":null},{"place_id":"52381799","geometry":{"type":"Point","coordinates":[10.9231449,44.6483613]},"display_name":"La Gustosa, Via Cardinal Giovanni Morone, Quartiere Cittanova, Centro Storico, Modena, MO, EMR, 41121, Italia","category":"eating","type":"fast_food","importance":0.001,"icon":"http://nominatim.openstreetmap.org/images/mapicons/food_fastfood.p.20.png","visiting_time":30.0,"opening_hours":null,"opening_days":null,"rating":0,"photo_url":null,"description":null,"www":null},{"place_id":"57112320","geometry":{"type":"Point","coordinates":[10.8533988,44.6492065]},"display_name":"Spizzico, Viale Ovidio, Cittanova, San Faustino-Madonnina-Quattroville, Modena, MO, EMR, 41123, Italia","category":"eating","type":"fast_food","importance":0.001,"icon":"http://nominatim.openstreetmap.org/images/mapicons/food_fastfood.p.20.png","visiting_time":30.0,"opening_hours":null,"opening_days":null,"rating":0,"photo_url":null,"description":null,"www":null},{"place_id":"16297316","geometry":{"type":"Point","coordinates":[10.9177363,44.6500491]},"display_name":"Via Emilia Ovest, Cittadella, Centro Storico, Modena, MO, EMR, 41121, Italia","category":"eating","type":"fast_food","importance":0.001,"icon":"http://nominatim.openstreetmap.org/images/mapicons/food_fastfood.p.20.png","visiting_time":30.0,"opening_hours":null,"opening_days":null,"rating":0,"photo_url":null,"description":null,"www":null},{"place_id":"112728397","geometry":{"type":"Point","coordinates":[10.825985301,44.5704658]},"display_name":"Strada Modena - Sassuolo, La Ghiarola, Formigine, Unione dei comuni del Distretto Ceramico, MO, EMR, 41043, Italia","category":"eating","type":"fast_food","importance":0.001,"icon":"http://nominatim.openstreetmap.org/images/mapicons/food_fastfood.p.20.png","visiting_time":30.0,"opening_hours":null,"opening_days":null,"rating":0,"photo_url":null,"description":null,"www":null},{"place_id":"38000544","geometry":{"type":"Point","coordinates":[10.9071043,44.5748164]},"display_name":"Pizza Pizza, Strada Statale 12 dell'Abetone e del Brennero, Ca' Bortolani, Castelnuovo Rangone, Unione di comuni Terre di Castelli, MO, EMR, 41051, Italia","category":"eating","type":"fast_food","importance":0.001,"icon":"http://nominatim.openstreetmap.org/images/mapicons/food_fastfood.p.20.png","visiting_time":30.0,"opening_hours":null,"opening_days":null,"rating":0,"photo_url":null,"description":null,"www":null},{"place_id":"57838281","geometry":{"type":"Point","coordinates":[10.854403,44.6491771]},"display_name":"Food Bar Rita, Viale Ovidio, Cittanova, San Faustino-Madonnina-Quattroville, Modena, MO, EMR, 41123, Italia","category":"eating","type":"bar","importance":0.101,"icon":"http://nominatim.openstreetmap.org/images/mapicons/food_bar.p.20.png","visiting_time":60.0,"opening_hours":null,"opening_days":null,"rating":0,"photo_url":null,"description":null,"www":null},{"place_id":"160360837","geometry":{"type":"Point","coordinates":[10.926157278,44.62079]},"display_name":"Rita, Via Carlo Casalegno, Buon Pastore-Sant'Agnese-San Damaso, Modena, MO, EMR, 41125, Italia","category":"eating","type":"restaurant","importance":0.001,"icon":"http://nominatim.openstreetmap.org/images/mapicons/food_restaurant.p.20.png","visiting_time":60.0,"opening_hours":null,"opening_days":null,"rating":0,"photo_url":null,"description":null,"www":null},{"place_id":"16688934","geometry":{"type":"Point","coordinates":[10.9213967,44.6448027]},"display_name":"Osteria Francescana, Via Stella, Quartiere Baggiovara, Centro Storico, Modena, MO, EMR, 41121, Italia","category":"eating","type":"restaurant","importance":0.10803387,"icon":"http://nominatim.openstreetmap.org/images/mapicons/food_restaurant.p.20.png","visiting_time":60.0,"opening_hours":null,"opening_days":null,"rating":0,"photo_url":null,"description":null,"www":null},{"place_id":"19236900","geometry":{"type":"Point","coordinates":[10.9358049,44.654884]},"display_name":"Trattoria Bianca, Via Giovan Battista Spaccini, Crocetta-San Lazzaro-Modena Est, Modena, MO, EMR, 41121, Italia","category":"eating","type":"restaurant","importance":0.001,"icon":"http://nominatim.openstreetmap.org/images/mapicons/food_restaurant.p.20.png","visiting_time":60.0,"opening_hours":null,"opening_days":null,"rating":0,"photo_url":null,"description":null,"www":null},{"place_id":"27737434","geometry":{"type":"Point","coordinates":[10.8881261,44.6933386]},"display_name":"Inbàraca ostaria & dintorni, 45, Stradello Scuola Ganaceto, Lesignana, San Faustino-Madonnina-Quattroville, Modena, MO, EMR, 41123, Italia","category":"eating","type":"restaurant","importance":0.001,"icon":"http://nominatim.openstreetmap.org/images/mapicons/food_restaurant.p.20.png","visiting_time":60.0,"opening_hours":null,"opening_days":null,"rating":0,"photo_url":null,"description":null,"www":null},{"place_id":"3261057","geometry":{"type":"Point","coordinates":[10.9383246,44.579249]},"display_name":"Trattoria Portile, Strada Castelnuovo Rangone, Portile, Buon Pastore-Sant'Agnese-San Damaso, Modena, MO, EMR, 41125, Italia","category":"eating","type":"restaurant","importance":0.001,"icon":"http://nominatim.openstreetmap.org/images/mapicons/food_restaurant.p.20.png","visiting_time":60.0,"opening_hours":null,"opening_days":null,"rating":0,"photo_url":null,"description":null,"www":null},{"place_id":"54625467","geometry":{"type":"Point","coordinates":[10.9272873,44.647399]},"display_name":"Da Enzo, 17, Via Coltellini, Quartiere Albareto, Centro Storico, Modena, MO, EMR, 41121, Italia","category":"eating","type":"restaurant","importance":0.001,"icon":"http://nominatim.openstreetmap.org/images/mapicons/food_restaurant.p.20.png","visiting_time":60.0,"opening_hours":null,"opening_days":null,"rating":0,"photo_url":null,"description":null,"www":null},{"place_id":"50690057","geometry":{"type":"Point","coordinates":[10.8851766,44.6581597]},"display_name":"80° Miglio, 802, Via Emilia Ovest, Villaggio Artigiano, San Faustino-Madonnina-Quattroville, Modena, MO, EMR, 41123, Italia","category":"eating","type":"restaurant","importance":0.001,"icon":"http://nominatim.openstreetmap.org/images/mapicons/food_restaurant.p.20.png","visiting_time":60.0,"opening_hours":null,"opening_days":null,"rating":0,"photo_url":null,"description":null,"www":null},{"place_id":"52264560","geometry":{"type":"Point","coordinates":[10.9388651,44.6500304]},"display_name":"American Graffiti, Via Ferruccio Lamborghini, Addizione Erculea, Centro Storico, Modena, MO, EMR, 41121, Italia","category":"eating","type":"restaurant","importance":0.001,"icon":"http://nominatim.openstreetmap.org/images/mapicons/food_restaurant.p.20.png","visiting_time":60.0,"opening_hours":null,"opening_days":null,"rating":0,"photo_url":null,"description":null,"www":null},{"place_id":"56549758","geometry":{"type":"Point","coordinates":[10.9258376,44.6456312]},"display_name":"Al Tramezzino, 55/57, Via Castellaro, Quartiere Saliceto, Centro Storico, Modena, MO, EMR, 41121, Italia","category":"eating","type":"restaurant","importance":0.001,"icon":"http://nominatim.openstreetmap.org/images/mapicons/food_restaurant.p.20.png","visiting_time":60.0,"opening_hours":null,"opening_days":null,"rating":0,"photo_url":null,"description":null,"www":null},{"place_id":"53853211","geometry":{"type":"Point","coordinates":[10.921108,44.649586]},"display_name":"Persepolis - Ristorante Persiano, Via Bono Da Nonantola, Quartiere Cittanova, Centro Storico, Modena, MO, EMR, 41121, Italia","category":"eating","type":"restaurant","importance":0.001,"icon":"http://nominatim.openstreetmap.org/images/mapicons/food_restaurant.p.20.png","visiting_time":60.0,"opening_hours":null,"opening_days":null,"rating":0,"photo_url":null,"description":null,"www":null},{"place_id":"18805280","geometry":{"type":"Point","coordinates":[10.907408,44.6392214]},"display_name":"Tokyo in Modena, 394, Via Pietro Giardini, Quartiere Baggiovara, Centro Storico, Modena, MO, EMR, 41124, Italia","category":"eating","type":"restaurant","importance":0.001,"icon":"http://nominatim.openstreetmap.org/images/mapicons/food_restaurant.p.20.png","visiting_time":60.0,"opening_hours":null,"opening_days":null,"rating":0,"photo_url":null,"description":null,"www":null},{"place_id":"46454522","geometry":{"type":"Point","coordinates":[10.9241191,44.6493004]},"display_name":"Trattoria la Pomposa al Re Gras, Piazza della Pomposa, Quartiere Cittanova, Centro Storico, Modena, MO, EMR, 41121, Italia","category":"eating","type":"restaurant","importance":0.001,"icon":"http://nominatim.openstreetmap.org/images/mapicons/food_restaurant.p.20.png","visiting_time":60.0,"opening_hours":null,"opening_days":null,"rating":0,"photo_url":null,"description":null,"www":null},{"place_id":"40459306","geometry":{"type":"Point","coordinates":[10.8958631,44.658698]},"display_name":"Strada Facendo, Via Emilia Ovest, Villaggio Artigiano, San Faustino-Madonnina-Quattroville, Modena, MO, EMR, 41123, Italia","category":"eating","type":"restaurant","importance":0.001,"icon":"http://nominatim.openstreetmap.org/images/mapicons/food_restaurant.p.20.png","visiting_time":60.0,"opening_hours":null,"opening_days":null,"rating":0,"photo_url":null,"description":null,"www":null},{"place_id":"15173608","geometry":{"type":"Point","coordinates":[10.9065064,44.6397281]},"display_name":"Ristorante La Gola, 6, Viale Alfeo Corassori, Villaggio Giardino, San Faustino-Madonnina-Quattroville, Modena, MO, EMR, 41124, Italia","category":"eating","type":"restaurant","importance":0.001,"icon":"http://nominatim.openstreetmap.org/images/mapicons/food_restaurant.p.20.png","visiting_time":60.0,"opening_hours":null,"opening_days":null,"rating":0,"photo_url":null,"description":null,"www":null},{"place_id":"40369647","geometry":{"type":"Point","coordinates":[10.9260816,44.6457709]},"display_name":"Caffe Concerto, Piazza Grande, Quartiere Cittanova, Centro Storico, Modena, MO, EMR, 41121, Italia","category":"eating","type":"restaurant","importance":0.001,"icon":"http://nominatim.openstreetmap.org/images/mapicons/food_restaurant.p.20.png","visiting_time":60.0,"opening_hours":null,"opening_days":null,"rating":0,"photo_url":null,"description":null,"www":null},{"place_id":"46727746","geometry":{"type":"Point","coordinates":[10.9339999,44.6524674]},"display_name":"Trattoria Via Ferrari, 25, Via Paolo Ferrari, Addizione Erculea, Centro Storico, Modena, MO, EMR, 41121, Italia","category":"eating","type":"restaurant","importance":0.001,"icon":"http://nominatim.openstreetmap.org/images/mapicons/food_restaurant.p.20.png","visiting_time":60.0,"opening_hours":null,"opening_days":null,"rating":0,"photo_url":null,"description":null,"www":null},{"place_id":"55557592","geometry":{"type":"Point","coordinates":[10.9298676,44.6439697]},"display_name":"loSTEBA, 13/a, Corso Adriano, Quartiere Saliceto, Centro Storico, Modena, MO, EMR, 41121, Italia","category":"eating","type":"restaurant","importance":0.001,"icon":"http://nominatim.openstreetmap.org/images/mapicons/food_restaurant.p.20.png","visiting_time":60.0,"opening_hours":null,"opening_days":null,"rating":0,"photo_url":null,"description":null,"www":null},{"place_id":"52116590","geometry":{"type":"Point","coordinates":[10.9260834,44.6207489]},"display_name":"Tracce Bar-Pizzeria, 500/52, Strada Morane, Buon Pastore-Sant'Agnese-San Damaso, Modena, MO, EMR, 41126, Italia","category":"eating","type":"restaurant","importance":0.001,"icon":"http://nominatim.openstreetmap.org/images/mapicons/food_restaurant.p.20.png","visiting_time":60.0,"opening_hours":null,"opening_days":null,"rating":0,"photo_url":null,"description":null,"www":null},{"place_id":"19491152","geometry":{"type":"Point","coordinates":[10.9289876,44.6457758]},"display_name":"Osteria Romana, Via Donzi, Quartiere Albareto, Centro Storico, Modena, MO, EMR, 41121, Italia","category":"eating","type":"restaurant","importance":0.001,"icon":"http://nominatim.openstreetmap.org/images/mapicons/food_restaurant.p.20.png","visiting_time":60.0,"opening_hours":null,"opening_days":null,"rating":0,"photo_url":null,"description":null,"www":null},{"place_id":"3493181","geometry":{"type":"Point","coordinates":[10.9526608,44.5813444]},"display_name":"Agriturismo Rubbio, ciclabile del tiepido, Portile, Buon Pastore-Sant'Agnese-San Damaso, Modena, MO, EMR, 41126, Italia","category":"eating","type":"restaurant","importance":0.001,"icon":"http://nominatim.openstreetmap.org/images/mapicons/food_restaurant.p.20.png","visiting_time":60.0,"opening_hours":null,"opening_days":null,"rating":0,"photo_url":null,"description":null,"www":null},{"place_id":"55757370","geometry":{"type":"Point","coordinates":[10.9729513,44.626365]},"display_name":"Statale, Via Emilia Est, Fossalta, Buon Pastore-Sant'Agnese-San Damaso, Modena, MO, EMR, 41122, Italia","category":"eating","type":"restaurant","importance":0.001,"icon":"http://nominatim.openstreetmap.org/images/mapicons/food_restaurant.p.20.png","visiting_time":60.0,"opening_hours":null,"opening_days":null,"rating":0,"photo_url":null,"description":null,"www":null},{"place_id":"8604486","geometry":{"type":"Point","coordinates":[10.9038279,44.6338938]},"display_name":"Ristorante Pizzeria La Gioconda, Via Elpidio Bertoli, Buon Pastore-Sant'Agnese-San Damaso, Modena, MO, EMR, 41124, Italia","category":"eating","type":"restaurant","importance":0.001,"icon":"http://nominatim.openstreetmap.org/images/mapicons/food_restaurant.p.20.png","visiting_time":60.0,"opening_hours":null,"opening_days":null,"rating":0,"photo_url":null,"description":null,"www":null},{"place_id":"24402942","geometry":{"type":"Point","coordinates":[10.9842424,44.5735526]},"display_name":"Roadhouse Grill, Via Vignolese, San Donnino, Buon Pastore-Sant'Agnese-San Damaso, Modena, MO, EMR, 41126, Italia","category":"eating","type":"restaurant","importance":0.001,"icon":"http://nominatim.openstreetmap.org/images/mapicons/food_restaurant.p.20.png","visiting_time":60.0,"opening_hours":null,"opening_days":null,"rating":0,"photo_url":null,"description":null,"www":null},{"place_id":"21714443","geometry":{"type":"Point","coordinates":[10.9347271,44.6235447]},"display_name":"Trattoria Emiliana da Silvia, 291, Via Alassio, Buon Pastore-Sant'Agnese-San Damaso, Modena, MO, EMR, 41125, Italia","category":"eating","type":"restaurant","importance":0.001,"icon":"http://nominatim.openstreetmap.org/images/mapicons/food_restaurant.p.20.png","visiting_time":60.0,"opening_hours":null,"opening_days":null,"rating":0,"photo_url":null,"description":null,"www":null},{"place_id":"28289540","geometry":{"type":"Point","coordinates":[10.9036064,44.6360544]},"display_name":"Fujiyama, 458 A, Via Pietro Giardini, Quartiere Baggiovara, Centro Storico, Modena, MO, EMR, 41124, Italia","category":"eating","type":"restaurant","importance":0.001,"icon":"http://nominatim.openstreetmap.org/images/mapicons/food_restaurant.p.20.png","visiting_time":60.0,"opening_hours":null,"opening_days":null,"rating":0,"photo_url":null,"description":null,"www":null},{"place_id":"24647540","geometry":{"type":"Point","coordinates":[10.8574665,44.6627025]},"display_name":"Gustofast, Secchia Est, Tre Olmi, San Faustino-Madonnina-Quattroville, Modena, MO, EMR, 41123, Italia","category":"eating","type":"restaurant","importance":0.001,"icon":"http://nominatim.openstreetmap.org/images/mapicons/food_restaurant.p.20.png","visiting_time":60.0,"opening_hours":null,"opening_days":null,"rating":0,"photo_url":null,"description":null,"www":null},{"place_id":"15452409","geometry":{"type":"Point","coordinates":[10.908477,44.6394101]},"display_name":"Via Pietro Giardini, San Faustino-Madonnina-Quattroville, Modena, MO, EMR, 41124, Italia","category":"eating","type":"restaurant","importance":0.001,"icon":"http://nominatim.openstreetmap.org/images/mapicons/food_restaurant.p.20.png","visiting_time":60.0,"opening_hours":null,"opening_days":null,"rating":0,"photo_url":null,"description":null,"www":null},{"place_id":"22104985","geometry":{"type":"Point","coordinates":[10.8643176,44.6105174]},"display_name":"Ristorante Pizzeria Angeli e Demoni, Via Vittime Civili di Guerra, Baggiovara, San Faustino-Madonnina-Quattroville, Modena, MO, EMR, 41123, Italia","category":"eating","type":"restaurant","importance":0.001,"icon":"http://nominatim.openstreetmap.org/images/mapicons/food_restaurant.p.20.png","visiting_time":60.0,"opening_hours":null,"opening_days":null,"rating":0,"photo_url":null,"description":null,"www":null},{"place_id":"44709856","geometry":{"type":"Point","coordinates":[10.9206432,44.6584505]},"display_name":"IKO Sushi, 30, Via Bartolomeo Paganelli, Crocetta-San Lazzaro-Modena Est, Modena, MO, EMR, 41122, Italia","category":"eating","type":"restaurant","importance":0.001,"icon":"http://nominatim.openstreetmap.org/images/mapicons/food_restaurant.p.20.png","visiting_time":60.0,"opening_hours":null,"opening_days":null,"rating":0,"photo_url":null,"description":null,"www":null},{"place_id":"50536266","geometry":{"type":"Point","coordinates":[10.8845143,44.6581411]},"display_name":"Ginza, 25, Via Pier Paolo Pasolini, Villaggio Artigiano, San Faustino-Madonnina-Quattroville, Modena, MO, EMR, 41123, Italia","category":"eating","type":"restaurant","importance":0.001,"icon":"http://nominatim.openstreetmap.org/images/mapicons/food_restaurant.p.20.png","visiting_time":60.0,"opening_hours":null,"opening_days":null,"rating":0,"photo_url":null,"description":null,"www":null},{"place_id":"3325591","geometry":{"type":"Point","coordinates":[10.9381641,44.581468]},"display_name":"Pizzeria Astropizza, Strada Castelnuovo Rangone, Portile, Buon Pastore-Sant'Agnese-San Damaso, Modena, MO, EMR, 41125, Italia","category":"eating","type":"restaurant","importance":0.001,"icon":"http://nominatim.openstreetmap.org/images/mapicons/food_restaurant.p.20.png","visiting_time":60.0,"opening_hours":null,"opening_days":null,"rating":0,"photo_url":null,"description":null,"www":null},{"place_id":"46102649","geometry":{"type":"Point","coordinates":[10.9241196,44.6499412]},"display_name":"Mattatoio, Via Del Voltone, Quartiere Cittanova, Centro Storico, Modena, MO, EMR, 41121, Italia","category":"eating","type":"restaurant","importance":0.001,"icon":"http://nominatim.openstreetmap.org/images/mapicons/food_restaurant.p.20.png","visiting_time":60.0,"opening_hours":null,"opening_days":null,"rating":0,"photo_url":null,"description":null,"www":null},{"place_id":"44127294","geometry":{"type":"Point","coordinates":[10.9206548,44.6585532]},"display_name":"Old Wild West, 32, Via Bartolomeo Paganelli, Crocetta-San Lazzaro-Modena Est, Modena, MO, EMR, 41122, Italia","category":"eating","type":"restaurant","importance":0.001,"icon":"http://nominatim.openstreetmap.org/images/mapicons/food_restaurant.p.20.png","visiting_time":60.0,"opening_hours":null,"opening_days":null,"rating":0,"photo_url":null,"description":null,"www":null},{"place_id":"48670700","geometry":{"type":"Point","coordinates":[10.9253044,44.648094]},"display_name":"Officina della Senape, 21, Piazza Giacomo Matteotti, Quartiere Cittanova, Centro Storico, Modena, MO, EMR, 41121, Italia","category":"eating","type":"restaurant","importance":0.001,"icon":"http://nominatim.openstreetmap.org/images/mapicons/food_restaurant.p.20.png","visiting_time":60.0,"opening_hours":null,"opening_days":null,"rating":0,"photo_url":null,"description":null,"www":null},{"place_id":"11393286","geometry":{"type":"Point","coordinates":[10.9217221,44.6477896]},"display_name":"Cucina del Museo, Via Sant'Agostino, Quartiere Baggiovara, Centro Storico, Modena, MO, EMR, 41121, Italia","category":"eating","type":"restaurant","importance":0.001,"icon":"http://nominatim.openstreetmap.org/images/mapicons/food_restaurant.p.20.png","visiting_time":60.0,"opening_hours":null,"opening_days":null,"rating":0,"photo_url":null,"description":null,"www":null},{"place_id":"54787591","geometry":{"type":"Point","coordinates":[10.9267846,44.6492021]},"display_name":"Zen Fusion Taste, 9, Via Belle Arti, Quartiere Cittanova, Centro Storico, Modena, MO, EMR, 41121, Italia","category":"eating","type":"restaurant","importance":0.001,"icon":"http://nominatim.openstreetmap.org/images/mapicons/food_restaurant.p.20.png","visiting_time":60.0,"opening_hours":null,"opening_days":null,"rating":0,"photo_url":null,"description":null,"www":null},{"place_id":"3493587","geometry":{"type":"Point","coordinates":[10.9541853,44.5934908]},"display_name":"Ciclabile Modena - Vignola, Portile, Buon Pastore-Sant'Agnese-San Damaso, Modena, MO, EMR, 41126, Italia","category":"eating","type":"restaurant","importance":0.001,"icon":"http://nominatim.openstreetmap.org/images/mapicons/food_restaurant.p.20.png","visiting_time":60.0,"opening_hours":null,"opening_days":null,"rating":0,"photo_url":null,"description":null,"www":null},{"place_id":"55829972","geometry":{"type":"Point","coordinates":[10.9260748,44.6528576]},"display_name":"Ai Cappuccini, Viale Achille Fontanelli, Addizione Erculea, Centro Storico, Modena, MO, EMR, 41121, Italia","category":"eating","type":"restaurant","importance":0.001,"icon":"http://nominatim.openstreetmap.org/images/mapicons/food_restaurant.p.20.png","visiting_time":60.0,"opening_hours":null,"opening_days":null,"rating":0,"photo_url":null,"description":null,"www":null},{"place_id":"4335767","geometry":{"type":"Point","coordinates":[10.9665507,44.586039]},"display_name":"Il Moro, Strada Gherbella, San Donnino, Buon Pastore-Sant'Agnese-San Damaso, Modena, MO, EMR, 41126, Italia","category":"eating","type":"restaurant","importance":0.001,"icon":"http://nominatim.openstreetmap.org/images/mapicons/food_restaurant.p.20.png","visiting_time":60.0,"opening_hours":null,"opening_days":null,"rating":0,"photo_url":null,"description":null,"www":null},{"place_id":"15673873","geometry":{"type":"Point","coordinates":[10.8474401,44.5772802]},"display_name":"Via Gian Giacomo Carandini, Casa Gatta, Formigine, Unione dei comuni del Distretto Ceramico, MO, EMR, 41043, Italia","category":"eating","type":"restaurant","importance":0.001,"icon":"http://nominatim.openstreetmap.org/images/mapicons/food_restaurant.p.20.png","visiting_time":60.0,"opening_hours":null,"opening_days":null,"rating":0,"photo_url":null,"description":null,"www":null},{"place_id":"14976632","geometry":{"type":"Point","coordinates":[10.8468221,44.5687146]},"display_name":"Pizzeria Rusticana, Via Achille Grandi, Casa Gatta, Formigine, Unione dei comuni del Distretto Ceramico, MO, EMR, 41043, Italia","category":"eating","type":"restaurant","importance":0.001,"icon":"http://nominatim.openstreetmap.org/images/mapicons/food_restaurant.p.20.png","visiting_time":60.0,"opening_hours":null,"opening_days":null,"rating":0,"photo_url":null,"description":null,"www":null},{"place_id":"9301271","geometry":{"type":"Point","coordinates":[10.846925,44.5757934]},"display_name":"Hosteria del Castello, Via Trento Trieste, Casa Gatta, Formigine, Unione dei comuni del Distretto Ceramico, MO, EMR, 41043, Italia","category":"eating","type":"restaurant","importance":0.001,"icon":"http://nominatim.openstreetmap.org/images/mapicons/food_restaurant.p.20.png","visiting_time":60.0,"opening_hours":null,"opening_days":null,"rating":0,"photo_url":null,"description":null,"www":null},{"place_id":"15235792","geometry":{"type":"Point","coordinates":[10.8493936,44.5791288]},"display_name":"Pizzeria Giardini, Via Pietro Giardini, Casa Gatta, Formigine, Unione dei comuni del Distretto Ceramico, MO, EMR, 41043, Italia","category":"eating","type":"restaurant","importance":0.001,"icon":"http://nominatim.openstreetmap.org/images/mapicons/food_restaurant.p.20.png","visiting_time":60.0,"opening_hours":null,"opening_days":null,"rating":0,"photo_url":null,"description":null,"www":null},{"place_id":"15244911","geometry":{"type":"Point","coordinates":[10.8516411,44.5636725]},"display_name":"Via Giardini Sud, Casa Zini, Formigine, Unione dei comuni del Distretto Ceramico, MO, EMR, 41043, Italia","category":"eating","type":"restaurant","importance":0.001,"icon":"http://nominatim.openstreetmap.org/images/mapicons/food_restaurant.p.20.png","visiting_time":60.0,"opening_hours":null,"opening_days":null,"rating":0,"photo_url":null,"description":null,"www":null},{"place_id":"804979","geometry":{"type":"Point","coordinates":[10.8505827,44.5662368]},"display_name":"Osteria Di Via Giardini, Via Giardini Sud, Casa Zini, Formigine, Unione dei comuni del Distretto Ceramico, MO, EMR, 41043, Italia","category":"eating","type":"restaurant","importance":0.001,"icon":"http://nominatim.openstreetmap.org/images/mapicons/food_restaurant.p.20.png","visiting_time":60.0,"opening_hours":null,"opening_days":null,"rating":0,"photo_url":null,"description":null,"www":null},{"place_id":"16055394","geometry":{"type":"Point","coordinates":[10.8481026,44.5747267]},"display_name":"Ristorate Cinese Grande du Cheng, Via Carlo Castiglioni, Casa Gatta, Formigine, Unione dei comuni del Distretto Ceramico, MO, EMR, 41043, Italia","category":"eating","type":"restaurant","importance":0.001,"icon":"http://nominatim.openstreetmap.org/images/mapicons/food_restaurant.p.20.png","visiting_time":60.0,"opening_hours":null,"opening_days":null,"rating":0,"photo_url":null,"description":null,"www":null},{"place_id":"15550135","geometry":{"type":"Point","coordinates":[10.8499727,44.5811239]},"display_name":"Pizzeria Vecchio Mulino, Via Giardini Nord, Casa Gatta, Formigine, Unione dei comuni del Distretto Ceramico, MO, EMR, 41123, Italia","category":"eating","type":"restaurant","importance":0.001,"icon":"http://nominatim.openstreetmap.org/images/mapicons/food_restaurant.p.20.png","visiting_time":60.0,"opening_hours":null,"opening_days":null,"rating":0,"photo_url":null,"description":null,"www":null},{"place_id":"15598744","geometry":{"type":"Point","coordinates":[10.8460674,44.5760239]},"display_name":"Via Francesco D'Assisi, Casa Gatta, Formigine, Unione dei comuni del Distretto Ceramico, MO, EMR, 41043, Italia","category":"eating","type":"restaurant","importance":0.001,"icon":"http://nominatim.openstreetmap.org/images/mapicons/food_restaurant.p.20.png","visiting_time":60.0,"opening_hours":null,"opening_days":null,"rating":0,"photo_url":null,"description":null,"www":null},{"place_id":"9969019","geometry":{"type":"Point","coordinates":[10.8463233,44.5752355]},"display_name":"Via Trento Trieste, Casa Gatta, Formigine, Unione dei comuni del Distretto Ceramico, MO, EMR, 41043, Italia","category":"eating","type":"restaurant","importance":0.001,"icon":"http://nominatim.openstreetmap.org/images/mapicons/food_restaurant.p.20.png","visiting_time":60.0,"opening_hours":null,"opening_days":null,"rating":0,"photo_url":null,"description":null,"www":null},{"place_id":"14723183","geometry":{"type":"Point","coordinates":[10.8526034,44.5729363]},"display_name":"Alessia, Via Sant'Antonio, Casa Gatta, Formigine, Unione dei comuni del Distretto Ceramico, MO, EMR, 41043, Italia","category":"eating","type":"restaurant","importance":0.001,"icon":"http://nominatim.openstreetmap.org/images/mapicons/food_restaurant.p.20.png","visiting_time":60.0,"opening_hours":null,"opening_days":null,"rating":0,"photo_url":null,"description":null,"www":null},{"place_id":"19387860","geometry":{"type":"Point","coordinates":[10.8605948,44.593876]},"display_name":"Via Pietro Nenni, Casa Gatta, Formigine, Unione dei comuni del Distretto Ceramico, MO, EMR, 41123, Italia","category":"eating","type":"restaurant","importance":0.001,"icon":"http://nominatim.openstreetmap.org/images/mapicons/food_restaurant.p.20.png","visiting_time":60.0,"opening_hours":null,"opening_days":null,"rating":0,"photo_url":null,"description":null,"www":null},{"place_id":"179609181","geometry":{"type":"Point","coordinates":[10.929811372,44.6488084]},"display_name":"Palazzo Ducale, Piazzale Mario D'Aleo ed Emanuele Basile, Addizione Erculea, Centro Storico, Modena, MO, EMR, 41121, Italia","category":"attractions","type":"castle","importance":0.1667999,"icon":"http://nominatim.openstreetmap.org/images/mapicons/tourist_castle.p.20.png","visiting_time":120.0,"opening_hours":null,"opening_days":null,"rating":0,"photo_url":null,"description":null,"www":null},{"place_id":"178198381","geometry":{"type":"Point","coordinates":[10.846419649,44.5752851]},"display_name":"Castello di Formigine, Via Trento Trieste, Casa Gatta, Formigine, Unione dei comuni del Distretto Ceramico, MO, EMR, 41043, Italia","category":"attractions","type":"castle","importance":0.001,"icon":"http://nominatim.openstreetmap.org/images/mapicons/tourist_castle.p.20.png","visiting_time":120.0,"opening_hours":null,"opening_days":null,"rating":0,"photo_url":null,"description":null,"www":null},{"place_id":"110437053","geometry":{"type":"Point","coordinates":[10.839501573,44.68880655]},"display_name":"Rocca, Via Rubiera, Casa Riva, Campogalliano, Unione delle Terre d'Argine, MO, EMR, 41123, Italia","category":"attractions","type":"castle","importance":0.001,"icon":"http://nominatim.openstreetmap.org/images/mapicons/tourist_castle.p.20.png","visiting_time":120.0,"opening_hours":null,"opening_days":null,"rating":0,"photo_url":null,"description":null,"www":null},{"place_id":"107827535","geometry":{"type":"Point","coordinates":[10.839904821,44.68880815]},"display_name":"Rocca, Via Antonio Gramsci, Ca' dei Benatti, Campogalliano, Unione delle Terre d'Argine, MO, EMR, 41123, Italia","category":"attractions","type":"castle","importance":0.001,"icon":"http://nominatim.openstreetmap.org/images/mapicons/tourist_castle.p.20.png","visiting_time":120.0,"opening_hours":null,"opening_days":null,"rating":0,"photo_url":null,"description":null,"www":null},{"place_id":"113742265","geometry":{"type":"Point","coordinates":[10.840040256,44.69020855]},"display_name":"Torre, Piazza Castello, Ca' dei Benatti, Campogalliano, Unione delle Terre d'Argine, MO, EMR, 41123, Italia","category":"attractions","type":"castle","importance":0.001,"icon":"http://nominatim.openstreetmap.org/images/mapicons/tourist_castle.p.20.png","visiting_time":120.0,"opening_hours":null,"opening_days":null,"rating":0,"photo_url":null,"description":null,"www":null},{"place_id":"57035978","geometry":{"type":"Point","coordinates":[10.9268542,44.6413485]},"display_name":"Resti delle Mura, Viale Delle Rimembranze, Quartiere Saliceto, Centro Storico, Modena, MO, EMR, 41121, Italia","category":"attractions","type":"ruins","importance":0.001,"icon":"http://nominatim.openstreetmap.org/images/mapicons/tourist_ruin.p.20.png","visiting_time":30.0,"opening_hours":null,"opening_days":null,"rating":0,"photo_url":null,"description":null,"www":null},{"place_id":"19428243","geometry":{"type":"Point","coordinates":[10.9133366,44.6334699]},"display_name":"La Baracchina, 411, Viale Giovanni Amendola, Buon Pastore-Sant'Agnese-San Damaso, Modena, MO, EMR, 41125, Italia","category":"lifestyle","type":"bar","importance":0.101,"icon":"http://nominatim.openstreetmap.org/images/mapicons/food_bar.p.20.png","visiting_time":10.0,"opening_hours":null,"opening_days":null,"rating":0,"photo_url":null,"description":null,"www":null},{"place_id":"58315613","geometry":{"type":"Point","coordinates":[10.9329769,44.6535742]},"display_name":"Selfservice Bar, 46, Via Nicolò Dell'Abate, Addizione Erculea, Centro Storico, Modena, MO, EMR, 41121, Italia","category":"lifestyle","type":"bar","importance":0.101,"icon":"http://nominatim.openstreetmap.org/images/mapicons/food_bar.p.20.png","visiting_time":10.0,"opening_hours":null,"opening_days":null,"rating":0,"photo_url":null,"description":null,"www":null},{"place_id":"20739464","geometry":{"type":"Point","coordinates":[10.9356125,44.6231708]},"display_name":"Classic Bar, 220, Via Alassio, Buon Pastore-Sant'Agnese-San Damaso, Modena, MO, EMR, 41125, Italia","category":"lifestyle","type":"bar","importance":0.101,"icon":"http://nominatim.openstreetmap.org/images/mapicons/food_bar.p.20.png","visiting_time":10.0,"opening_hours":null,"opening_days":null,"rating":0,"photo_url":null,"description":null,"www":null},{"place_id":"17444328","geometry":{"type":"Point","coordinates":[10.9234338,44.645215]},"display_name":"Bar Calypso, 73, Corso Canalchiaro, Quartiere Baggiovara, Centro Storico, Modena, MO, EMR, 41121, Italia","category":"lifestyle","type":"bar","importance":0.101,"icon":"http://nominatim.openstreetmap.org/images/mapicons/food_bar.p.20.png","visiting_time":10.0,"opening_hours":null,"opening_days":null,"rating":0,"photo_url":null,"description":null,"www":null},{"place_id":"57838281","geometry":{"type":"Point","coordinates":[10.854403,44.6491771]},"display_name":"Food Bar Rita, Viale Ovidio, Cittanova, San Faustino-Madonnina-Quattroville, Modena, MO, EMR, 41123, Italia","category":"lifestyle","type":"bar","importance":0.101,"icon":"http://nominatim.openstreetmap.org/images/mapicons/food_bar.p.20.png","visiting_time":10.0,"opening_hours":null,"opening_days":null,"rating":0,"photo_url":null,"description":null,"www":null},{"place_id":"58276832","geometry":{"type":"Point","coordinates":[10.9272605,44.6458555]},"display_name":"Bar Molinari, 2, Via San Carlo, Quartiere Albareto, Centro Storico, Modena, MO, EMR, 41121, Italia","category":"lifestyle","type":"bar","importance":0.101,"icon":"http://nominatim.openstreetmap.org/images/mapicons/food_bar.p.20.png","visiting_time":10.0,"opening_hours":null,"opening_days":null,"rating":0,"photo_url":null,"description":null,"www":null},{"place_id":"163797259","geometry":{"type":"Point","coordinates":[10.90558435,44.64712905]},"display_name":"Millybar, 182, Strada San Faustino, Villaggio Artigiano, San Faustino-Madonnina-Quattroville, Modena, MO, EMR, 41126, Italia","category":"lifestyle","type":"bar","importance":0.101,"icon":"http://nominatim.openstreetmap.org/images/mapicons/food_bar.p.20.png","visiting_time":10.0,"opening_hours":null,"opening_days":null,"rating":0,"photo_url":null,"description":null,"www":null},{"place_id":"50458911","geometry":{"type":"Point","coordinates":[10.8905842,44.6437926]},"display_name":"Calimero Soft bar, 46, Via Cartesio, Villaggio Giardino, San Faustino-Madonnina-Quattroville, Modena, MO, EMR, 41126, Italia","category":"lifestyle","type":"bar","importance":0.101,"icon":"http://nominatim.openstreetmap.org/images/mapicons/food_bar.p.20.png","visiting_time":10.0,"opening_hours":null,"opening_days":null,"rating":0,"photo_url":null,"description":null,"www":null},{"place_id":"7434077","geometry":{"type":"Point","coordinates":[10.927146,44.6464542]},"display_name":"Pizzeria ALT!, Piazza Giuseppe Mazzini, Quartiere Albareto, Centro Storico, Modena, MO, EMR, 41121, Italia","category":"lifestyle","type":"fast_food","importance":0.101,"icon":"http://nominatim.openstreetmap.org/images/mapicons/food_fastfood.p.20.png","visiting_time":10.0,"opening_hours":null,"opening_days":null,"rating":0,"photo_url":null,"description":null,"www":null},{"place_id":"61147908","geometry":{"type":"Point","coordinates":[10.931771,44.6442209]},"display_name":"Street Gio, 30, Largo Giuseppe Garibaldi, Quartiere Albareto, Centro Storico, Modena, MO, EMR, 41124, Italia","category":"lifestyle","type":"fast_food","importance":0.101,"icon":"http://nominatim.openstreetmap.org/images/mapicons/food_fastfood.p.20.png","visiting_time":10.0,"opening_hours":null,"opening_days":null,"rating":0,"photo_url":null,"description":null,"www":null},{"place_id":"61714318","geometry":{"type":"Point","coordinates":[10.9167666,44.6449724]},"display_name":"Patapollo, 228, Viale Jacopo Barozzi, Cittadella, Centro Storico, Modena, MO, EMR, 41124, Italia","category":"lifestyle","type":"fast_food","importance":0.101,"icon":"http://nominatim.openstreetmap.org/images/mapicons/food_fastfood.p.20.png","visiting_time":10.0,"opening_hours":null,"opening_days":null,"rating":0,"photo_url":null,"description":null,"www":null},{"place_id":"11568945","geometry":{"type":"Point","coordinates":[10.8470354,44.5741566]},"display_name":"Bar Cacciatori, Via Trento Trieste, Casa Gatta, Formigine, Unione dei comuni del Distretto Ceramico, MO, EMR, 41043, Italia","category":"lifestyle","type":"bar","importance":0.101,"icon":"http://nominatim.openstreetmap.org/images/mapicons/food_bar.p.20.png","visiting_time":10.0,"opening_hours":null,"opening_days":null,"rating":0,"photo_url":null,"description":null,"www":null},{"place_id":"9750070","geometry":{"type":"Point","coordinates":[10.8424786,44.5771601]},"display_name":"Bar Olimpico, Via Giovanni Pascoli, Casa Gatta, Formigine, Unione dei comuni del Distretto Ceramico, MO, EMR, 41123, Italia","category":"lifestyle","type":"bar","importance":0.101,"icon":"http://nominatim.openstreetmap.org/images/mapicons/food_bar.p.20.png","visiting_time":10.0,"opening_hours":null,"opening_days":null,"rating":0,"photo_url":null,"description":null,"www":null},{"place_id":"15628326","geometry":{"type":"Point","coordinates":[10.8469179,44.5758277]},"display_name":"Happy Bar, Via Trento Trieste, Casa Gatta, Formigine, Unione dei comuni del Distretto Ceramico, MO, EMR, 41043, Italia","category":"lifestyle","type":"bar","importance":0.101,"icon":"http://nominatim.openstreetmap.org/images/mapicons/food_bar.p.20.png","visiting_time":10.0,"opening_hours":null,"opening_days":null,"rating":0,"photo_url":null,"description":null,"www":null},{"place_id":"15609778","geometry":{"type":"Point","coordinates":[10.849481,44.5794269]},"display_name":"Bar Tabaccheria Friggeri, Via Pietro Giardini, Casa Gatta, Formigine, Unione dei comuni del Distretto Ceramico, MO, EMR, 41043, Italia","category":"lifestyle","type":"bar","importance":0.101,"icon":"http://nominatim.openstreetmap.org/images/mapicons/food_bar.p.20.png","visiting_time":10.0,"opening_hours":null,"opening_days":null,"rating":0,"photo_url":null,"description":null,"www":null},{"place_id":"18397867","geometry":{"type":"Point","coordinates":[10.8488281,44.7229125]},"display_name":"Via Canale Carpi, Ca' Gambarati, Campogalliano, Unione delle Terre d'Argine, MO, EMR, 41123, Italia","category":"lifestyle","type":"bar","importance":0.101,"icon":"http://nominatim.openstreetmap.org/images/mapicons/food_bar.p.20.png","visiting_time":10.0,"opening_hours":null,"opening_days":null,"rating":0,"photo_url":null,"description":null,"www":null},{"place_id":"38871604","geometry":{"type":"Point","coordinates":[10.9118331,44.5719819]},"display_name":"Bar Roller, Cammino della Costituzione, Ca' Bortolani, Castelnuovo Rangone, Unione di comuni Terre di Castelli, MO, EMR, 41051, Italia","category":"lifestyle","type":"bar","importance":0.101,"icon":"http://nominatim.openstreetmap.org/images/mapicons/food_bar.p.20.png","visiting_time":10.0,"opening_hours":null,"opening_days":null,"rating":0,"photo_url":null,"description":null,"www":null},{"place_id":"37909868","geometry":{"type":"Point","coordinates":[10.9074138,44.5753062]},"display_name":"Bar Sport, Strada Statale 12 dell'Abetone e del Brennero, Ca' Bortolani, Castelnuovo Rangone, Unione di comuni Terre di Castelli, MO, EMR, 41051, Italia","category":"lifestyle","type":"bar","importance":0.101,"icon":"http://nominatim.openstreetmap.org/images/mapicons/food_bar.p.20.png","visiting_time":10.0,"opening_hours":null,"opening_days":null,"rating":0,"photo_url":null,"description":null,"www":null},{"place_id":"8466544","geometry":{"type":"Point","coordinates":[10.9096443,44.6294034]},"display_name":"Via Simone Martini, Buon Pastore-Sant'Agnese-San Damaso, Modena, MO, EMR, 41125, Italia","category":"lifestyle","type":"pub","importance":0.001,"icon":"http://nominatim.openstreetmap.org/images/mapicons/food_pub.p.20.png","visiting_time":10.0,"opening_hours":null,"opening_days":null,"rating":0,"photo_url":null,"description":null,"www":null},{"place_id":"44981836","geometry":{"type":"Point","coordinates":[10.9022016,44.6543495]},"display_name":"Sir Francis Drake, 86/A, Viale Emilio Po, Villaggio Artigiano, San Faustino-Madonnina-Quattroville, Modena, MO, EMR, 41126, Italia","category":"lifestyle","type":"pub","importance":0.001,"icon":"http://nominatim.openstreetmap.org/images/mapicons/food_pub.p.20.png","visiting_time":10.0,"opening_hours":null,"opening_days":null,"rating":0,"photo_url":null,"description":null,"www":null},{"place_id":"58762792","geometry":{"type":"Point","coordinates":[10.9289151,44.6434603]},"display_name":"Mister Brown, 3/a, Via dei Gallucci, Quartiere Saliceto, Centro Storico, Modena, MO, EMR, 41121, Italia","category":"lifestyle","type":"pub","importance":0.001,"icon":"http://nominatim.openstreetmap.org/images/mapicons/food_pub.p.20.png","visiting_time":10.0,"opening_hours":null,"opening_days":null,"rating":0,"photo_url":null,"description":null,"www":null},{"place_id":"55562360","geometry":{"type":"Point","coordinates":[10.9296008,44.6434244]},"display_name":"Griffin's pub, 67, Via dei Gallucci, Quartiere Saliceto, Centro Storico, Modena, MO, EMR, 41121, Italia","category":"lifestyle","type":"pub","importance":0.001,"icon":"http://nominatim.openstreetmap.org/images/mapicons/food_pub.p.20.png","visiting_time":10.0,"opening_hours":null,"opening_days":null,"rating":0,"photo_url":null,"description":null,"www":null},{"place_id":"10834460","geometry":{"type":"Point","coordinates":[10.8668285,44.6047982]},"display_name":"Stradello Buracchione, Baggiovara, San Faustino-Madonnina-Quattroville, Modena, MO, EMR, 41123, Italia","category":"lifestyle","type":"bar","importance":0.001,"icon":"http://nominatim.openstreetmap.org/images/mapicons/food_bar.p.20.png","visiting_time":10.0,"opening_hours":null,"opening_days":null,"rating":0,"photo_url":null,"description":null,"www":null},{"place_id":"57860684","geometry":{"type":"Point","coordinates":[10.8538225,44.6475667]},"display_name":"Caffetteria, Viale Catullo, Cittanova, San Faustino-Madonnina-Quattroville, Modena, MO, EMR, 41123, Italia","category":"lifestyle","type":"bar","importance":0.001,"icon":"http://nominatim.openstreetmap.org/images/mapicons/food_bar.p.20.png","visiting_time":10.0,"opening_hours":null,"opening_days":null,"rating":0,"photo_url":null,"description":null,"www":null},{"place_id":"58695305","geometry":{"type":"Point","coordinates":[10.9558928,44.6446826]},"display_name":"Rita, Viale Dello Sport, Torrenova, Crocetta-San Lazzaro-Modena Est, Modena, MO, EMR, 41122, Italia","category":"lifestyle","type":"bar","importance":0.001,"icon":"http://nominatim.openstreetmap.org/images/mapicons/food_bar.p.20.png","visiting_time":10.0,"opening_hours":null,"opening_days":null,"rating":0,"photo_url":null,"description":null,"www":null},{"place_id":"176146056","geometry":{"type":"Point","coordinates":[10.957665602,44.64379195]},"display_name":"Botega del Caffe, Viale Dello Sport, Torrenova, Crocetta-San Lazzaro-Modena Est, Modena, MO, EMR, 41122, Italia","category":"lifestyle","type":"bar","importance":0.001,"icon":"http://nominatim.openstreetmap.org/images/mapicons/food_bar.p.20.png","visiting_time":10.0,"opening_hours":null,"opening_days":null,"rating":0,"photo_url":null,"description":null,"www":null},{"place_id":"58554756","geometry":{"type":"Point","coordinates":[10.8537122,44.6482177]},"display_name":"Puntogoloso, Viale Catullo, Cittanova, San Faustino-Madonnina-Quattroville, Modena, MO, EMR, 41123, Italia","category":"lifestyle","type":"bar","importance":0.001,"icon":"http://nominatim.openstreetmap.org/images/mapicons/food_bar.p.20.png","visiting_time":10.0,"opening_hours":null,"opening_days":null,"rating":0,"photo_url":null,"description":null,"www":null},{"place_id":"4726515","geometry":{"type":"Point","coordinates":[10.9066932,44.6273534]},"display_name":"Deja Vù, Strada Panni, Villaggio Zeta, San Faustino-Madonnina-Quattroville, Modena, MO, EMR, 41125, Italia","category":"lifestyle","type":"bar","importance":0.001,"icon":"http://nominatim.openstreetmap.org/images/mapicons/food_bar.p.20.png","visiting_time":10.0,"opening_hours":null,"opening_days":null,"rating":0,"photo_url":null,"description":null,"www":null},{"place_id":"8607126","geometry":{"type":"Point","coordinates":[10.9118732,44.633189]},"display_name":"Bollicine, Viale Giovanni Amendola, Buon Pastore-Sant'Agnese-San Damaso, Modena, MO, EMR, 41125, Italia","category":"lifestyle","type":"bar","importance":0.001,"icon":"http://nominatim.openstreetmap.org/images/mapicons/food_bar.p.20.png","visiting_time":10.0,"opening_hours":null,"opening_days":null,"rating":0,"photo_url":null,"description":null,"www":null},{"place_id":"56672552","geometry":{"type":"Point","coordinates":[10.942293,44.630003]},"display_name":"Allegretti, 671, Strada Vignolese, Buon Pastore-Sant'Agnese-San Damaso, Modena, MO, EMR, 41125, Italia","category":"lifestyle","type":"bar","importance":0.001,"icon":"http://nominatim.openstreetmap.org/images/mapicons/food_bar.p.20.png","visiting_time":10.0,"opening_hours":null,"opening_days":null,"rating":0,"photo_url":null,"description":null,"www":null},{"place_id":"173890311","geometry":{"type":"Point","coordinates":[10.956208566,44.64443695]},"display_name":"Yogorino Gelateria, Viale Dello Sport, Torrenova, Crocetta-San Lazzaro-Modena Est, Modena, MO, EMR, 41122, Italia","category":"lifestyle","type":"bar","importance":0.001,"icon":"http://nominatim.openstreetmap.org/images/mapicons/food_bar.p.20.png","visiting_time":10.0,"opening_hours":null,"opening_days":null,"rating":0,"photo_url":null,"description":null,"www":null},{"place_id":"8151446","geometry":{"type":"Point","coordinates":[10.9081542,44.6337295]},"display_name":"Viale Giovanni Amendola, Buon Pastore-Sant'Agnese-San Damaso, Modena, MO, EMR, 41125, Italia","category":"lifestyle","type":"bar","importance":0.001,"icon":"http://nominatim.openstreetmap.org/images/mapicons/food_bar.p.20.png","visiting_time":10.0,"opening_hours":null,"opening_days":null,"rating":0,"photo_url":null,"description":null,"www":null},{"place_id":"19493633","geometry":{"type":"Point","coordinates":[10.9056873,44.6331846]},"display_name":"Via Nicola Pisano, Villaggio Zeta, San Faustino-Madonnina-Quattroville, Modena, MO, EMR, 41124, Italia","category":"lifestyle","type":"bar","importance":0.001,"icon":"http://nominatim.openstreetmap.org/images/mapicons/food_bar.p.20.png","visiting_time":10.0,"opening_hours":null,"opening_days":null,"rating":0,"photo_url":null,"description":null,"www":null},{"place_id":"16378539","geometry":{"type":"Point","coordinates":[10.9633641,44.6598667]},"display_name":"Caffetteria dei Torrazzi, Via Nonantolana, Torrenova, Crocetta-San Lazzaro-Modena Est, Modena, MO, EMR, 41122, Italia","category":"lifestyle","type":"bar","importance":0.001,"icon":"http://nominatim.openstreetmap.org/images/mapicons/food_bar.p.20.png","visiting_time":10.0,"opening_hours":null,"opening_days":null,"rating":0,"photo_url":null,"description":null,"www":null},{"place_id":"42620185","geometry":{"type":"Point","coordinates":[10.9331411,44.6498432]},"display_name":"2A, Corso Camillo Benso di Cavour, Addizione Erculea, Centro Storico, Modena, MO, EMR, 41121, Italia","category":"lifestyle","type":"bar","importance":0.001,"icon":"http://nominatim.openstreetmap.org/images/mapicons/food_bar.p.20.png","visiting_time":10.0,"opening_hours":null,"opening_days":null,"rating":0,"photo_url":null,"description":null,"www":null},{"place_id":"13938133","geometry":{"type":"Point","coordinates":[10.871933,44.6363087]},"display_name":"Strada Cognento, Cognento, San Faustino-Madonnina-Quattroville, Modena, MO, EMR, 41123, Italia","category":"lifestyle","type":"bar","importance":0.001,"icon":"http://nominatim.openstreetmap.org/images/mapicons/food_bar.p.20.png","visiting_time":10.0,"opening_hours":null,"opening_days":null,"rating":0,"photo_url":null,"description":null,"www":null},{"place_id":"16922747","geometry":{"type":"Point","coordinates":[10.9614635,44.6576509]},"display_name":"Smile Cafè, Via Papa Giovanni XXIII, Torrenova, Crocetta-San Lazzaro-Modena Est, Modena, MO, EMR, 41122, Italia","category":"lifestyle","type":"bar","importance":0.001,"icon":"http://nominatim.openstreetmap.org/images/mapicons/food_bar.p.20.png","visiting_time":10.0,"opening_hours":null,"opening_days":null,"rating":0,"photo_url":null,"description":null,"www":null},{"place_id":"19271381","geometry":{"type":"Point","coordinates":[10.9067267,44.6386832]},"display_name":"Via Pietro Giardini, San Faustino-Madonnina-Quattroville, Modena, MO, EMR, 41124, Italia","category":"lifestyle","type":"bar","importance":0.001,"icon":"http://nominatim.openstreetmap.org/images/mapicons/food_bar.p.20.png","visiting_time":10.0,"opening_hours":null,"opening_days":null,"rating":0,"photo_url":null,"description":null,"www":null},{"place_id":"15345627","geometry":{"type":"Point","coordinates":[10.9095276,44.6294378]},"display_name":"Green Lion, Via Simone Martini, Buon Pastore-Sant'Agnese-San Damaso, Modena, MO, EMR, 41125, Italia","category":"lifestyle","type":"bar","importance":0.001,"icon":"http://nominatim.openstreetmap.org/images/mapicons/food_bar.p.20.png","visiting_time":10.0,"opening_hours":null,"opening_days":null,"rating":0,"photo_url":null,"description":null,"www":null},{"place_id":"170434450","geometry":{"type":"Point","coordinates":[10.956912493,44.64415235]},"display_name":"Glamour, Viale Dello Sport, Torrenova, Crocetta-San Lazzaro-Modena Est, Modena, MO, EMR, 41122, Italia","category":"lifestyle","type":"bar","importance":0.001,"icon":"http://nominatim.openstreetmap.org/images/mapicons/food_bar.p.20.png","visiting_time":10.0,"opening_hours":null,"opening_days":null,"rating":0,"photo_url":null,"description":null,"www":null},{"place_id":"160360705","geometry":{"type":"Point","coordinates":[10.927468,44.620452]},"display_name":"Caffetteria La Rotonda, 500/43, Strada Morane, Buon Pastore-Sant'Agnese-San Damaso, Modena, MO, EMR, 41126, Italia","category":"lifestyle","type":"bar","importance":0.001,"icon":"http://nominatim.openstreetmap.org/images/mapicons/food_bar.p.20.png","visiting_time":10.0,"opening_hours":null,"opening_days":null,"rating":0,"photo_url":null,"description":null,"www":null},{"place_id":"24004145","geometry":{"type":"Point","coordinates":[10.9381104,44.5813076]},"display_name":"Strada Castelnuovo Rangone, Portile, Buon Pastore-Sant'Agnese-San Damaso, Modena, MO, EMR, 41125, Italia","category":"lifestyle","type":"bar","importance":0.001,"icon":"http://nominatim.openstreetmap.org/images/mapicons/food_bar.p.20.png","visiting_time":10.0,"opening_hours":null,"opening_days":null,"rating":0,"photo_url":null,"description":null,"www":null},{"place_id":"58186580","geometry":{"type":"Point","coordinates":[10.9288286,44.6435373]},"display_name":"Il Cavatappi, 24, Via dei Gallucci, Quartiere Saliceto, Centro Storico, Modena, MO, EMR, 41121, Italia","category":"lifestyle","type":"bar","importance":0.001,"icon":"http://nominatim.openstreetmap.org/images/mapicons/food_bar.p.20.png","visiting_time":10.0,"opening_hours":null,"opening_days":null,"rating":0,"photo_url":null,"description":null,"www":null},{"place_id":"58603694","geometry":{"type":"Point","coordinates":[10.9329313,44.6370186]},"display_name":"Embassy, 1, Via Bellinzona, Buon Pastore-Sant'Agnese-San Damaso, Modena, MO, EMR, 41124, Italia","category":"lifestyle","type":"bar","importance":0.001,"icon":"http://nominatim.openstreetmap.org/images/mapicons/food_bar.p.20.png","visiting_time":10.0,"opening_hours":null,"opening_days":null,"rating":0,"photo_url":null,"description":null,"www":null},{"place_id":"57112320","geometry":{"type":"Point","coordinates":[10.8533988,44.6492065]},"display_name":"Spizzico, Viale Ovidio, Cittanova, San Faustino-Madonnina-Quattroville, Modena, MO, EMR, 41123, Italia","category":"lifestyle","type":"fast_food","importance":0.001,"icon":"http://nominatim.openstreetmap.org/images/mapicons/food_fastfood.p.20.png","visiting_time":10.0,"opening_hours":null,"opening_days":null,"rating":0,"photo_url":null,"description":null,"www":null},{"place_id":"57224764","geometry":{"type":"Point","coordinates":[10.9283147,44.6529072]},"display_name":"Kebab Istanbul 2, 11A, Viale Monte Kosica, Addizione Erculea, Centro Storico, Modena, MO, EMR, 41121, Italia","category":"lifestyle","type":"fast_food","importance":0.001,"icon":"http://nominatim.openstreetmap.org/images/mapicons/food_fastfood.p.20.png","visiting_time":10.0,"opening_hours":null,"opening_days":null,"rating":0,"photo_url":null,"description":null,"www":null},{"place_id":"58306335","geometry":{"type":"Point","coordinates":[10.924197,44.6474015]},"display_name":"La Fornarina, 249, Via Emilia Centro, Quartiere Cittanova, Centro Storico, Modena, MO, EMR, 41121, Italia","category":"lifestyle","type":"fast_food","importance":0.001,"icon":"http://nominatim.openstreetmap.org/images/mapicons/food_fastfood.p.20.png","visiting_time":10.0,"opening_hours":null,"opening_days":null,"rating":0,"photo_url":null,"description":null,"www":null},{"place_id":"16606842","geometry":{"type":"Point","coordinates":[10.9442332,44.6539964]},"display_name":"Il braccio e la mente, Via Nonantolana, Torrenova, Crocetta-San Lazzaro-Modena Est, Modena, MO, EMR, 41122, Italia","category":"lifestyle","type":"fast_food","importance":0.001,"icon":"http://nominatim.openstreetmap.org/images/mapicons/food_fastfood.p.20.png","visiting_time":10.0,"opening_hours":null,"opening_days":null,"rating":0,"photo_url":null,"description":null,"www":null},{"place_id":"56719055","geometry":{"type":"Point","coordinates":[10.9297912,44.6438697]},"display_name":"Guda, 15, Corso Adriano, Quartiere Saliceto, Centro Storico, Modena, MO, EMR, 41121, Italia","category":"lifestyle","type":"fast_food","importance":0.001,"icon":"http://nominatim.openstreetmap.org/images/mapicons/food_fastfood.p.20.png","visiting_time":10.0,"opening_hours":null,"opening_days":null,"rating":0,"photo_url":null,"description":null,"www":null},{"place_id":"160101726","geometry":{"type":"Point","coordinates":[10.927593282,44.62060795]},"display_name":"Pollo & Friends, 500/19, Strada Morane, Buon Pastore-Sant'Agnese-San Damaso, Modena, MO, EMR, 41126, Italia","category":"lifestyle","type":"fast_food","importance":0.001,"icon":"http://nominatim.openstreetmap.org/images/mapicons/food_fastfood.p.20.png","visiting_time":10.0,"opening_hours":null,"opening_days":null,"rating":0,"photo_url":null,"description":null,"www":null},{"place_id":"55562360","geometry":{"type":"Point","coordinates":[10.9296008,44.6434244]},"display_name":"Griffin's pub, 67, Via dei Gallucci, Quartiere Saliceto, Centro Storico, Modena, MO, EMR, 41121, Italia","category":"lifestyle","type":"pub","importance":0.101,"icon":"http://nominatim.openstreetmap.org/images/mapicons/food_pub.p.20.png","visiting_time":90.0,"opening_hours":null,"opening_days":null,"rating":0,"photo_url":null,"description":null,"www":null},{"place_id":"16024823","geometry":{"type":"Point","coordinates":[10.8480912,44.5754131]},"display_name":"Pub All Game, Via Vittorio Veneto, Casa Gatta, Formigine, Unione dei comuni del Distretto Ceramico, MO, EMR, 41043, Italia","category":"lifestyle","type":"pub","importance":0.101,"icon":"http://nominatim.openstreetmap.org/images/mapicons/food_pub.p.20.png","visiting_time":90.0,"opening_hours":null,"opening_days":null,"rating":0,"photo_url":null,"description":null,"www":null},{"place_id":"180169053","geometry":{"type":"Point","coordinates":[-8.3350726,43.2233149]},"display_name":"Abegondo, Galicia, CAFE, España","category":"lifestyle","type":"postcode","importance":0.2125,"icon":null,"visiting_time":10.0,"opening_hours":null,"opening_days":null,"rating":0,"photo_url":null,"description":null,"www":null},{"place_id":"108764872","geometry":{"type":"Point","coordinates":[10.791831958,44.6501688]},"display_name":"Il Patio, Via del Ponte, Cà Romani, Rubiera, Tresinaro - Secchia, RE, EMR, 41123, Italia","category":"lifestyle","type":"nightclub","importance":0.001,"icon":null,"visiting_time":120.0,"opening_hours":null,"opening_days":null,"rating":0,"photo_url":null,"description":null,"www":null},{"place_id":"58147418","geometry":{"type":"Point","coordinates":[10.908942,44.5768725]},"display_name":"Luciano Pavarotti, Strada Statale 12 dell'Abetone e del Brennero, Ca' Bortolani, Castelnuovo Rangone, Unione di comuni Terre di Castelli, MO, EMR, 41125, Italia","category":"attractions","type":"memorial","importance":0.44455263,"icon":"http://nominatim.openstreetmap.org/images/mapicons/tourist_monument.p.20.png","visiting_time":10.0,"opening_hours":null,"opening_days":null,"rating":0,"photo_url":null,"description":null,"www":null},{"place_id":"22076259","geometry":{"type":"Point","coordinates":[10.9467779,44.5881007]},"display_name":"Memoriale Partigiani, Strada Paganine, Portile, Buon Pastore-Sant'Agnese-San Damaso, Modena, MO, EMR, 41126, Italia","category":"attractions","type":"memorial","importance":0.101,"icon":"http://nominatim.openstreetmap.org/images/mapicons/tourist_monument.p.20.png","visiting_time":10.0,"opening_hours":null,"opening_days":null,"rating":0,"photo_url":null,"description":null,"www":null},{"place_id":"60812817","geometry":{"type":"Point","coordinates":[10.8518977,44.6612995]},"display_name":"Memoriale a Menoni Angelo Elia, Percorso Natura Secchia - Destra Po, Cittanova, San Faustino-Madonnina-Quattroville, Modena, MO, EMR, 41123, Italia","category":"attractions","type":"memorial","importance":0.101,"icon":"http://nominatim.openstreetmap.org/images/mapicons/tourist_monument.p.20.png","visiting_time":10.0,"opening_hours":null,"opening_days":null,"rating":0,"photo_url":null,"description":null,"www":null},{"place_id":"108421991","geometry":{"type":"Point","coordinates":[10.932266219,44.65135185]},"display_name":"Monumento a Nicola Fabrizi, Vicolo Di Porta Albareto, Addizione Erculea, Centro Storico, Modena, MO, EMR, 41121, Italia","category":"attractions","type":"memorial","importance":0.093055315,"icon":"http://nominatim.openstreetmap.org/images/mapicons/tourist_monument.p.20.png","visiting_time":10.0,"opening_hours":null,"opening_days":null,"rating":0,"photo_url":null,"description":null,"www":null},{"place_id":"58371633","geometry":{"type":"Point","coordinates":[10.9761153,44.6401603]},"display_name":"Monumento ai Caduti, Strada Montanara, Saliceto Panaro, Crocetta-San Lazzaro-Modena Est, Modena, MO, EMR, 41122, Italia","category":"attractions","type":"memorial","importance":0.001,"icon":"http://nominatim.openstreetmap.org/images/mapicons/tourist_monument.p.20.png","visiting_time":10.0,"opening_hours":null,"opening_days":null,"rating":0,"photo_url":null,"description":null,"www":null},{"place_id":"56291863","geometry":{"type":"Point","coordinates":[10.9283601,44.6436902]},"display_name":"Lapide ad Arturo Monzani, Vicolo Dei Tornei, Quartiere Saliceto, Centro Storico, Modena, MO, EMR, 41121, Italia","category":"attractions","type":"memorial","importance":0.001,"icon":"http://nominatim.openstreetmap.org/images/mapicons/tourist_monument.p.20.png","visiting_time":10.0,"opening_hours":null,"opening_days":null,"rating":0,"photo_url":null,"description":null,"www":null},{"place_id":"62373227","geometry":{"type":"Point","coordinates":[10.9272358,44.6470176]},"display_name":"Monumento a Giuseppe Mazzini, Piazza Giuseppe Mazzini, Quartiere Albareto, Centro Storico, Modena, MO, EMR, 41121, Italia","category":"attractions","type":"memorial","importance":0.001,"icon":"http://nominatim.openstreetmap.org/images/mapicons/tourist_monument.p.20.png","visiting_time":10.0,"opening_hours":null,"opening_days":null,"rating":0,"photo_url":null,"description":null,"www":null},{"place_id":"1435529","geometry":{"type":"Point","coordinates":[10.9260931,44.6465232]},"display_name":"Monumento ad Alessandro Tassoni, Piazza Della Torre, Quartiere Cittanova, Centro Storico, Modena, MO, EMR, 41121, Italia","category":"attractions","type":"memorial","importance":0.001,"icon":"http://nominatim.openstreetmap.org/images/mapicons/tourist_monument.p.20.png","visiting_time":10.0,"opening_hours":null,"opening_days":null,"rating":0,"photo_url":null,"description":null,"www":null},{"place_id":"111893293","geometry":{"type":"Point","coordinates":[10.928397391,44.64096755]},"display_name":"Monumento ai Caduti, Viale Delle Rimembranze, Quartiere Saliceto, Centro Storico, Modena, MO, EMR, 41121, Italia","category":"attractions","type":"memorial","importance":0.001,"icon":"http://nominatim.openstreetmap.org/images/mapicons/tourist_monument.p.20.png","visiting_time":10.0,"opening_hours":null,"opening_days":null,"rating":0,"photo_url":null,"description":null,"www":null},{"place_id":"46459868","geometry":{"type":"Point","coordinates":[10.8988235,44.6423514]},"display_name":"Viale Alfeo Corassori, Villaggio Giardino, San Faustino-Madonnina-Quattroville, Modena, MO, EMR, 41126, Italia","category":"attractions","type":"memorial","importance":0.001,"icon":"http://nominatim.openstreetmap.org/images/mapicons/tourist_monument.p.20.png","visiting_time":10.0,"opening_hours":null,"opening_days":null,"rating":0,"photo_url":null,"description":null,"www":null},{"place_id":"50052557","geometry":{"type":"Point","coordinates":[10.9359929,44.6107377]},"display_name":"Domenico Vandelli, Strada Bellaria, Vaciglio, Buon Pastore-Sant'Agnese-San Damaso, Modena, MO, EMR, 41125, Italia","category":"attractions","type":"memorial","importance":0.001,"icon":"http://nominatim.openstreetmap.org/images/mapicons/tourist_monument.p.20.png","visiting_time":10.0,"opening_hours":null,"opening_days":null,"rating":0,"photo_url":null,"description":null,"www":null},{"place_id":"108422055","geometry":{"type":"Point","coordinates":[10.927818211,44.6486736]},"display_name":"Monumento alla Libertà, Piazza San Domenico, Addizione Erculea, Centro Storico, Modena, MO, EMR, 41121, Italia","category":"attractions","type":"memorial","importance":0.001,"icon":"http://nominatim.openstreetmap.org/images/mapicons/tourist_monument.p.20.png","visiting_time":10.0,"opening_hours":null,"opening_days":null,"rating":0,"photo_url":null,"description":null,"www":null},{"place_id":"107920096","geometry":{"type":"Point","coordinates":[10.9199936,44.6429599]},"display_name":"Monumento a Vittorio Emanuele II, Piazzale Risorgimento Italiano, Quartiere Baggiovara, Centro Storico, Modena, MO, EMR, 41124, Italia","category":"attractions","type":"memorial","importance":0.001,"icon":"http://nominatim.openstreetmap.org/images/mapicons/tourist_monument.p.20.png","visiting_time":10.0,"opening_hours":null,"opening_days":null,"rating":0,"photo_url":null,"description":null,"www":null},{"place_id":"61774618","geometry":{"type":"Point","coordinates":[10.9426458,44.6524554]},"display_name":"Monumento ai Caduti Partigiani e del 9 Gennaio 1950, Strada Santa Caterina, Torrenova, Crocetta-San Lazzaro-Modena Est, Modena, MO, EMR, 41122, Italia","category":"attractions","type":"memorial","importance":0.001,"icon":"http://nominatim.openstreetmap.org/images/mapicons/tourist_monument.p.20.png","visiting_time":10.0,"opening_hours":null,"opening_days":null,"rating":0,"photo_url":null,"description":null,"www":null},{"place_id":"165630376","geometry":{"type":"Point","coordinates":[10.918496387,44.652302]},"display_name":"Patibolo di Ciro Menotti e Vincenzo Borelli, Piazzale I Maggio, Cittadella, Centro Storico, Modena, MO, EMR, 41121, Italia","category":"attractions","type":"memorial","importance":0.001,"icon":"http://nominatim.openstreetmap.org/images/mapicons/tourist_monument.p.20.png","visiting_time":10.0,"opening_hours":null,"opening_days":null,"rating":0,"photo_url":null,"description":null,"www":null},{"place_id":"55286161","geometry":{"type":"Point","coordinates":[10.9266155,44.6417037]},"display_name":"Monumento ai Garibaldini, Viale Delle Rimembranze, Quartiere Saliceto, Centro Storico, Modena, MO, EMR, 41121, Italia","category":"attractions","type":"memorial","importance":0.001,"icon":"http://nominatim.openstreetmap.org/images/mapicons/tourist_monument.p.20.png","visiting_time":10.0,"opening_hours":null,"opening_days":null,"rating":0,"photo_url":null,"description":null,"www":null},{"place_id":"55612428","geometry":{"type":"Point","coordinates":[10.915662,44.6538406]},"display_name":"Monumento ai Partigiani Caduti, Via Leopoldo Fregoli, Cittadella, Centro Storico, Modena, MO, EMR, 41121, Italia","category":"attractions","type":"memorial","importance":0.001,"icon":"http://nominatim.openstreetmap.org/images/mapicons/tourist_monument.p.20.png","visiting_time":10.0,"opening_hours":null,"opening_days":null,"rating":0,"photo_url":null,"description":null,"www":null},{"place_id":"54556076","geometry":{"type":"Point","coordinates":[10.9019896,44.6420532]},"display_name":"Ricordo dei Caduti da Eventi Bellici, Viale Italia, Villaggio Giardino, San Faustino-Madonnina-Quattroville, Modena, MO, EMR, 41124, Italia","category":"attractions","type":"memorial","importance":0.001,"icon":"http://nominatim.openstreetmap.org/images/mapicons/tourist_monument.p.20.png","visiting_time":10.0,"opening_hours":null,"opening_days":null,"rating":0,"photo_url":null,"description":null,"www":null},{"place_id":"49667486","geometry":{"type":"Point","coordinates":[10.8057981,44.6514541]},"display_name":"Monumento ai Caduti, Strada Chiesa Marzaglia, Marzaglia, San Faustino-Madonnina-Quattroville, Modena, MO, EMR, 41123, Italia","category":"attractions","type":"memorial","importance":0.001,"icon":"http://nominatim.openstreetmap.org/images/mapicons/tourist_monument.p.20.png","visiting_time":10.0,"opening_hours":null,"opening_days":null,"rating":0,"photo_url":null,"description":null,"www":null},{"place_id":"110215327","geometry":{"type":"Point","coordinates":[10.929264127,44.64795495]},"display_name":"Monumento a Ciro Menotti, Piazza Roma, Quartiere Albareto, Centro Storico, Modena, MO, EMR, 41121, Italia","category":"attractions","type":"memorial","importance":0.001,"icon":"http://nominatim.openstreetmap.org/images/mapicons/tourist_monument.p.20.png","visiting_time":10.0,"opening_hours":null,"opening_days":null,"rating":0,"photo_url":null,"description":null,"www":null},{"place_id":"54211691","geometry":{"type":"Point","coordinates":[10.9268892,44.6317273]},"display_name":"Monumento alla Resistenza, Passeggiata Brigata Walter Tabacchi, Buon Pastore-Sant'Agnese-San Damaso, Modena, MO, EMR, 41125, Italia","category":"attractions","type":"memorial","importance":0.001,"icon":"http://nominatim.openstreetmap.org/images/mapicons/tourist_monument.p.20.png","visiting_time":10.0,"opening_hours":null,"opening_days":null,"rating":0,"photo_url":null,"description":null,"www":null},{"place_id":"55986678","geometry":{"type":"Point","coordinates":[10.9259426,44.6464149]},"display_name":"Sacrario della Ghirlandina, Piazza Della Torre, Quartiere Cittanova, Centro Storico, Modena, MO, EMR, 41121, Italia","category":"attractions","type":"memorial","importance":0.001,"icon":"http://nominatim.openstreetmap.org/images/mapicons/tourist_monument.p.20.png","visiting_time":10.0,"opening_hours":null,"opening_days":null,"rating":0,"photo_url":null,"description":null,"www":null},{"place_id":"107815922","geometry":{"type":"Point","coordinates":[10.923097042,44.64799425]},"display_name":"Monumento a Lodovico Antonio Muratori, Largo Lodovico Antonio Muratori, Quartiere Cittanova, Centro Storico, Modena, MO, EMR, 41121, Italia","category":"attractions","type":"memorial","importance":0.001,"icon":"http://nominatim.openstreetmap.org/images/mapicons/tourist_monument.p.20.png","visiting_time":10.0,"opening_hours":null,"opening_days":null,"rating":0,"photo_url":null,"description":null,"www":null},{"place_id":"29468669","geometry":{"type":"Point","coordinates":[10.9431569,44.6525016]},"display_name":"Ara dei Piloti Automobilistici, 21, Strada Santa Caterina, Torrenova, Crocetta-San Lazzaro-Modena Est, Modena, MO, EMR, 41122, Italia","category":"attractions","type":"memorial","importance":0.001,"icon":"http://nominatim.openstreetmap.org/images/mapicons/tourist_monument.p.20.png","visiting_time":10.0,"opening_hours":null,"opening_days":null,"rating":0,"photo_url":null,"description":null,"www":null},{"place_id":"57668178","geometry":{"type":"Point","coordinates":[10.8911224,44.670951]},"display_name":"Monumento ai Caduti, Strada Nuova di Freto, Tre Olmi, San Faustino-Madonnina-Quattroville, Modena, MO, EMR, 41123, Italia","category":"attractions","type":"memorial","importance":0.001,"icon":"http://nominatim.openstreetmap.org/images/mapicons/tourist_monument.p.20.png","visiting_time":10.0,"opening_hours":null,"opening_days":null,"rating":0,"photo_url":null,"description":null,"www":null},{"place_id":"59916125","geometry":{"type":"Point","coordinates":[10.9061837,44.6676695]},"display_name":"Monumento a Mauro Capitani, Stradello Mauro Capitani, San Pancrazio, San Faustino-Madonnina-Quattroville, Modena, MO, EMR, 41123, Italia","category":"attractions","type":"memorial","importance":0.001,"icon":"http://nominatim.openstreetmap.org/images/mapicons/tourist_monument.p.20.png","visiting_time":10.0,"opening_hours":null,"opening_days":null,"rating":0,"photo_url":null,"description":null,"www":null},{"place_id":"58147418","geometry":{"type":"Point","coordinates":[10.908942,44.5768725]},"display_name":"Luciano Pavarotti, Strada Statale 12 dell'Abetone e del Brennero, Ca' Bortolani, Castelnuovo Rangone, Unione di comuni Terre di Castelli, MO, EMR, 41125, Italia","category":"attractions","type":"memorial","importance":0.44455263,"icon":"http://nominatim.openstreetmap.org/images/mapicons/tourist_monument.p.20.png","visiting_time":10.0,"opening_hours":null,"opening_days":null,"rating":0,"photo_url":null,"description":null,"www":null},{"place_id":"108421991","geometry":{"type":"Point","coordinates":[10.932266219,44.65135185]},"display_name":"Monumento a Nicola Fabrizi, Vicolo Di Porta Albareto, Addizione Erculea, Centro Storico, Modena, MO, EMR, 41121, Italia","category":"attractions","type":"memorial","importance":0.19305532,"icon":"http://nominatim.openstreetmap.org/images/mapicons/tourist_monument.p.20.png","visiting_time":10.0,"opening_hours":null,"opening_days":null,"rating":0,"photo_url":null,"description":null,"www":null},{"place_id":"109939354","geometry":{"type":"Point","coordinates":[10.933646638,44.65149135]},"display_name":"Tempio monumentale San Giuseppe ai caduti in guerra, Piazza Natale Bruni, Addizione Erculea, Centro Storico, Modena, MO, EMR, 41121, Italia","category":"attractions","type":"monument","importance":0.101,"icon":"http://nominatim.openstreetmap.org/images/mapicons/tourist_monument.p.20.png","visiting_time":10.0,"opening_hours":null,"opening_days":null,"rating":0,"photo_url":null,"description":null,"www":null},{"place_id":"107920096","geometry":{"type":"Point","coordinates":[10.9199936,44.6429599]},"display_name":"Monumento a Vittorio Emanuele II, Piazzale Risorgimento Italiano, Quartiere Baggiovara, Centro Storico, Modena, MO, EMR, 41124, Italia","category":"attractions","type":"memorial","importance":0.101,"icon":"http://nominatim.openstreetmap.org/images/mapicons/tourist_monument.p.20.png","visiting_time":10.0,"opening_hours":null,"opening_days":null,"rating":0,"photo_url":null,"description":null,"www":null},{"place_id":"61774618","geometry":{"type":"Point","coordinates":[10.9426458,44.6524554]},"display_name":"Monumento ai Caduti Partigiani e del 9 Gennaio 1950, Strada Santa Caterina, Torrenova, Crocetta-San Lazzaro-Modena Est, Modena, MO, EMR, 41122, Italia","category":"attractions","type":"memorial","importance":0.101,"icon":"http://nominatim.openstreetmap.org/images/mapicons/tourist_monument.p.20.png","visiting_time":10.0,"opening_hours":null,"opening_days":null,"rating":0,"photo_url":null,"description":null,"www":null},{"place_id":"55286161","geometry":{"type":"Point","coordinates":[10.9266155,44.6417037]},"display_name":"Monumento ai Garibaldini, Viale Delle Rimembranze, Quartiere Saliceto, Centro Storico, Modena, MO, EMR, 41121, Italia","category":"attractions","type":"memorial","importance":0.101,"icon":"http://nominatim.openstreetmap.org/images/mapicons/tourist_monument.p.20.png","visiting_time":10.0,"opening_hours":null,"opening_days":null,"rating":0,"photo_url":null,"description":null,"www":null},{"place_id":"62373227","geometry":{"type":"Point","coordinates":[10.9272358,44.6470176]},"display_name":"Monumento a Giuseppe Mazzini, Piazza Giuseppe Mazzini, Quartiere Albareto, Centro Storico, Modena, MO, EMR, 41121, Italia","category":"attractions","type":"memorial","importance":0.101,"icon":"http://nominatim.openstreetmap.org/images/mapicons/tourist_monument.p.20.png","visiting_time":10.0,"opening_hours":null,"opening_days":null,"rating":0,"photo_url":null,"description":null,"www":null},{"place_id":"108422055","geometry":{"type":"Point","coordinates":[10.927818211,44.6486736]},"display_name":"Monumento alla Libertà, Piazza San Domenico, Addizione Erculea, Centro Storico, Modena, MO, EMR, 41121, Italia","category":"attractions","type":"memorial","importance":0.101,"icon":"http://nominatim.openstreetmap.org/images/mapicons/tourist_monument.p.20.png","visiting_time":10.0,"opening_hours":null,"opening_days":null,"rating":0,"photo_url":null,"description":null,"www":null},{"place_id":"57668178","geometry":{"type":"Point","coordinates":[10.8911224,44.670951]},"display_name":"Monumento ai Caduti, Strada Nuova di Freto, Tre Olmi, San Faustino-Madonnina-Quattroville, Modena, MO, EMR, 41123, Italia","category":"attractions","type":"memorial","importance":0.101,"icon":"http://nominatim.openstreetmap.org/images/mapicons/tourist_monument.p.20.png","visiting_time":10.0,"opening_hours":null,"opening_days":null,"rating":0,"photo_url":null,"description":null,"www":null},{"place_id":"58371633","geometry":{"type":"Point","coordinates":[10.9761153,44.6401603]},"display_name":"Monumento ai Caduti, Strada Montanara, Saliceto Panaro, Crocetta-San Lazzaro-Modena Est, Modena, MO, EMR, 41122, Italia","category":"attractions","type":"memorial","importance":0.101,"icon":"http://nominatim.openstreetmap.org/images/mapicons/tourist_monument.p.20.png","visiting_time":10.0,"opening_hours":null,"opening_days":null,"rating":0,"photo_url":null,"description":null,"www":null},{"place_id":"54211691","geometry":{"type":"Point","coordinates":[10.9268892,44.6317273]},"display_name":"Monumento alla Resistenza, Passeggiata Brigata Walter Tabacchi, Buon Pastore-Sant'Agnese-San Damaso, Modena, MO, EMR, 41125, Italia","category":"attractions","type":"memorial","importance":0.101,"icon":"http://nominatim.openstreetmap.org/images/mapicons/tourist_monument.p.20.png","visiting_time":10.0,"opening_hours":null,"opening_days":null,"rating":0,"photo_url":null,"description":null,"www":null},{"place_id":"111893293","geometry":{"type":"Point","coordinates":[10.928397391,44.64096755]},"display_name":"Monumento ai Caduti, Viale Delle Rimembranze, Quartiere Saliceto, Centro Storico, Modena, MO, EMR, 41121, Italia","category":"attractions","type":"memorial","importance":0.101,"icon":"http://nominatim.openstreetmap.org/images/mapicons/tourist_monument.p.20.png","visiting_time":10.0,"opening_hours":null,"opening_days":null,"rating":0,"photo_url":null,"description":null,"www":null},{"place_id":"1435529","geometry":{"type":"Point","coordinates":[10.9260931,44.6465232]},"display_name":"Monumento ad Alessandro Tassoni, Piazza Della Torre, Quartiere Cittanova, Centro Storico, Modena, MO, EMR, 41121, Italia","category":"attractions","type":"memorial","importance":0.101,"icon":"http://nominatim.openstreetmap.org/images/mapicons/tourist_monument.p.20.png","visiting_time":10.0,"opening_hours":null,"opening_days":null,"rating":0,"photo_url":null,"description":null,"www":null},{"place_id":"49667486","geometry":{"type":"Point","coordinates":[10.8057981,44.6514541]},"display_name":"Monumento ai Caduti, Strada Chiesa Marzaglia, Marzaglia, San Faustino-Madonnina-Quattroville, Modena, MO, EMR, 41123, Italia","category":"attractions","type":"memorial","importance":0.101,"icon":"http://nominatim.openstreetmap.org/images/mapicons/tourist_monument.p.20.png","visiting_time":10.0,"opening_hours":null,"opening_days":null,"rating":0,"photo_url":null,"description":null,"www":null},{"place_id":"55612428","geometry":{"type":"Point","coordinates":[10.915662,44.6538406]},"display_name":"Monumento ai Partigiani Caduti, Via Leopoldo Fregoli, Cittadella, Centro Storico, Modena, MO, EMR, 41121, Italia","category":"attractions","type":"memorial","importance":0.101,"icon":"http://nominatim.openstreetmap.org/images/mapicons/tourist_monument.p.20.png","visiting_time":10.0,"opening_hours":null,"opening_days":null,"rating":0,"photo_url":null,"description":null,"www":null},{"place_id":"59916125","geometry":{"type":"Point","coordinates":[10.9061837,44.6676695]},"display_name":"Monumento a Mauro Capitani, Stradello Mauro Capitani, San Pancrazio, San Faustino-Madonnina-Quattroville, Modena, MO, EMR, 41123, Italia","category":"attractions","type":"memorial","importance":0.101,"icon":"http://nominatim.openstreetmap.org/images/mapicons/tourist_monument.p.20.png","visiting_time":10.0,"opening_hours":null,"opening_days":null,"rating":0,"photo_url":null,"description":null,"www":null},{"place_id":"107815922","geometry":{"type":"Point","coordinates":[10.923097042,44.64799425]},