[{"place_id":"17245","geometry":{"type":"Point","coordinates":[10.892786586,44.16400411]},"display_name":"Chiesa di San Mamante di Lizzano in Belvedere,from:MIBACT","category":"attractions","type":"Chiesa","importance":0.7,"icon":"","visiting_time":0.0,"opening_hours":"ok","opening_days":"ok","rating":0,"photo_url":null,"description":null,"www":null},{"place_id":"6394","geometry":{"type":"Point","coordinates":[10.972888818,44.153493817]},"display_name":"Antiche terme (resti),from:MIBACT","category":"attractions","type":"Palazzo","importance":0.7,"icon":"","visiting_time":0.0,"opening_hours":"ok","opening_days":"ok","rating":0,"photo_url":null,"description":null,"www":"http://vincoliinrete.beniculturali.it/VincoliInRete/vir/bene/dettagliobene396982"},{"place_id":"6080","geometry":{"type":"Point","coordinates":[10.996931584,44.164885555]},"display_name":"Chiesa di Santa Maria Assunta di Casola dei Bagni,from:MIBACT","category":"attractions","type":"Chiesa","importance":0.4,"icon":"","visiting_time":0.0,"opening_hours":"ok","opening_days":"ok","rating":0,"photo_url":null,"description":null,"www":null},{"place_id":"6203","geometry":{"type":"Point","coordinates":[10.982703174,44.1299558]},"display_name":"Pieve dei Santi Giovanni Battista e Pietro Apostolo e pertinenze,from:MIBACT","category":"attractions","type":"Chiesa","importance":0.7,"icon":"","visiting_time":0.0,"opening_hours":"ok","opening_days":"ok","rating":0,"photo_url":null,"description":null,"www":"\"http://vincoliinrete.beniculturali.it/VincoliInRete/vir/bene/dettagliobene450241,http://vincoliinrete.beniculturali.it/VincoliInRete/vir/bene/dettagliobene141321\""},{"place_id":"6303","geometry":{"type":"Point","coordinates":[10.89213264,44.138778169]},"display_name":"Chiesa di S. Nicolò,from:MIBACT","category":"attractions","type":"Chiesa","importance":0.7,"icon":"","visiting_time":0.0,"opening_hours":"ok","opening_days":"ok","rating":0,"photo_url":null,"description":null,"www":"\"http://vincoliinrete.beniculturali.it/VincoliInRete/vir/bene/dettagliobene140046,http://vincoliinrete.beniculturali.it/VincoliInRete/vir/bene/dettagliobene565683\""},{"place_id":"6397","geometry":{"type":"Point","coordinates":[10.927209783,44.151050094]},"display_name":"Complesso di S.Maria Assunta,from:MIBACT","category":"attractions","type":"Chiesa","importance":0.7,"icon":"","visiting_time":0.0,"opening_hours":"ok","opening_days":"ok","rating":0,"photo_url":null,"description":null,"www":"http://vincoliinrete.beniculturali.it/VincoliInRete/vir/bene/dettagliobene141282"},{"place_id":"6398","geometry":{"type":"Point","coordinates":[10.897146591,44.127608975]},"display_name":"Santuario della Madonna del Faggio,from:MIBACT","category":"attractions","type":"Chiesa","importance":0.7,"icon":"","visiting_time":0.0,"opening_hours":"ok","opening_days":"ok","rating":0,"photo_url":null,"description":null,"www":"http://vincoliinrete.beniculturali.it/VincoliInRete/vir/bene/dettagliobene391787"},{"place_id":"19622","geometry":{"type":"Point","coordinates":[10.964470719,44.11741984]},"display_name":"Chiesa di San Nicolò,from:MIBACT","category":"attractions","type":"Chiesa","importance":0.7,"icon":"","visiting_time":0.0,"opening_hours":"ok","opening_days":"ok","rating":0,"photo_url":null,"description":null,"www":"http://vincoliinrete.beniculturali.it/VincoliInRete/vir/bene/dettagliobene217038"},{"place_id":"19624","geometry":{"type":"Point","coordinates":[10.960391519,44.108025205]},"display_name":"Santuario della Madonna di Calvigi,from:MIBACT","category":"attractions","type":"Chiesa","importance":0.7,"icon":"","visiting_time":0.0,"opening_hours":"ok","opening_days":"ok","rating":0,"photo_url":null,"description":null,"www":"http://vincoliinrete.beniculturali.it/VincoliInRete/vir/bene/dettagliobene347381"},{"place_id":"6395","geometry":{"type":"Point","coordinates":[10.950396118,44.156894346]},"display_name":"Chiesa di S. Michele Arcangelo e annessi oratorio del Crocifisso e canonica,from:MIBACT","category":"attractions","type":"Chiesa","importance":0.7,"icon":"","visiting_time":0.0,"opening_hours":"ok","opening_days":"ok","rating":0,"photo_url":null,"description":null,"www":"\"http://vincoliinrete.beniculturali.it/VincoliInRete/vir/bene/dettagliobene227604,http://vincoliinrete.beniculturali.it/VincoliInRete/vir/bene/dettagliobene216877,http://vincoliinrete.beniculturali.it/VincoliInRete/vir/bene/dettagliobene713599,http://vincoliinrete.beniculturali.it/VincoliInRete/vir/bene/dettagliobene141225\""},{"place_id":"6298","geometry":{"type":"Point","coordinates":[10.915379016,44.184509858]},"display_name":"Chiesa di S. Maria Assunta,from:MIBACT","category":"attractions","type":"Chiesa","importance":0.7,"icon":"","visiting_time":0.0,"opening_hours":"ok","opening_days":"ok","rating":0,"photo_url":null,"description":null,"www":"\"http://vincoliinrete.beniculturali.it/VincoliInRete/vir/bene/dettagliobene141252,http://vincoliinrete.beniculturali.it/VincoliInRete/vir/bene/dettagliobene565666\""},{"place_id":"6309","geometry":{"type":"Point","coordinates":[10.892631574,44.163795516]},"display_name":"Campanile e campana della Chiesa parrocchiale di S. Mamante,from:MIBACT","category":"attractions","type":"Chiesa","importance":0.7,"icon":"","visiting_time":0.0,"opening_hours":"ok","opening_days":"ok","rating":0,"photo_url":null,"description":null,"www":"http://vincoliinrete.beniculturali.it/VincoliInRete/vir/bene/dettagliobene600615"}]