[{"place_id":"44,34044160073120","geometry":{"type":"Point","coordinates":[11.205094745,44.340441601]},"display_name":"Comune di Marzabotto,from:IBC","category":"attractions","type":"HolderOfArchives","importance":0.0,"icon":"","visiting_time":0.0,"opening_hours":"ok","opening_days":"ok","rating":0,"photo_url":null,"description":null,"www":"http://www.comune.marzabotto.bo.it"},{"place_id":"44,34213982258170","geometry":{"type":"Point","coordinates":[11.206367638,44.342139823]},"display_name":"Biblioteca comunale,from:IBC","category":"attractions","type":"Library","importance":0.0,"icon":"","visiting_time":0.0,"opening_hours":"ok","opening_days":"ok","rating":0,"photo_url":null,"description":null,"www":"http://http://www.comune.marzabotto.bo.it/servizi/menu/dinamica.aspx?idArea=17075&idCat=17605&ID=176"},{"place_id":"44,31698778488700","geometry":{"type":"Point","coordinates":[11.257462861,44.316987785]},"display_name":"Biblioteca comunale Giorgio Celli di Vado - Sezione Ragazzi,from:IBC","category":"attractions","type":"Library","importance":0.0,"icon":"","visiting_time":0.0,"opening_hours":"ok","opening_days":"ok","rating":0,"photo_url":null,"description":null,"www":"http://dati.emilia-romagna.it/id/ibc/condition/IT-BO0528_orari"},{"place_id":"Una Quercia Monte San Pietro Ca' dei Cicchetti 139","geometry":{"type":"Point","coordinates":[11.15663511,44.38387075]},"display_name":"Una Quercia Monte San Pietro Ca' dei Cicchetti,from:IBC","category":"tree","type":"tree","importance":0.0,"icon":"","visiting_time":0.0,"opening_hours":"ok","opening_days":"ok","rating":0,"photo_url":"http://online.ibc.regione.emilia-romagna.it/mtrees/image/105.jpg","description":null,"www":null},{"place_id":"Una Quercia Sasso Marconi Borra 174","geometry":{"type":"Point","coordinates":[11.18313541,44.35280286]},"display_name":"Una Quercia Sasso Marconi Borra,from:IBC","category":"tree","type":"tree","importance":0.0,"icon":"","visiting_time":0.0,"opening_hours":"ok","opening_days":"ok","rating":0,"photo_url":"http://online.ibc.regione.emilia-romagna.it/mtrees/image/99.jpg","description":null,"www":null},{"place_id":"Una Quercia Monte San Pietro Bivio Via Rasilio 224","geometry":{"type":"Point","coordinates":[11.15940462,44.38100955]},"display_name":"Una Quercia Monte San Pietro Bivio Via Rasilio,from:IBC","category":"tree","type":"tree","importance":0.0,"icon":"","visiting_time":0.0,"opening_hours":"ok","opening_days":"ok","rating":0,"photo_url":"http://online.ibc.regione.emilia-romagna.it/mtrees/image/104.jpg","description":null,"www":null},{"place_id":"Una Quercia Monte San Pietro Ca' dei Cicchetti 269","geometry":{"type":"Point","coordinates":[11.15556253,44.38406207]},"display_name":"Una Quercia Monte San Pietro Ca' dei Cicchetti,from:IBC","category":"tree","type":"tree","importance":0.0,"icon":"","visiting_time":0.0,"opening_hours":"ok","opening_days":"ok","rating":0,"photo_url":"http://online.ibc.regione.emilia-romagna.it/mtrees/image/106.jpg","description":null,"www":null},{"place_id":"Una Quercia Grizzana Morandi Pioppe di Salvaro Capossena 391","geometry":{"type":"Point","coordinates":[11.16553246,44.29966239]},"display_name":"Una Quercia Grizzana Morandi Pioppe di Salvaro Capossena,from:IBC","category":"tree","type":"tree","importance":0.0,"icon":"","visiting_time":0.0,"opening_hours":"ok","opening_days":"ok","rating":0,"photo_url":"http://online.ibc.regione.emilia-romagna.it/mtrees/image/77.jpg","description":null,"www":null},{"place_id":"Una Quercia Sasso Marconi Borra 572","geometry":{"type":"Point","coordinates":[11.18283367,44.35244852]},"display_name":"Una Quercia Sasso Marconi Borra,from:IBC","category":"tree","type":"tree","importance":0.0,"icon":"","visiting_time":0.0,"opening_hours":"ok","opening_days":"ok","rating":0,"photo_url":"http://online.ibc.regione.emilia-romagna.it/mtrees/image/5645.jpg","description":null,"www":null}]