[{"place_id":"19243","geometry":{"type":"Point","coordinates":[12.182722669,43.960767992]},"display_name":"Chiesa di Sant'Andrea Apostolo in Montesasso,from:MIBACT","category":"attractions","type":"Chiesa","importance":0.4,"icon":"","visiting_time":0.0,"opening_hours":"ok","opening_days":"ok","rating":0,"photo_url":null,"description":null,"www":null},{"place_id":"19238","geometry":{"type":"Point","coordinates":[12.240911917,44.029895699]},"display_name":"Torre dell'Orologio,from:MIBACT","category":"attractions","type":"Torre","importance":0.4,"icon":"","visiting_time":0.0,"opening_hours":"ok","opening_days":"ok","rating":0,"photo_url":null,"description":null,"www":null},{"place_id":"19564","geometry":{"type":"Point","coordinates":[12.350978383,43.999900261]},"display_name":"Chiesa di San Giovanni in Galilea,from:MIBACT","category":"attractions","type":"Chiesa","importance":0.3,"icon":"","visiting_time":0.0,"opening_hours":"ok","opening_days":"ok","rating":0,"photo_url":null,"description":null,"www":null},{"place_id":"19562","geometry":{"type":"Point","coordinates":[12.264448153,43.993605556]},"display_name":"Chiesa della Sacra Famiglia,from:MIBACT","category":"attractions","type":"Chiesa","importance":0.3,"icon":"","visiting_time":0.0,"opening_hours":"ok","opening_days":"ok","rating":0,"photo_url":null,"description":null,"www":null},{"place_id":"17267","geometry":{"type":"Point","coordinates":[12.301434106,44.005045705]},"display_name":"\"Teatro comunale \"\"Elisabetta Turroni\"\"\",from:MIBACT","category":"attractions","type":"Teatro","importance":0.3,"icon":"","visiting_time":0.0,"opening_hours":"ok","opening_days":"ok","rating":0,"photo_url":null,"description":null,"www":null},{"place_id":"16123","geometry":{"type":"Point","coordinates":[12.302398875,44.005238175]},"display_name":"Chiesa di S. Lorenzo Martire,from:MIBACT","category":"attractions","type":"Chiesa","importance":0.7,"icon":"","visiting_time":0.0,"opening_hours":"ok","opening_days":"ok","rating":0,"photo_url":null,"description":null,"www":"http://vincoliinrete.beniculturali.it/VincoliInRete/vir/bene/dettagliobene19253"},{"place_id":"7841","geometry":{"type":"Point","coordinates":[12.35043203,43.999778352]},"display_name":"Museo Renzi,from:MIBACT","category":"attractions","type":"Palazzo","importance":0.9,"icon":"","visiting_time":0.0,"opening_hours":"ok","opening_days":"ok","rating":0,"photo_url":null,"description":null,"www":"\"http://vincoliinrete.beniculturali.it/VincoliInRete/vir/bene/dettagliobene412286,http://vincoliinrete.beniculturali.it/VincoliInRete/vir/bene/dettagliobene19242\""},{"place_id":"9154","geometry":{"type":"Point","coordinates":[12.196913329,43.957012603]},"display_name":"Chiesa della Madonna della Vita,from:MIBACT","category":"attractions","type":"Chiesa","importance":0.7,"icon":"","visiting_time":0.0,"opening_hours":"ok","opening_days":"ok","rating":0,"photo_url":null,"description":null,"www":"\"http://vincoliinrete.beniculturali.it/VincoliInRete/vir/bene/dettagliobene431012,http://vincoliinrete.beniculturali.it/VincoliInRete/vir/bene/dettagliobene91052\""},{"place_id":"19240","geometry":{"type":"Point","coordinates":[12.195948078,43.956268621]},"display_name":"Chiesa di Santa Maria Nuova,from:MIBACT","category":"attractions","type":"Chiesa","importance":0.7,"icon":"","visiting_time":0.0,"opening_hours":"ok","opening_days":"ok","rating":0,"photo_url":null,"description":null,"www":null},{"place_id":"17706","geometry":{"type":"Point","coordinates":[12.197645915,43.957541353]},"display_name":"Chiesa della Madonna del Ponte,from:MIBACT","category":"attractions","type":"Chiesa","importance":0.7,"icon":"","visiting_time":0.0,"opening_hours":"ok","opening_days":"ok","rating":0,"photo_url":null,"description":null,"www":null},{"place_id":"13945","geometry":{"type":"Point","coordinates":[12.325169653,43.931224099]},"display_name":"Complesso parrocchiale di S. Maria Assunta di Secchiano,from:MIBACT","category":"attractions","type":"Chiesa","importance":0.7,"icon":"","visiting_time":0.0,"opening_hours":"ok","opening_days":"ok","rating":0,"photo_url":null,"description":null,"www":null},{"place_id":"18610","geometry":{"type":"Point","coordinates":[12.350087968,44.000387789]},"display_name":"Resti del Torrione e della Rocca Malatestiana,from:MIBACT","category":"attractions","type":"Rocca","importance":0.4,"icon":"","visiting_time":0.0,"opening_hours":"ok","opening_days":"ok","rating":0,"photo_url":null,"description":null,"www":"http://vincoliinrete.beniculturali.it/VincoliInRete/vir/bene/dettagliobene559041"},{"place_id":"19239","geometry":{"type":"Point","coordinates":[12.241899712,44.029676223]},"display_name":"Chiesa di Santa Maria Liberatrice in Montecodruzzo,from:MIBACT","category":"attractions","type":"Chiesa","importance":0.7,"icon":"","visiting_time":0.0,"opening_hours":"ok","opening_days":"ok","rating":0,"photo_url":null,"description":null,"www":null},{"place_id":"19242","geometry":{"type":"Point","coordinates":[12.197310317,43.957431467]},"display_name":"Resti del ponte vecchio,from:MIBACT","category":"attractions","type":"Ponte","importance":0.7,"icon":"","visiting_time":0.0,"opening_hours":"ok","opening_days":"ok","rating":0,"photo_url":null,"description":null,"www":null},{"place_id":"8649","geometry":{"type":"Point","coordinates":[12.275494533,43.951648221]},"display_name":"Abbazia di Montetiffi,from:MIBACT","category":"attractions","type":"Chiesa","importance":0.4,"icon":"","visiting_time":0.0,"opening_hours":"ok","opening_days":"ok","rating":0,"photo_url":null,"description":null,"www":"\"http://vincoliinrete.beniculturali.it/VincoliInRete/vir/bene/dettagliobene212749,http://vincoliinrete.beniculturali.it/VincoliInRete/vir/bene/dettagliobene88957\""},{"place_id":"18611","geometry":{"type":"Point","coordinates":[12.264249727,43.993560997]},"display_name":"Ruderi del castello di Strigara,from:MIBACT","category":"attractions","type":"Rocca","importance":0.7,"icon":"","visiting_time":0.0,"opening_hours":"ok","opening_days":"ok","rating":0,"photo_url":null,"description":null,"www":null}]