[{"place_id":"44,22517041361050","geometry":{"type":"Point","coordinates":[11.531699957,44.225170414]},"display_name":"Comune di Fontanelice,from:IBC","category":"attractions","type":"HolderOfArchives","importance":0.0,"icon":"","visiting_time":0.0,"opening_hours":"ok","opening_days":"ok","rating":0,"photo_url":null,"description":null,"www":"http://www.comune.fontanelice.bo.it"},{"place_id":"44,22346580249660","geometry":{"type":"Point","coordinates":[11.623109425,44.223465802]},"display_name":"Comune di Casola Valsenio,from:IBC","category":"attractions","type":"HolderOfArchives","importance":0.0,"icon":"","visiting_time":0.0,"opening_hours":"ok","opening_days":"ok","rating":0,"photo_url":null,"description":null,"www":"http://www.comune.casolavalsenio.ra.it"},{"place_id":"44,29762393815610","geometry":{"type":"Point","coordinates":[11.616861209,44.297623938]},"display_name":"Comune di Casalfiumanese,from:IBC","category":"attractions","type":"HolderOfArchives","importance":0.0,"icon":"","visiting_time":0.0,"opening_hours":"ok","opening_days":"ok","rating":0,"photo_url":null,"description":null,"www":"http://www.casalfiumanese.provincia.bologna.it"},{"place_id":"44,27737923202520","geometry":{"type":"Point","coordinates":[11.589140955,44.277379232]},"display_name":"Comune di Borgo Tossignano,from:IBC","category":"attractions","type":"HolderOfArchives","importance":0.0,"icon":"","visiting_time":0.0,"opening_hours":"ok","opening_days":"ok","rating":0,"photo_url":null,"description":null,"www":"http://www.comune.borgotossignano.bo.it"},{"place_id":"44,25910141775020","geometry":{"type":"Point","coordinates":[11.560121584,44.259101418]},"display_name":"Biblioteca comunale La Fonte,from:IBC","category":"attractions","type":"Library","importance":0.0,"icon":"","visiting_time":0.0,"opening_hours":"ok","opening_days":"ok","rating":0,"photo_url":null,"description":null,"www":"http://dati.emilia-romagna.it/id/ibc/condition/IT-BO0192_orari"},{"place_id":"44,27811761199550","geometry":{"type":"Point","coordinates":[11.597594483,44.278117612]},"display_name":"Biblioteca comunale Mario Visani,from:IBC","category":"attractions","type":"Library","importance":0.0,"icon":"","visiting_time":0.0,"opening_hours":"ok","opening_days":"ok","rating":0,"photo_url":null,"description":null,"www":"http://www.comune.borgotossignano.bo.it/biblio.htm"},{"place_id":"44,22325059441070","geometry":{"type":"Point","coordinates":[11.623937145,44.223250594]},"display_name":"Biblioteca comunale Giuseppe Pittàno,from:IBC","category":"attractions","type":"Library","importance":0.0,"icon":"","visiting_time":0.0,"opening_hours":"ok","opening_days":"ok","rating":0,"photo_url":null,"description":null,"www":"http://www.comune.casolavalsenio.ra.it"},{"place_id":"44,29812712406920","geometry":{"type":"Point","coordinates":[11.618963669,44.298127124]},"display_name":"Biblioteca comunale,from:IBC","category":"attractions","type":"Library","importance":0.0,"icon":"","visiting_time":0.0,"opening_hours":"ok","opening_days":"ok","rating":0,"photo_url":null,"description":null,"www":"http://dati.emilia-romagna.it/id/ibc/condition/IT-BO0178_orari"},{"place_id":"44,35885830507290","geometry":{"type":"Point","coordinates":[11.627893587,44.358858305]},"display_name":"Museo della Rocca di Dozza,from:IBC","category":"attractions","type":"Museum","importance":0.0,"icon":"","visiting_time":0.0,"opening_hours":"ok","opening_days":"ok","rating":0,"photo_url":null,"description":null,"www":"http://dati.emilia-romagna.it/id/ibc/condition/IT-ER-BO040"},{"place_id":"44,26005562103310","geometry":{"type":"Point","coordinates":[11.559922466,44.260055621]},"display_name":"Museo Archivio Mengoni,from:IBC","category":"attractions","type":"Museum","importance":0.0,"icon":"","visiting_time":0.0,"opening_hours":"ok","opening_days":"ok","rating":0,"photo_url":null,"description":null,"www":"http://dati.emilia-romagna.it/id/ibc/condition/IT-ER-BO037"},{"place_id":"44,27227988229160","geometry":{"type":"Point","coordinates":[11.603223049,44.272279882]},"display_name":"Centro Visite I Gessi e il Fiume,from:IBC","category":"attractions","type":"Museum","importance":0.0,"icon":"","visiting_time":0.0,"opening_hours":"ok","opening_days":"ok","rating":0,"photo_url":null,"description":null,"www":"http://www.ecosistema.it/gessifiume/1000.htm"},{"place_id":"44,23364209193180","geometry":{"type":"Point","coordinates":[11.635096502,44.233642092]},"display_name":"Il Cardello,from:IBC","category":"attractions","type":"Museum","importance":0.0,"icon":"","visiting_time":0.0,"opening_hours":"ok","opening_days":"ok","rating":0,"photo_url":null,"description":null,"www":"http://www.fondazionecasadioriani.it/"},{"place_id":"44,23251394258340","geometry":{"type":"Point","coordinates":[11.615304774,44.232513943]},"display_name":"Giardino delle Erbe A. Rinaldi Ceroni,from:IBC","category":"attractions","type":"Museum","importance":0.0,"icon":"","visiting_time":0.0,"opening_hours":"ok","opening_days":"ok","rating":0,"photo_url":null,"description":null,"www":"http://www.ilgiardinodelleerbe.it"},{"place_id":"44,27227988229160","geometry":{"type":"Point","coordinates":[11.603223049,44.272279882]},"display_name":"Museo della Cultura Materiale,from:IBC","category":"attractions","type":"Museum","importance":0.0,"icon":"","visiting_time":0.0,"opening_hours":"ok","opening_days":"ok","rating":0,"photo_url":null,"description":null,"www":"http://dati.emilia-romagna.it/id/ibc/condition/IT-ER-BO035"},{"place_id":"Una Quercia Monterenzio Via Cà dei Masi 395","geometry":{"type":"Point","coordinates":[11.45543357,44.33153958]},"display_name":"Una Quercia Monterenzio Via Cà dei Masi,from:IBC","category":"tree","type":"tree","importance":0.0,"icon":"","visiting_time":0.0,"opening_hours":"ok","opening_days":"ok","rating":0,"photo_url":"http://online.ibc.regione.emilia-romagna.it/mtrees/image/121.jpg","description":null,"www":null},{"place_id":"Una Roverella Casola Valsenio Via Macello 427","geometry":{"type":"Point","coordinates":[11.62374204,44.22635396]},"display_name":"Una Roverella Casola Valsenio Via Macello,from:IBC","category":"tree","type":"tree","importance":0.0,"icon":"","visiting_time":0.0,"opening_hours":"ok","opening_days":"ok","rating":0,"photo_url":"http://online.ibc.regione.emilia-romagna.it/mtrees/image/1170.jpg","description":null,"www":null},{"place_id":"Un Leccio Dozza Via Monte del Re 464","geometry":{"type":"Point","coordinates":[11.60345147,44.35771548]},"display_name":"Un Leccio Dozza Via Monte del Re,from:IBC","category":"tree","type":"tree","importance":0.0,"icon":"","visiting_time":0.0,"opening_hours":"ok","opening_days":"ok","rating":0,"photo_url":"http://online.ibc.regione.emilia-romagna.it/mtrees/image/64.jpg","description":null,"www":null},{"place_id":"Una Quercia Fontanelice Fornione (Cà di Maranelli) 749","geometry":{"type":"Point","coordinates":[11.54432831,44.23506546]},"display_name":"Una Quercia Fontanelice Fornione (Cà di Maranelli),from:IBC","category":"tree","type":"tree","importance":0.0,"icon":"","visiting_time":0.0,"opening_hours":"ok","opening_days":"ok","rating":0,"photo_url":"http://online.ibc.regione.emilia-romagna.it/mtrees/image/67.jpg","description":null,"www":null},{"place_id":"Un Tasso Borgo Tossignano Via Chiusa 773","geometry":{"type":"Point","coordinates":[11.61783545,44.28481736]},"display_name":"Un Tasso Borgo Tossignano Via Chiusa,from:IBC","category":"tree","type":"tree","importance":0.0,"icon":"","visiting_time":0.0,"opening_hours":"ok","opening_days":"ok","rating":0,"photo_url":"http://online.ibc.regione.emilia-romagna.it/mtrees/image/32.jpg","description":null,"www":null},{"place_id":"Una Quercia Borgo Tossignano Campiuno Ca' Querceto 892","geometry":{"type":"Point","coordinates":[11.61604401,44.2591471]},"display_name":"Una Quercia Borgo Tossignano Campiuno Ca' Querceto,from:IBC","category":"tree","type":"tree","importance":0.0,"icon":"","visiting_time":0.0,"opening_hours":"ok","opening_days":"ok","rating":0,"photo_url":"http://online.ibc.regione.emilia-romagna.it/mtrees/image/6644.12.06.pdf","description":null,"www":null},{"place_id":"Una Quercia Monterenzio S. Benedetto del Querceto 941","geometry":{"type":"Point","coordinates":[11.48910143,44.25213673]},"display_name":"Una Quercia Monterenzio S. Benedetto del Querceto,from:IBC","category":"tree","type":"tree","importance":0.0,"icon":"","visiting_time":0.0,"opening_hours":"ok","opening_days":"ok","rating":0,"photo_url":"http://online.ibc.regione.emilia-romagna.it/mtrees/image/6642.12.06.pdf","description":null,"www":null}]