[{"place_id":"17691","geometry":{"type":"Point","coordinates":[10.491436077,44.347383146]},"display_name":"Chiesa di San Prospero Vescovo,from:MIBACT","category":"attractions","type":"Chiesa","importance":0.4,"icon":"","visiting_time":0.0,"opening_hours":"ok","opening_days":"ok","rating":0,"photo_url":null,"description":null,"www":null},{"place_id":"4859","geometry":{"type":"Point","coordinates":[10.475565937,44.278082234]},"display_name":"Chiesa Parrocchiale della SS. Annunziata e relative pertinenze,from:MIBACT","category":"attractions","type":"Chiesa","importance":0.4,"icon":"","visiting_time":0.0,"opening_hours":"ok","opening_days":"ok","rating":0,"photo_url":null,"description":null,"www":"http://vincoliinrete.beniculturali.it/VincoliInRete/vir/bene/dettagliobene216675"},{"place_id":"4835","geometry":{"type":"Point","coordinates":[10.507052576,44.35513278]},"display_name":"Chiesa Parrocchiale di S. Maria Assunta,from:MIBACT","category":"attractions","type":"Chiesa","importance":0.4,"icon":"","visiting_time":0.0,"opening_hours":"ok","opening_days":"ok","rating":0,"photo_url":null,"description":null,"www":"\"http://vincoliinrete.beniculturali.it/VincoliInRete/vir/bene/dettagliobene137575,http://vincoliinrete.beniculturali.it/VincoliInRete/vir/bene/dettagliobene600400\""},{"place_id":"4856","geometry":{"type":"Point","coordinates":[10.486176065,44.265478799]},"display_name":"Torre detta degli Amorotti,from:MIBACT","category":"attractions","type":"Torre","importance":0.7,"icon":"","visiting_time":0.0,"opening_hours":"ok","opening_days":"ok","rating":0,"photo_url":null,"description":null,"www":"http://vincoliinrete.beniculturali.it/VincoliInRete/vir/bene/dettagliobene272649"},{"place_id":"13056","geometry":{"type":"Point","coordinates":[10.432991035,44.357151721]},"display_name":"Avanzi del Castello di Minozzo,from:MIBACT","category":"attractions","type":"Rocca","importance":0.7,"icon":"","visiting_time":0.0,"opening_hours":"ok","opening_days":"ok","rating":0,"photo_url":null,"description":null,"www":"http://vincoliinrete.beniculturali.it/VincoliInRete/vir/bene/dettagliobene279504"}]