[{"place_id":"44,61970269398970","geometry":{"type":"Point","coordinates":[10.601965061,44.619702694]},"display_name":"Comune di Albinea,from:IBC","category":"attractions","type":"HolderOfArchives","importance":0.0,"icon":"","visiting_time":0.0,"opening_hours":"ok","opening_days":"ok","rating":0,"photo_url":null,"description":null,"www":"http://biblioteche.provincia.re.it/albinea"},{"place_id":"44,61970269398970","geometry":{"type":"Point","coordinates":[10.601965061,44.619702694]},"display_name":"Comune di Albinea,from:IBC","category":"attractions","type":"HolderOfArchives","importance":0.0,"icon":"","visiting_time":0.0,"opening_hours":"ok","opening_days":"ok","rating":0,"photo_url":null,"description":null,"www":"http://www.comune.albinea.re.it"},{"place_id":"44,62021659227960","geometry":{"type":"Point","coordinates":[10.601573026,44.620216592]},"display_name":"Biblioteca comunale Pablo Neruda,from:IBC","category":"attractions","type":"Library","importance":0.0,"icon":"","visiting_time":0.0,"opening_hours":"ok","opening_days":"ok","rating":0,"photo_url":null,"description":null,"www":"http://www.comune.albinea.re.it/Sezione.jsp?idSezione=70&idSezioneRif=19"},{"place_id":"44,62021659227960","geometry":{"type":"Point","coordinates":[10.601573026,44.620216592]},"display_name":"Biblioteca comunale Pablo Neruda,from:IBC","category":"attractions","type":"Library","importance":0.0,"icon":"","visiting_time":0.0,"opening_hours":"ok","opening_days":"ok","rating":0,"photo_url":null,"description":null,"www":"http://biblioteche.provincia.re.it/albinea"},{"place_id":"Un Azzarolo Albinea Borzano Via Franchetti 29","geometry":{"type":"Point","coordinates":[10.62464406,44.59499362]},"display_name":"Un Azzarolo Albinea Borzano Via Franchetti,from:IBC","category":"tree","type":"tree","importance":0.0,"icon":"","visiting_time":0.0,"opening_hours":"ok","opening_days":"ok","rating":0,"photo_url":"http://online.ibc.regione.emilia-romagna.it/mtrees/image/2425.jpg","description":null,"www":null},{"place_id":"Una Quercia Albinea Botteghe Via Chiesa, 58 40","geometry":{"type":"Point","coordinates":[10.59145481,44.62761714]},"display_name":"Una Quercia Albinea Botteghe Via Chiesa, 58,from:IBC","category":"tree","type":"tree","importance":0.0,"icon":"","visiting_time":0.0,"opening_hours":"ok","opening_days":"ok","rating":0,"photo_url":"http://online.ibc.regione.emilia-romagna.it/mtrees/image/2435.jpg","description":null,"www":null},{"place_id":"Un Cerro Albinea Borzano Via Mattaiano, 7 523","geometry":{"type":"Point","coordinates":[10.63733487,44.5883937]},"display_name":"Un Cerro Albinea Borzano Via Mattaiano, 7,from:IBC","category":"tree","type":"tree","importance":0.0,"icon":"","visiting_time":0.0,"opening_hours":"ok","opening_days":"ok","rating":0,"photo_url":"http://online.ibc.regione.emilia-romagna.it/mtrees/image/2429.jpg","description":null,"www":null},{"place_id":"Una Farnia Sant'Agata sul Santerno Via Bachelet 534","geometry":{"type":"Point","coordinates":[10.6243135,44.59579053]},"display_name":"Una Farnia Sant'Agata sul Santerno Via Bachelet,from:IBC","category":"tree","type":"tree","importance":0.0,"icon":"","visiting_time":0.0,"opening_hours":"ok","opening_days":"ok","rating":0,"photo_url":"http://online.ibc.regione.emilia-romagna.it/mtrees/image/6650.12.06.pdf","description":null,"www":null},{"place_id":"Una Rovere Albinea Montericco Via Garibaldi 618","geometry":{"type":"Point","coordinates":[10.59178777,44.59967851]},"display_name":"Una Rovere Albinea Montericco Via Garibaldi,from:IBC","category":"tree","type":"tree","importance":0.0,"icon":"","visiting_time":0.0,"opening_hours":"ok","opening_days":"ok","rating":0,"photo_url":"http://online.ibc.regione.emilia-romagna.it/mtrees/image/2433.jpg","description":null,"www":null},{"place_id":"Una Roverella Canossa Borzano 744","geometry":{"type":"Point","coordinates":[10.63659576,44.60334807]},"display_name":"Una Roverella Canossa Borzano,from:IBC","category":"tree","type":"tree","importance":0.0,"icon":"","visiting_time":0.0,"opening_hours":"ok","opening_days":"ok","rating":0,"photo_url":"http://online.ibc.regione.emilia-romagna.it/mtrees/image/2405.jpg","description":null,"www":null},{"place_id":"Una Rovere Albinea Montericco Via Garibaldi 950","geometry":{"type":"Point","coordinates":[10.59193265,44.60036967]},"display_name":"Una Rovere Albinea Montericco Via Garibaldi,from:IBC","category":"tree","type":"tree","importance":0.0,"icon":"","visiting_time":0.0,"opening_hours":"ok","opening_days":"ok","rating":0,"photo_url":"http://online.ibc.regione.emilia-romagna.it/mtrees/image/2431.jpg","description":null,"www":null}]