[{"place_id":"713793","geometry":{"type":"Point","coordinates":[12.243707,44.1388386]},"display_name":"Biblioteca Malatestiana, 1, Piazza Maurizio Bufalini, Quartiere Centro Urbano, Cesena, FC, EMR, 47023, Italia","category":"attractions","type":"attraction","importance":0.3013007,"icon":"http://nominatim.openstreetmap.org/images/mapicons/poi_point_of_interest.p.20.png","visiting_time":30.0,"opening_hours":null,"opening_days":null,"rating":0,"photo_url":null,"description":null,"www":null},{"place_id":"178196668","geometry":{"type":"Point","coordinates":[12.24013506,44.1364389]},"display_name":"Rocca Malatestiana, Via Cia degli Ordelaffi, Quartiere Centro Urbano, Cesena, FC, EMR, 47023, Italia","category":"attractions","type":"attraction","importance":0.23050715,"icon":"http://nominatim.openstreetmap.org/images/mapicons/poi_point_of_interest.p.20.png","visiting_time":30.0,"opening_hours":null,"opening_days":null,"rating":0,"photo_url":null,"description":null,"www":null},{"place_id":"148850973","geometry":{"type":"Point","coordinates":[12.242075293,44.137132]},"display_name":"Fontana Masini, Piazza del Popolo, Quartiere Centro Urbano, Cesena, FC, EMR, 47023, Italia","category":"attractions","type":"attraction","importance":0.1667999,"icon":"http://nominatim.openstreetmap.org/images/mapicons/poi_point_of_interest.p.20.png","visiting_time":30.0,"opening_hours":null,"opening_days":null,"rating":0,"photo_url":null,"description":null,"www":null},{"place_id":"46947141","geometry":{"type":"Point","coordinates":[12.1335523,44.1494176]},"display_name":"Piazza Libertà, Bertinoro, FC, EMR, 47032, Italia","category":"attractions","type":"viewpoint","importance":0.001,"icon":"http://nominatim.openstreetmap.org/images/mapicons/tourist_view_point.p.20.png","visiting_time":10.0,"opening_hours":null,"opening_days":null,"rating":0,"photo_url":null,"description":null,"www":null},{"place_id":"53659164","geometry":{"type":"Point","coordinates":[12.3190844,44.0421391]},"display_name":"Via Porta Pia, Roncofreddo, FC, EMR, Italia","category":"attractions","type":"viewpoint","importance":0.001,"icon":"http://nominatim.openstreetmap.org/images/mapicons/tourist_view_point.p.20.png","visiting_time":10.0,"opening_hours":null,"opening_days":null,"rating":0,"photo_url":null,"description":null,"www":null},{"place_id":"29480262","geometry":{"type":"Point","coordinates":[12.227123,44.1503501]},"display_name":"Via Fausto Coppi, Quartiere Oltre Savio, Cesena, FC, EMR, 47522, Italia","category":"eating","type":"fast_food","importance":0.001,"icon":"http://nominatim.openstreetmap.org/images/mapicons/food_fastfood.p.20.png","visiting_time":30.0,"opening_hours":null,"opening_days":null,"rating":0,"photo_url":null,"description":null,"www":null},{"place_id":"8457552","geometry":{"type":"Point","coordinates":[12.2825401,44.1691623]},"display_name":"McDonald's, Via Cervese, Quartiere Cervese Sud, Cesena, FC, EMR, 47521, Italia","category":"eating","type":"fast_food","importance":0.001,"icon":"http://nominatim.openstreetmap.org/images/mapicons/food_fastfood.p.20.png","visiting_time":30.0,"opening_hours":null,"opening_days":null,"rating":0,"photo_url":null,"description":null,"www":null},{"place_id":"111268354","geometry":{"type":"Point","coordinates":[12.228559394,44.13236455]},"display_name":"Via Giuseppe Belletti, Quartiere Oltre Savio, Cesena, FC, EMR, 47522, Italia","category":"eating","type":"fast_food","importance":0.001,"icon":"http://nominatim.openstreetmap.org/images/mapicons/food_fastfood.p.20.png","visiting_time":30.0,"opening_hours":null,"opening_days":null,"rating":0,"photo_url":null,"description":null,"www":null},{"place_id":"1516337","geometry":{"type":"Point","coordinates":[12.2623039,44.1368735]},"display_name":"McDonald's, Via Salvatore Di Giacomo, Quartiere Fiorenzuola, Cesena, FC, EMR, 47521, Italia","category":"eating","type":"fast_food","importance":0.001,"icon":"http://nominatim.openstreetmap.org/images/mapicons/food_fastfood.p.20.png","visiting_time":30.0,"opening_hours":null,"opening_days":null,"rating":0,"photo_url":null,"description":null,"www":null},{"place_id":"104193302","geometry":{"type":"Point","coordinates":[12.229700277,44.14064175]},"display_name":"Viale Giacomo Matteotti, Quartiere Oltre Savio, Cesena, FC, EMR, 47522, Italia","category":"eating","type":"fast_food","importance":0.001,"icon":"http://nominatim.openstreetmap.org/images/mapicons/food_fastfood.p.20.png","visiting_time":30.0,"opening_hours":null,"opening_days":null,"rating":0,"photo_url":null,"description":null,"www":null},{"place_id":"85894933","geometry":{"type":"Point","coordinates":[12.249175573,44.1373967]},"display_name":"Piadina, Via Mura Eugenio Valzania, Quartiere Centro Urbano, Cesena, FC, EMR, 47023, Italia","category":"eating","type":"fast_food","importance":0.001,"icon":"http://nominatim.openstreetmap.org/images/mapicons/food_fastfood.p.20.png","visiting_time":30.0,"opening_hours":null,"opening_days":null,"rating":0,"photo_url":null,"description":null,"www":null},{"place_id":"17169892","geometry":{"type":"Point","coordinates":[12.2446507,44.1266047]},"display_name":"Via Padre Giovanni Genocchi, Quartiere Cesuola, Cesena, FC, EMR, 47023, Italia","category":"eating","type":"fast_food","importance":0.001,"icon":"http://nominatim.openstreetmap.org/images/mapicons/food_fastfood.p.20.png","visiting_time":30.0,"opening_hours":null,"opening_days":null,"rating":0,"photo_url":null,"description":null,"www":null},{"place_id":"16175192","geometry":{"type":"Point","coordinates":[12.2708005,44.1424591]},"display_name":"Piadineria, Via Giorgio Ambrosoli, Case Frini, Quartiere Fiorenzuola, Cesena, FC, EMR, 47521, Italia","category":"eating","type":"fast_food","importance":0.001,"icon":"http://nominatim.openstreetmap.org/images/mapicons/food_fastfood.p.20.png","visiting_time":30.0,"opening_hours":null,"opening_days":null,"rating":0,"photo_url":null,"description":null,"www":null},{"place_id":"23931336","geometry":{"type":"Point","coordinates":[12.2417182,44.1448386]},"display_name":"Eat Burger, 647, Viale Europa, Quartiere Centro Urbano, Cesena, FC, EMR, 47521, Italia","category":"eating","type":"fast_food","importance":0.001,"icon":"http://nominatim.openstreetmap.org/images/mapicons/food_fastfood.p.20.png","visiting_time":30.0,"opening_hours":null,"opening_days":null,"rating":0,"photo_url":null,"description":null,"www":null},{"place_id":"45193163","geometry":{"type":"Point","coordinates":[12.1928073,44.0887872]},"display_name":"Via Castiglione, Quartiere Valle Savio, Cesena, FC, EMR, Italia","category":"eating","type":"fast_food","importance":0.001,"icon":"http://nominatim.openstreetmap.org/images/mapicons/food_fastfood.p.20.png","visiting_time":30.0,"opening_hours":null,"opening_days":null,"rating":0,"photo_url":null,"description":null,"www":null},{"place_id":"24232797","geometry":{"type":"Point","coordinates":[12.2453621,44.1404498]},"display_name":"La Piadina di Stefano e Mascia, 5, Viale Gaspare Finali, Quartiere Centro Urbano, Cesena, FC, EMR, 47521, Italia","category":"eating","type":"fast_food","importance":0.001,"icon":"http://nominatim.openstreetmap.org/images/mapicons/food_fastfood.p.20.png","visiting_time":30.0,"opening_hours":null,"opening_days":null,"rating":0,"photo_url":null,"description":null,"www":null},{"place_id":"45535865","geometry":{"type":"Point","coordinates":[12.3284756,44.209156]},"display_name":"Chiosco di piadina Claudia & Marilena, Via Bollana, Cervia, RA, EMR, 48015, Italia","category":"eating","type":"fast_food","importance":0.001,"icon":"http://nominatim.openstreetmap.org/images/mapicons/food_fastfood.p.20.png","visiting_time":30.0,"opening_hours":null,"opening_days":null,"rating":0,"photo_url":null,"description":null,"www":null},{"place_id":"12261361","geometry":{"type":"Point","coordinates":[12.1065069,44.1942326]},"display_name":"America Graffiti, 1387, Via Emilia, San Leonardo, Forlimpopoli, FC, EMR, 47034, Italia","category":"eating","type":"fast_food","importance":0.001,"icon":"http://nominatim.openstreetmap.org/images/mapicons/food_fastfood.p.20.png","visiting_time":30.0,"opening_hours":null,"opening_days":null,"rating":0,"photo_url":null,"description":null,"www":null},{"place_id":"7434621","geometry":{"type":"Point","coordinates":[12.1332957,44.184055]},"display_name":"Sante, Via della Madonna, San Leonardo, Forlimpopoli, FC, EMR, 47034, Italia","category":"eating","type":"fast_food","importance":0.001,"icon":"http://nominatim.openstreetmap.org/images/mapicons/food_fastfood.p.20.png","visiting_time":30.0,"opening_hours":null,"opening_days":null,"rating":0,"photo_url":null,"description":null,"www":null},{"place_id":"7295566","geometry":{"type":"Point","coordinates":[12.1325175,44.1874817]},"display_name":"New Fantasy, Via della Madonna, San Leonardo, Forlimpopoli, FC, EMR, 47034, Italia","category":"eating","type":"fast_food","importance":0.001,"icon":"http://nominatim.openstreetmap.org/images/mapicons/food_fastfood.p.20.png","visiting_time":30.0,"opening_hours":null,"opening_days":null,"rating":0,"photo_url":null,"description":null,"www":null},{"place_id":"7086188","geometry":{"type":"Point","coordinates":[12.1255748,44.1863416]},"display_name":"Tom & Jerry, Via Armando Diaz, San Leonardo, Forlimpopoli, FC, EMR, 47034, Italia","category":"eating","type":"fast_food","importance":0.001,"icon":"http://nominatim.openstreetmap.org/images/mapicons/food_fastfood.p.20.png","visiting_time":30.0,"opening_hours":null,"opening_days":null,"rating":0,"photo_url":null,"description":null,"www":null},{"place_id":"58596609","geometry":{"type":"Point","coordinates":[12.1560836,44.1696415]},"display_name":"Via Giardino, Bertinoro, FC, EMR, 47032, Italia","category":"eating","type":"fast_food","importance":0.001,"icon":"http://nominatim.openstreetmap.org/images/mapicons/food_fastfood.p.20.png","visiting_time":30.0,"opening_hours":null,"opening_days":null,"rating":0,"photo_url":null,"description":null,"www":null},{"place_id":"17341008","geometry":{"type":"Point","coordinates":[12.1753503,44.166037]},"display_name":"Via Molino Bratti, Bertinoro, FC, EMR, 47032, Italia","category":"eating","type":"fast_food","importance":0.001,"icon":"http://nominatim.openstreetmap.org/images/mapicons/food_fastfood.p.20.png","visiting_time":30.0,"opening_hours":null,"opening_days":null,"rating":0,"photo_url":null,"description":null,"www":null},{"place_id":"18165511","geometry":{"type":"Point","coordinates":[12.1883093,44.1995262]},"display_name":"Da Marco, Via Santa Croce, Bertinoro, FC, EMR, 47032, Italia","category":"eating","type":"fast_food","importance":0.001,"icon":"http://nominatim.openstreetmap.org/images/mapicons/food_fastfood.p.20.png","visiting_time":30.0,"opening_hours":null,"opening_days":null,"rating":0,"photo_url":null,"description":null,"www":null},{"place_id":"18102889","geometry":{"type":"Point","coordinates":[12.188492,44.1999204]},"display_name":"Voglia di pizza, Via Santa Croce, Bertinoro, FC, EMR, 47032, Italia","category":"eating","type":"fast_food","importance":0.001,"icon":"http://nominatim.openstreetmap.org/images/mapicons/food_fastfood.p.20.png","visiting_time":30.0,"opening_hours":null,"opening_days":null,"rating":0,"photo_url":null,"description":null,"www":null},{"place_id":"18210878","geometry":{"type":"Point","coordinates":[12.3136166,44.0968493]},"display_name":"La Ca' d'la Piada, Via Provinciale Badia, Longiano, FC, EMR, Italia","category":"eating","type":"fast_food","importance":0.001,"icon":"http://nominatim.openstreetmap.org/images/mapicons/food_fastfood.p.20.png","visiting_time":30.0,"opening_hours":null,"opening_days":null,"rating":0,"photo_url":null,"description":null,"www":null},{"place_id":"109646330","geometry":{"type":"Point","coordinates":[12.215787206,44.13386185]},"display_name":"Il Rugantino, 1109, Via San Mauro, Quartiere Oltre Savio, Cesena, FC, EMR, 47522, Italia","category":"eating","type":"restaurant","importance":0.001,"icon":"http://nominatim.openstreetmap.org/images/mapicons/food_restaurant.p.20.png","visiting_time":60.0,"opening_hours":null,"opening_days":null,"rating":0,"photo_url":null,"description":null,"www":null},{"place_id":"113526513","geometry":{"type":"Point","coordinates":[12.211341655,44.09777]},"display_name":"Agriturismo Villa Mami da Nadia, 4840, Via Roversano, Quartiere Valle Savio, Cesena, FC, EMR, 47522, Italia","category":"eating","type":"restaurant","importance":0.001,"icon":"http://nominatim.openstreetmap.org/images/mapicons/food_restaurant.p.20.png","visiting_time":60.0,"opening_hours":null,"opening_days":null,"rating":0,"photo_url":null,"description":null,"www":null},{"place_id":"114717706","geometry":{"type":"Point","coordinates":[12.206957669,44.086822]},"display_name":"L'Osteria di Roversano, 6086, Via Roversano, Quartiere Valle Savio, Cesena, FC, EMR, Italia","category":"eating","type":"restaurant","importance":0.001,"icon":"http://nominatim.openstreetmap.org/images/mapicons/food_restaurant.p.20.png","visiting_time":60.0,"opening_hours":null,"opening_days":null,"rating":0,"photo_url":null,"description":null,"www":null},{"place_id":"147643534","geometry":{"type":"Point","coordinates":[12.248649457,44.14381385]},"display_name":"America Graffiti, 170, Piazza Aldo Moro, Quartiere Centro Urbano, Cesena, FC, EMR, 47521, Italia","category":"eating","type":"restaurant","importance":0.001,"icon":"http://nominatim.openstreetmap.org/images/mapicons/food_restaurant.p.20.png","visiting_time":60.0,"opening_hours":null,"opening_days":null,"rating":0,"photo_url":null,"description":null,"www":null},{"place_id":"112364979","geometry":{"type":"Point","coordinates":[12.25195255,44.19716585]},"display_name":"I Bosconi, Via Boscone, Quartiere Ravennate, Cesena, FC, EMR, 47023, Italia","category":"eating","type":"restaurant","importance":0.001,"icon":"http://nominatim.openstreetmap.org/images/mapicons/food_restaurant.p.20.png","visiting_time":60.0,"opening_hours":null,"opening_days":null,"rating":0,"photo_url":null,"description":null,"www":null},{"place_id":"114208481","geometry":{"type":"Point","coordinates":[12.2412731,44.1177315]},"display_name":"Il Ristorantino di Rebecca da lele, Via Sorrivoli, Quartiere Cesuola, Cesena, FC, EMR, 47023, Italia","category":"eating","type":"restaurant","importance":0.001,"icon":"http://nominatim.openstreetmap.org/images/mapicons/food_restaurant.p.20.png","visiting_time":60.0,"opening_hours":null,"opening_days":null,"rating":0,"photo_url":null,"description":null,"www":null},{"place_id":"112825971","geometry":{"type":"Point","coordinates":[12.201907,44.1105811]},"display_name":"Cerina, 936, Via San Vittore, Quartiere Valle Savio, Cesena, FC, EMR, 47522, Italia","category":"eating","type":"restaurant","importance":0.001,"icon":"http://nominatim.openstreetmap.org/images/mapicons/food_restaurant.p.20.png","visiting_time":60.0,"opening_hours":null,"opening_days":null,"rating":0,"photo_url":null,"description":null,"www":null},{"place_id":"24129487","geometry":{"type":"Point","coordinates":[12.2425589,44.1375333]},"display_name":"La Grotta Ristorante, 19, Vicolo Cesuola, Quartiere Centro Urbano, Cesena, FC, EMR, 47521, Italia","category":"eating","type":"restaurant","importance":0.001,"icon":"http://nominatim.openstreetmap.org/images/mapicons/food_restaurant.p.20.png","visiting_time":60.0,"opening_hours":null,"opening_days":null,"rating":0,"photo_url":null,"description":null,"www":null},{"place_id":"45579528","geometry":{"type":"Point","coordinates":[12.2283629,44.0703161]},"display_name":"Ristorante Al Molino, 395, Via Garampa, Quartiere Cesuola, Cesena, FC, EMR, 47020, Italia","category":"eating","type":"restaurant","importance":0.001,"icon":"http://nominatim.openstreetmap.org/images/mapicons/food_restaurant.p.20.png","visiting_time":60.0,"opening_hours":null,"opening_days":null,"rating":0,"photo_url":null,"description":null,"www":null},{"place_id":"49912237","geometry":{"type":"Point","coordinates":[12.2470988,44.1411507]},"display_name":"Un Punto Macrobiotico, 54, Via Guido Marinelli, Quartiere Centro Urbano, Cesena, FC, EMR, 47521, Italia","category":"eating","type":"restaurant","importance":0.001,"icon":"http://nominatim.openstreetmap.org/images/mapicons/food_restaurant.p.20.png","visiting_time":60.0,"opening_hours":null,"opening_days":null,"rating":0,"photo_url":null,"description":null,"www":null},{"place_id":"18735828","geometry":{"type":"Point","coordinates":[12.2805163,44.0714953]},"display_name":"Osteria La Fonderia, Via Casale, Quartiere Rubicone, Cesena, FC, EMR, 47020, Italia","category":"eating","type":"restaurant","importance":0.001,"icon":"http://nominatim.openstreetmap.org/images/mapicons/food_restaurant.p.20.png","visiting_time":60.0,"opening_hours":null,"opening_days":null,"rating":0,"photo_url":null,"description":null,"www":null},{"place_id":"50200847","geometry":{"type":"Point","coordinates":[12.1891394,44.1552615]},"display_name":"Quel Castello di Diegaro, Via Bertinoro di Monticino, Quartiere Oltre Savio, Cesena, FC, EMR, 47522, Italia","category":"eating","type":"restaurant","importance":0.001,"icon":"http://nominatim.openstreetmap.org/images/mapicons/food_restaurant.p.20.png","visiting_time":60.0,"opening_hours":null,"opening_days":null,"rating":0,"photo_url":null,"description":null,"www":null},{"place_id":"18930521","geometry":{"type":"Point","coordinates":[12.1899184,44.1673448]},"display_name":"Maccanone704, Via Natale Battistini, Quartiere Oltre Savio, Cesena, FC, EMR, 47522, Italia","category":"eating","type":"restaurant","importance":0.001,"icon":"http://nominatim.openstreetmap.org/images/mapicons/food_restaurant.p.20.png","visiting_time":60.0,"opening_hours":null,"opening_days":null,"rating":0,"photo_url":null,"description":null,"www":null},{"place_id":"112365145","geometry":{"type":"Point","coordinates":[12.297117398,44.18274145]},"display_name":"Circolo Fuorimano, 4375, Via Mariana, Quartiere Cervese Nord, Cesena, FC, EMR, 47522, Italia","category":"eating","type":"restaurant","importance":0.001,"icon":"http://nominatim.openstreetmap.org/images/mapicons/food_restaurant.p.20.png","visiting_time":60.0,"opening_hours":null,"opening_days":null,"rating":0,"photo_url":null,"description":null,"www":null},{"place_id":"113498104","geometry":{"type":"Point","coordinates":[12.293763722,44.1206712]},"display_name":"I Girasoli, 2223, Via Emilia Levante, Quartiere Rubicone, Cesena, FC, EMR, 47521, Italia","category":"eating","type":"restaurant","importance":0.001,"icon":"http://nominatim.openstreetmap.org/images/mapicons/food_restaurant.p.20.png","visiting_time":60.0,"opening_hours":null,"opening_days":null,"rating":0,"photo_url":null,"description":null,"www":null},{"place_id":"85894933","geometry":{"type":"Point","coordinates":[12.249175573,44.1373967]},"display_name":"Piadina, Via Mura Eugenio Valzania, Quartiere Centro Urbano, Cesena, FC, EMR, 47023, Italia","category":"eating","type":"fast_food","importance":0.001,"icon":"http://nominatim.openstreetmap.org/images/mapicons/food_fastfood.p.20.png","visiting_time":60.0,"opening_hours":null,"opening_days":null,"rating":0,"photo_url":null,"description":null,"www":null},{"place_id":"104193302","geometry":{"type":"Point","coordinates":[12.229700277,44.14064175]},"display_name":"Viale Giacomo Matteotti, Quartiere Oltre Savio, Cesena, FC, EMR, 47522, Italia","category":"eating","type":"fast_food","importance":0.001,"icon":"http://nominatim.openstreetmap.org/images/mapicons/food_fastfood.p.20.png","visiting_time":60.0,"opening_hours":null,"opening_days":null,"rating":0,"photo_url":null,"description":null,"www":null},{"place_id":"29480262","geometry":{"type":"Point","coordinates":[12.227123,44.1503501]},"display_name":"Via Fausto Coppi, Quartiere Oltre Savio, Cesena, FC, EMR, 47522, Italia","category":"eating","type":"fast_food","importance":0.001,"icon":"http://nominatim.openstreetmap.org/images/mapicons/food_fastfood.p.20.png","visiting_time":60.0,"opening_hours":null,"opening_days":null,"rating":0,"photo_url":null,"description":null,"www":null},{"place_id":"1516337","geometry":{"type":"Point","coordinates":[12.2623039,44.1368735]},"display_name":"McDonald's, Via Salvatore Di Giacomo, Quartiere Fiorenzuola, Cesena, FC, EMR, 47521, Italia","category":"eating","type":"fast_food","importance":0.001,"icon":"http://nominatim.openstreetmap.org/images/mapicons/food_fastfood.p.20.png","visiting_time":60.0,"opening_hours":null,"opening_days":null,"rating":0,"photo_url":null,"description":null,"www":null},{"place_id":"17169892","geometry":{"type":"Point","coordinates":[12.2446507,44.1266047]},"display_name":"Via Padre Giovanni Genocchi, Quartiere Cesuola, Cesena, FC, EMR, 47023, Italia","category":"eating","type":"fast_food","importance":0.001,"icon":"http://nominatim.openstreetmap.org/images/mapicons/food_fastfood.p.20.png","visiting_time":60.0,"opening_hours":null,"opening_days":null,"rating":0,"photo_url":null,"description":null,"www":null},{"place_id":"45193163","geometry":{"type":"Point","coordinates":[12.1928073,44.0887872]},"display_name":"Via Castiglione, Quartiere Valle Savio, Cesena, FC, EMR, Italia","category":"eating","type":"fast_food","importance":0.001,"icon":"http://nominatim.openstreetmap.org/images/mapicons/food_fastfood.p.20.png","visiting_time":60.0,"opening_hours":null,"opening_days":null,"rating":0,"photo_url":null,"description":null,"www":null},{"place_id":"8457552","geometry":{"type":"Point","coordinates":[12.2825401,44.1691623]},"display_name":"McDonald's, Via Cervese, Quartiere Cervese Sud, Cesena, FC, EMR, 47521, Italia","category":"eating","type":"fast_food","importance":0.001,"icon":"http://nominatim.openstreetmap.org/images/mapicons/food_fastfood.p.20.png","visiting_time":60.0,"opening_hours":null,"opening_days":null,"rating":0,"photo_url":null,"description":null,"www":null},{"place_id":"23931336","geometry":{"type":"Point","coordinates":[12.2417182,44.1448386]},"display_name":"Eat Burger, 647, Viale Europa, Quartiere Centro Urbano, Cesena, FC, EMR, 47521, Italia","category":"eating","type":"fast_food","importance":0.001,"icon":"http://nominatim.openstreetmap.org/images/mapicons/food_fastfood.p.20.png","visiting_time":60.0,"opening_hours":null,"opening_days":null,"rating":0,"photo_url":null,"description":null,"www":null},{"place_id":"24232797","geometry":{"type":"Point","coordinates":[12.2453621,44.1404498]},"display_name":"La Piadina di Stefano e Mascia, 5, Viale Gaspare Finali, Quartiere Centro Urbano, Cesena, FC, EMR, 47521, Italia","category":"eating","type":"fast_food","importance":0.001,"icon":"http://nominatim.openstreetmap.org/images/mapicons/food_fastfood.p.20.png","visiting_time":60.0,"opening_hours":null,"opening_days":null,"rating":0,"photo_url":null,"description":null,"www":null},{"place_id":"16175192","geometry":{"type":"Point","coordinates":[12.2708005,44.1424591]},"display_name":"Piadineria, Via Giorgio Ambrosoli, Case Frini, Quartiere Fiorenzuola, Cesena, FC, EMR, 47521, Italia","category":"eating","type":"fast_food","importance":0.001,"icon":"http://nominatim.openstreetmap.org/images/mapicons/food_fastfood.p.20.png","visiting_time":60.0,"opening_hours":null,"opening_days":null,"rating":0,"photo_url":null,"description":null,"www":null},{"place_id":"111268354","geometry":{"type":"Point","coordinates":[12.228559394,44.13236455]},"display_name":"Via Giuseppe Belletti, Quartiere Oltre Savio, Cesena, FC, EMR, 47522, Italia","category":"eating","type":"fast_food","importance":0.001,"icon":"http://nominatim.openstreetmap.org/images/mapicons/food_fastfood.p.20.png","visiting_time":60.0,"opening_hours":null,"opening_days":null,"rating":0,"photo_url":null,"description":null,"www":null},{"place_id":"113430254","geometry":{"type":"Point","coordinates":[12.331350961,44.21575105]},"display_name":"Ostaria del Mare, 5, Via Casette, Cervia, RA, EMR, 48015, Italia","category":"eating","type":"restaurant","importance":0.001,"icon":"http://nominatim.openstreetmap.org/images/mapicons/food_restaurant.p.20.png","visiting_time":60.0,"opening_hours":null,"opening_days":null,"rating":0,"photo_url":null,"description":null,"www":null},{"place_id":"111971254","geometry":{"type":"Point","coordinates":[12.352476948,44.22901485]},"display_name":"Ca' Nori, 2, Via Bollana, Cervia, RA, EMR, 48015, Italia","category":"eating","type":"restaurant","importance":0.001,"icon":"http://nominatim.openstreetmap.org/images/mapicons/food_restaurant.p.20.png","visiting_time":60.0,"opening_hours":null,"opening_days":null,"rating":0,"photo_url":null,"description":null,"www":null},{"place_id":"113860168","geometry":{"type":"Point","coordinates":[12.321654767,44.224051]},"display_name":"Dal Bracco Nero Osteria, 15, Via Sant'Andrea, Cervia, RA, EMR, 48015, Italia","category":"eating","type":"restaurant","importance":0.001,"icon":"http://nominatim.openstreetmap.org/images/mapicons/food_restaurant.p.20.png","visiting_time":60.0,"opening_hours":null,"opening_days":null,"rating":0,"photo_url":null,"description":null,"www":null},{"place_id":"113889705","geometry":{"type":"Point","coordinates":[12.34423015,44.2234061]},"display_name":"Il Grillo, 7, Via Ficocle, Cervia, RA, EMR, 48015, Italia","category":"eating","type":"restaurant","importance":0.001,"icon":"http://nominatim.openstreetmap.org/images/mapicons/food_restaurant.p.20.png","visiting_time":60.0,"opening_hours":null,"opening_days":null,"rating":0,"photo_url":null,"description":null,"www":null},{"place_id":"45535865","geometry":{"type":"Point","coordinates":[12.3284756,44.209156]},"display_name":"Chiosco di piadina Claudia & Marilena, Via Bollana, Cervia, RA, EMR, 48015, Italia","category":"eating","type":"fast_food","importance":0.001,"icon":"http://nominatim.openstreetmap.org/images/mapicons/food_fastfood.p.20.png","visiting_time":60.0,"opening_hours":null,"opening_days":null,"rating":0,"photo_url":null,"description":null,"www":null},{"place_id":"7349468","geometry":{"type":"Point","coordinates":[12.1160378,44.1940772]},"display_name":"Rosa dei Venti, Via Amendola, San Leonardo, Forlimpopoli, FC, EMR, 47034, Italia","category":"eating","type":"restaurant","importance":0.001,"icon":"http://nominatim.openstreetmap.org/images/mapicons/food_restaurant.p.20.png","visiting_time":60.0,"opening_hours":null,"opening_days":null,"rating":0,"photo_url":null,"description":null,"www":null},{"place_id":"7366868","geometry":{"type":"Point","coordinates":[12.1149622,44.186752]},"display_name":"Pizzeria Malù, Via del Melo, San Leonardo, Forlimpopoli, FC, EMR, 47034, Italia","category":"eating","type":"restaurant","importance":0.001,"icon":"http://nominatim.openstreetmap.org/images/mapicons/food_restaurant.p.20.png","visiting_time":60.0,"opening_hours":null,"opening_days":null,"rating":0,"photo_url":null,"description":null,"www":null},{"place_id":"7335647","geometry":{"type":"Point","coordinates":[12.1266686,44.1857833]},"display_name":"Ristorante Edo, Via Filippo Turati, San Leonardo, Forlimpopoli, FC, EMR, 47034, Italia","category":"eating","type":"restaurant","importance":0.001,"icon":"http://nominatim.openstreetmap.org/images/mapicons/food_restaurant.p.20.png","visiting_time":60.0,"opening_hours":null,"opening_days":null,"rating":0,"photo_url":null,"description":null,"www":null},{"place_id":"7219254","geometry":{"type":"Point","coordinates":[12.1277677,44.1854998]},"display_name":"Ristorante Anna, Via Matteotti, San Leonardo, Forlimpopoli, FC, EMR, 47034, Italia","category":"eating","type":"restaurant","importance":0.001,"icon":"http://nominatim.openstreetmap.org/images/mapicons/food_restaurant.p.20.png","visiting_time":60.0,"opening_hours":null,"opening_days":null,"rating":0,"photo_url":null,"description":null,"www":null},{"place_id":"12346615","geometry":{"type":"Point","coordinates":[12.1015677,44.1944046]},"display_name":"Via della Croce, San Leonardo, Forlimpopoli, FC, EMR, 47034, Italia","category":"eating","type":"restaurant","importance":0.001,"icon":"http://nominatim.openstreetmap.org/images/mapicons/food_restaurant.p.20.png","visiting_time":60.0,"opening_hours":null,"opening_days":null,"rating":0,"photo_url":null,"description":null,"www":null},{"place_id":"7095931","geometry":{"type":"Point","coordinates":[12.1236733,44.1869821]},"display_name":"Pizzeria Domus, Via Circonvallazione, San Leonardo, Forlimpopoli, FC, EMR, 47034, Italia","category":"eating","type":"restaurant","importance":0.001,"icon":"http://nominatim.openstreetmap.org/images/mapicons/food_restaurant.p.20.png","visiting_time":60.0,"opening_hours":null,"opening_days":null,"rating":0,"photo_url":null,"description":null,"www":null},{"place_id":"6798821","geometry":{"type":"Point","coordinates":[12.128109,44.1935216]},"display_name":"Fra Diavolo, Via Roma, San Leonardo, Forlimpopoli, FC, EMR, 47034, Italia","category":"eating","type":"restaurant","importance":0.001,"icon":"http://nominatim.openstreetmap.org/images/mapicons/food_restaurant.p.20.png","visiting_time":60.0,"opening_hours":null,"opening_days":null,"rating":0,"photo_url":null,"description":null,"www":null},{"place_id":"51070064","geometry":{"type":"Point","coordinates":[12.1007877,44.1503744]},"display_name":"Pizzeria da Lorenzo, Via Tro' Meldola, Forlimpopoli, FC, EMR, 47032, Italia","category":"eating","type":"restaurant","importance":0.001,"icon":"http://nominatim.openstreetmap.org/images/mapicons/food_restaurant.p.20.png","visiting_time":60.0,"opening_hours":null,"opening_days":null,"rating":0,"photo_url":null,"description":null,"www":null},{"place_id":"12261361","geometry":{"type":"Point","coordinates":[12.1065069,44.1942326]},"display_name":"America Graffiti, 1387, Via Emilia, San Leonardo, Forlimpopoli, FC, EMR, 47034, Italia","category":"eating","type":"fast_food","importance":0.001,"icon":"http://nominatim.openstreetmap.org/images/mapicons/food_fastfood.p.20.png","visiting_time":60.0,"opening_hours":null,"opening_days":null,"rating":0,"photo_url":null,"description":null,"www":null},{"place_id":"7434621","geometry":{"type":"Point","coordinates":[12.1332957,44.184055]},"display_name":"Sante, Via della Madonna, San Leonardo, Forlimpopoli, FC, EMR, 47034, Italia","category":"eating","type":"fast_food","importance":0.001,"icon":"http://nominatim.openstreetmap.org/images/mapicons/food_fastfood.p.20.png","visiting_time":60.0,"opening_hours":null,"opening_days":null,"rating":0,"photo_url":null,"description":null,"www":null},{"place_id":"7086188","geometry":{"type":"Point","coordinates":[12.1255748,44.1863416]},"display_name":"Tom & Jerry, Via Armando Diaz, San Leonardo, Forlimpopoli, FC, EMR, 47034, Italia","category":"eating","type":"fast_food","importance":0.001,"icon":"http://nominatim.openstreetmap.org/images/mapicons/food_fastfood.p.20.png","visiting_time":60.0,"opening_hours":null,"opening_days":null,"rating":0,"photo_url":null,"description":null,"www":null},{"place_id":"7295566","geometry":{"type":"Point","coordinates":[12.1325175,44.1874817]},"display_name":"New Fantasy, Via della Madonna, San Leonardo, Forlimpopoli, FC, EMR, 47034, Italia","category":"eating","type":"fast_food","importance":0.001,"icon":"http://nominatim.openstreetmap.org/images/mapicons/food_fastfood.p.20.png","visiting_time":60.0,"opening_hours":null,"opening_days":null,"rating":0,"photo_url":null,"description":null,"www":null},{"place_id":"7249001","geometry":{"type":"Point","coordinates":[12.1388505,44.1418996]},"display_name":"Ristorante Monte Maggio, Via dei Cappuccini, Bertinoro, FC, EMR, 47032, Italia","category":"eating","type":"restaurant","importance":0.001,"icon":"http://nominatim.openstreetmap.org/images/mapicons/food_restaurant.p.20.png","visiting_time":60.0,"opening_hours":null,"opening_days":null,"rating":0,"photo_url":null,"description":null,"www":null},{"place_id":"112427567","geometry":{"type":"Point","coordinates":[12.133343201,44.15006415]},"display_name":"L'Altopalato, Via Francesco Rossi, Bertinoro, FC, EMR, 47032, Italia","category":"eating","type":"restaurant","importance":0.001,"icon":"http://nominatim.openstreetmap.org/images/mapicons/food_restaurant.p.20.png","visiting_time":60.0,"opening_hours":null,"opening_days":null,"rating":0,"photo_url":null,"description":null,"www":null},{"place_id":"111273126","geometry":{"type":"Point","coordinates":[12.133631129,44.1494294]},"display_name":"Ca' de Bé Osteria Enoteca, 10, Piazza Libertà, Bertinoro, FC, EMR, 47032, Italia","category":"eating","type":"restaurant","importance":0.001,"icon":"http://nominatim.openstreetmap.org/images/mapicons/food_restaurant.p.20.png","visiting_time":60.0,"opening_hours":null,"opening_days":null,"rating":0,"photo_url":null,"description":null,"www":null},{"place_id":"53305911","geometry":{"type":"Point","coordinates":[12.0994305,44.1430154]},"display_name":"Pizzeria Notte E Di', 96, Via Ludovico Ariosto, Bertinoro, FC, EMR, 47032, Italia","category":"eating","type":"restaurant","importance":0.001,"icon":"http://nominatim.openstreetmap.org/images/mapicons/food_restaurant.p.20.png","visiting_time":60.0,"opening_hours":null,"opening_days":null,"rating":0,"photo_url":null,"description":null,"www":null},{"place_id":"57464665","geometry":{"type":"Point","coordinates":[12.1680202,44.1546653]},"display_name":"Ristorante Pizzeria Locanda Gradisca, 630, Via Molino Bratti, Bertinoro, FC, EMR, 47032, Italia","category":"eating","type":"restaurant","importance":0.001,"icon":"http://nominatim.openstreetmap.org/images/mapicons/food_restaurant.p.20.png","visiting_time":60.0,"opening_hours":null,"opening_days":null,"rating":0,"photo_url":null,"description":null,"www":null},{"place_id":"44484787","geometry":{"type":"Point","coordinates":[12.1323161,44.1490918]},"display_name":"Trattoria Societa Operaia di Mutuo Soccorso - Locanda della Fortuna, 1, Via Aldruda Frangipane, Bertinoro, FC, EMR, 47032, Italia","category":"eating","type":"restaurant","importance":0.001,"icon":"http://nominatim.openstreetmap.org/images/mapicons/food_restaurant.p.20.png","visiting_time":60.0,"opening_hours":null,"opening_days":null,"rating":0,"photo_url":null,"description":null,"www":null},{"place_id":"115082231","geometry":{"type":"Point","coordinates":[12.149834538,44.09531725]},"display_name":"La Stadera, 5000, Via Tessello, Quartiere Valle Savio, Bertinoro, FC, EMR, 47522, Italia","category":"eating","type":"restaurant","importance":0.001,"icon":"http://nominatim.openstreetmap.org/images/mapicons/food_restaurant.p.20.png","visiting_time":60.0,"opening_hours":null,"opening_days":null,"rating":0,"photo_url":null,"description":null,"www":null},{"place_id":"147643534","geometry":{"type":"Point","coordinates":[12.248649457,44.14381385]},"display_name":"America Graffiti, 170, Piazza Aldo Moro, Quartiere Centro Urbano, Cesena, FC, EMR, 47521, Italia","category":"eating","type":"restaurant","importance":0.001,"icon":"http://nominatim.openstreetmap.org/images/mapicons/food_restaurant.p.20.png","visiting_time":60.0,"opening_hours":null,"opening_days":null,"rating":0,"photo_url":null,"description":null,"www":null},{"place_id":"49912237","geometry":{"type":"Point","coordinates":[12.2470988,44.1411507]},"display_name":"Un Punto Macrobiotico, 54, Via Guido Marinelli, Quartiere Centro Urbano, Cesena, FC, EMR, 47521, Italia","category":"eating","type":"restaurant","importance":0.001,"icon":"http://nominatim.openstreetmap.org/images/mapicons/food_restaurant.p.20.png","visiting_time":60.0,"opening_hours":null,"opening_days":null,"rating":0,"photo_url":null,"description":null,"www":null},{"place_id":"112364979","geometry":{"type":"Point","coordinates":[12.25195255,44.19716585]},"display_name":"I Bosconi, Via Boscone, Quartiere Ravennate, Cesena, FC, EMR, 47023, Italia","category":"eating","type":"restaurant","importance":0.001,"icon":"http://nominatim.openstreetmap.org/images/mapicons/food_restaurant.p.20.png","visiting_time":60.0,"opening_hours":null,"opening_days":null,"rating":0,"photo_url":null,"description":null,"www":null},{"place_id":"114208481","geometry":{"type":"Point","coordinates":[12.2412731,44.1177315]},"display_name":"Il Ristorantino di Rebecca da lele, Via Sorrivoli, Quartiere Cesuola, Cesena, FC, EMR, 47023, Italia","category":"eating","type":"restaurant","importance":0.001,"icon":"http://nominatim.openstreetmap.org/images/mapicons/food_restaurant.p.20.png","visiting_time":60.0,"opening_hours":null,"opening_days":null,"rating":0,"photo_url":null,"description":null,"www":null},{"place_id":"50200847","geometry":{"type":"Point","coordinates":[12.1891394,44.1552615]},"display_name":"Quel Castello di Diegaro, Via Bertinoro di Monticino, Quartiere Oltre Savio, Cesena, FC, EMR, 47522, Italia","category":"eating","type":"restaurant","importance":0.001,"icon":"http://nominatim.openstreetmap.org/images/mapicons/food_restaurant.p.20.png","visiting_time":60.0,"opening_hours":null,"opening_days":null,"rating":0,"photo_url":null,"description":null,"www":null},{"place_id":"18930521","geometry":{"type":"Point","coordinates":[12.1899184,44.1673448]},"display_name":"Maccanone704, Via Natale Battistini, Quartiere Oltre Savio, Cesena, FC, EMR, 47522, Italia","category":"eating","type":"restaurant","importance":0.001,"icon":"http://nominatim.openstreetmap.org/images/mapicons/food_restaurant.p.20.png","visiting_time":60.0,"opening_hours":null,"opening_days":null,"rating":0,"photo_url":null,"description":null,"www":null},{"place_id":"113498104","geometry":{"type":"Point","coordinates":[12.293763722,44.1206712]},"display_name":"I Girasoli, 2223, Via Emilia Levante, Quartiere Rubicone, Cesena, FC, EMR, 47521, Italia","category":"eating","type":"restaurant","importance":0.001,"icon":"http://nominatim.openstreetmap.org/images/mapicons/food_restaurant.p.20.png","visiting_time":60.0,"opening_hours":null,"opening_days":null,"rating":0,"photo_url":null,"description":null,"www":null},{"place_id":"45579528","geometry":{"type":"Point","coordinates":[12.2283629,44.0703161]},"display_name":"Ristorante Al Molino, 395, Via Garampa, Quartiere Cesuola, Cesena, FC, EMR, 47020, Italia","category":"eating","type":"restaurant","importance":0.001,"icon":"http://nominatim.openstreetmap.org/images/mapicons/food_restaurant.p.20.png","visiting_time":60.0,"opening_hours":null,"opening_days":null,"rating":0,"photo_url":null,"description":null,"www":null},{"place_id":"24129487","geometry":{"type":"Point","coordinates":[12.2425589,44.1375333]},"display_name":"La Grotta Ristorante, 19, Vicolo Cesuola, Quartiere Centro Urbano, Cesena, FC, EMR, 47521, Italia","category":"eating","type":"restaurant","importance":0.001,"icon":"http://nominatim.openstreetmap.org/images/mapicons/food_restaurant.p.20.png","visiting_time":60.0,"opening_hours":null,"opening_days":null,"rating":0,"photo_url":null,"description":null,"www":null},{"place_id":"109646330","geometry":{"type":"Point","coordinates":[12.215787206,44.13386185]},"display_name":"Il Rugantino, 1109, Via San Mauro, Quartiere Oltre Savio, Cesena, FC, EMR, 47522, Italia","category":"eating","type":"restaurant","importance":0.001,"icon":"http://nominatim.openstreetmap.org/images/mapicons/food_restaurant.p.20.png","visiting_time":60.0,"opening_hours":null,"opening_days":null,"rating":0,"photo_url":null,"description":null,"www":null},{"place_id":"113526513","geometry":{"type":"Point","coordinates":[12.211341655,44.09777]},"display_name":"Agriturismo Villa Mami da Nadia, 4840, Via Roversano, Quartiere Valle Savio, Cesena, FC, EMR, 47522, Italia","category":"eating","type":"restaurant","importance":0.001,"icon":"http://nominatim.openstreetmap.org/images/mapicons/food_restaurant.p.20.png","visiting_time":60.0,"opening_hours":null,"opening_days":null,"rating":0,"photo_url":null,"description":null,"www":null},{"place_id":"112825971","geometry":{"type":"Point","coordinates":[12.201907,44.1105811]},"display_name":"Cerina, 936, Via San Vittore, Quartiere Valle Savio, Cesena, FC, EMR, 47522, Italia","category":"eating","type":"restaurant","importance":0.001,"icon":"http://nominatim.openstreetmap.org/images/mapicons/food_restaurant.p.20.png","visiting_time":60.0,"opening_hours":null,"opening_days":null,"rating":0,"photo_url":null,"description":null,"www":null},{"place_id":"112365145","geometry":{"type":"Point","coordinates":[12.297117398,44.18274145]},"display_name":"Circolo Fuorimano, 4375, Via Mariana, Quartiere Cervese Nord, Cesena, FC, EMR, 47522, Italia","category":"eating","type":"restaurant","importance":0.001,"icon":"http://nominatim.openstreetmap.org/images/mapicons/food_restaurant.p.20.png","visiting_time":60.0,"opening_hours":null,"opening_days":null,"rating":0,"photo_url":null,"description":null,"www":null},{"place_id":"114717706","geometry":{"type":"Point","coordinates":[12.206957669,44.086822]},"display_name":"L'Osteria di Roversano, 6086, Via Roversano, Quartiere Valle Savio, Cesena, FC, EMR, Italia","category":"eating","type":"restaurant","importance":0.001,"icon":"http://nominatim.openstreetmap.org/images/mapicons/food_restaurant.p.20.png","visiting_time":60.0,"opening_hours":null,"opening_days":null,"rating":0,"photo_url":null,"description":null,"www":null},{"place_id":"18735828","geometry":{"type":"Point","coordinates":[12.2805163,44.0714953]},"display_name":"Osteria La Fonderia, Via Casale, Quartiere Rubicone, Cesena, FC, EMR, 47020, Italia","category":"eating","type":"restaurant","importance":0.001,"icon":"http://nominatim.openstreetmap.org/images/mapicons/food_restaurant.p.20.png","visiting_time":60.0,"opening_hours":null,"opening_days":null,"rating":0,"photo_url":null,"description":null,"www":null},{"place_id":"111971254","geometry":{"type":"Point","coordinates":[12.352476948,44.22901485]},"display_name":"Ca' Nori, 2, Via Bollana, Cervia, RA, EMR, 48015, Italia","category":"eating","type":"restaurant","importance":0.001,"icon":"http://nominatim.openstreetmap.org/images/mapicons/food_restaurant.p.20.png","visiting_time":60.0,"opening_hours":null,"opening_days":null,"rating":0,"photo_url":null,"description":null,"www":null},{"place_id":"113889705","geometry":{"type":"Point","coordinates":[12.34423015,44.2234061]},"display_name":"Il Grillo, 7, Via Ficocle, Cervia, RA, EMR, 48015, Italia","category":"eating","type":"restaurant","importance":0.001,"icon":"http://nominatim.openstreetmap.org/images/mapicons/food_restaurant.p.20.png","visiting_time":60.0,"opening_hours":null,"opening_days":null,"rating":0,"photo_url":null,"description":null,"www":null},{"place_id":"113430254","geometry":{"type":"Point","coordinates":[12.331350961,44.21575105]},"display_name":"Ostaria del Mare, 5, Via Casette, Cervia, RA, EMR, 48015, Italia","category":"eating","type":"restaurant","importance":0.001,"icon":"http://nominatim.openstreetmap.org/images/mapicons/food_restaurant.p.20.png","visiting_time":60.0,"opening_hours":null,"opening_days":null,"rating":0,"photo_url":null,"description":null,"www":null},{"place_id":"113860168","geometry":{"type":"Point","coordinates":[12.321654767,44.224051]},"display_name":"Dal Bracco Nero Osteria, 15, Via Sant'Andrea, Cervia, RA, EMR, 48015, Italia","category":"eating","type":"restaurant","importance":0.001,"icon":"http://nominatim.openstreetmap.org/images/mapicons/food_restaurant.p.20.png","visiting_time":60.0,"opening_hours":null,"opening_days":null,"rating":0,"photo_url":null,"description":null,"www":null},{"place_id":"6798821","geometry":{"type":"Point","coordinates":[12.128109,44.1935216]},"display_name":"Fra Diavolo, Via Roma, San Leonardo, Forlimpopoli, FC, EMR, 47034, Italia","category":"eating","type":"restaurant","importance":0.001,"icon":"http://nominatim.openstreetmap.org/images/mapicons/food_restaurant.p.20.png","visiting_time":60.0,"opening_hours":null,"opening_days":null,"rating":0,"photo_url":null,"description":null,"www":null},{"place_id":"7095931","geometry":{"type":"Point","coordinates":[12.1236733,44.1869821]},"display_name":"Pizzeria Domus, Via Circonvallazione, San Leonardo, Forlimpopoli, FC, EMR, 47034, Italia","category":"eating","type":"restaurant","importance":0.001,"icon":"http://nominatim.openstreetmap.org/images/mapicons/food_restaurant.p.20.png","visiting_time":60.0,"opening_hours":null,"opening_days":null,"rating":0,"photo_url":null,"description":null,"www":null},{"place_id":"12346615","geometry":{"type":"Point","coordinates":[12.1015677,44.1944046]},"display_name":"Via della Croce, San Leonardo, Forlimpopoli, FC, EMR, 47034, Italia","category":"eating","type":"restaurant","importance":0.001,"icon":"http://nominatim.openstreetmap.org/images/mapicons/food_restaurant.p.20.png","visiting_time":60.0,"opening_hours":null,"opening_days":null,"rating":0,"photo_url":null,"description":null,"www":null},{"place_id":"51070064","geometry":{"type":"Point","coordinates":[12.1007877,44.1503744]},"display_name":"Pizzeria da Lorenzo, Via Tro' Meldola, Forlimpopoli, FC, EMR, 47032, Italia","category":"eating","type":"restaurant","importance":0.001,"icon":"http://nominatim.openstreetmap.org/images/mapicons/food_restaurant.p.20.png","visiting_time":60.0,"opening_hours":null,"opening_days":null,"rating":0,"photo_url":null,"description":null,"www":null},{"place_id":"7349468","geometry":{"type":"Point","coordinates":[12.1160378,44.1940772]},"display_name":"Rosa dei Venti, Via Amendola, San Leonardo, Forlimpopoli, FC, EMR, 47034, Italia","category":"eating","type":"restaurant","importance":0.001,"icon":"http://nominatim.openstreetmap.org/images/mapicons/food_restaurant.p.20.png","visiting_time":60.0,"opening_hours":null,"opening_days":null,"rating":0,"photo_url":null,"description":null,"www":null},{"place_id":"7335647","geometry":{"type":"Point","coordinates":[12.1266686,44.1857833]},"display_name":"Ristorante Edo, Via Filippo Turati, San Leonardo, Forlimpopoli, FC, EMR, 47034, Italia","category":"eating","type":"restaurant","importance":0.001,"icon":"http://nominatim.openstreetmap.org/images/mapicons/food_restaurant.p.20.png","visiting_time":60.0,"opening_hours":null,"opening_days":null,"rating":0,"photo_url":null,"description":null,"www":null},{"place_id":"7219254","geometry":{"type":"Point","coordinates":[12.1277677,44.1854998]},"display_name":"Ristorante Anna, Via Matteotti, San Leonardo, Forlimpopoli, FC, EMR, 47034, Italia","category":"eating","type":"restaurant","importance":0.001,"icon":"http://nominatim.openstreetmap.org/images/mapicons/food_restaurant.p.20.png","visiting_time":60.0,"opening_hours":null,"opening_days":null,"rating":0,"photo_url":null,"description":null,"www":null},{"place_id":"7366868","geometry":{"type":"Point","coordinates":[12.1149622,44.186752]},"display_name":"Pizzeria Malù, Via del Melo, San Leonardo, Forlimpopoli, FC, EMR, 47034, Italia","category":"eating","type":"restaurant","importance":0.001,"icon":"http://nominatim.openstreetmap.org/images/mapicons/food_restaurant.p.20.png","visiting_time":60.0,"opening_hours":null,"opening_days":null,"rating":0,"photo_url":null,"description":null,"www":null},{"place_id":"6937802","geometry":{"type":"Point","coordinates":[12.1361255,44.1439453]},"display_name":"Agriturismo Casina Pontormo, 460, Via dei Cappuccini, Bertinoro, FC, EMR, 47032, Italia","category":"eating","type":"restaurant","importance":0.001,"icon":"http://nominatim.openstreetmap.org/images/mapicons/food_restaurant.p.20.png","visiting_time":60.0,"opening_hours":null,"opening_days":null,"rating":0,"photo_url":null,"description":null,"www":null},{"place_id":"7249001","geometry":{"type":"Point","coordinates":[12.1388505,44.1418996]},"display_name":"Ristorante Monte Maggio, Via dei Cappuccini, Bertinoro, FC, EMR, 47032, Italia","category":"eating","type":"restaurant","importance":0.001,"icon":"http://nominatim.openstreetmap.org/images/mapicons/food_restaurant.p.20.png","visiting_time":60.0,"opening_hours":null,"opening_days":null,"rating":0,"photo_url":null,"description":null,"www":null},{"place_id":"44070086","geometry":{"type":"Point","coordinates":[12.1348453,44.1495308]},"display_name":"Ristorante pizzeria L'altro palato, 11, Via Novelli, Bertinoro, FC, EMR, 47032, Italia","category":"eating","type":"restaurant","importance":0.001,"icon":"http://nominatim.openstreetmap.org/images/mapicons/food_restaurant.p.20.png","visiting_time":60.0,"opening_hours":null,"opening_days":null,"rating":0,"photo_url":null,"description":null,"www":null},{"place_id":"111273126","geometry":{"type":"Point","coordinates":[12.133631129,44.1494294]},"display_name":"Ca' de Bé Osteria Enoteca, 10, Piazza Libertà, Bertinoro, FC, EMR, 47032, Italia","category":"eating","type":"restaurant","importance":0.001,"icon":"http://nominatim.openstreetmap.org/images/mapicons/food_restaurant.p.20.png","visiting_time":60.0,"opening_hours":null,"opening_days":null,"rating":0,"photo_url":null,"description":null,"www":null},{"place_id":"57464665","geometry":{"type":"Point","coordinates":[12.1680202,44.1546653]},"display_name":"Ristorante Pizzeria Locanda Gradisca, 630, Via Molino Bratti, Bertinoro, FC, EMR, 47032, Italia","category":"eating","type":"restaurant","importance":0.001,"icon":"http://nominatim.openstreetmap.org/images/mapicons/food_restaurant.p.20.png","visiting_time":60.0,"opening_hours":null,"opening_days":null,"rating":0,"photo_url":null,"description":null,"www":null},{"place_id":"112850945","geometry":{"type":"Point","coordinates":[12.177762767,44.2179257]},"display_name":"Ristorante Ciao, Autostrada Adriatica, Quartiere Dismano, Bertinoro, FC, EMR, Italia","category":"eating","type":"restaurant","importance":0.001,"icon":"http://nominatim.openstreetmap.org/images/mapicons/food_restaurant.p.20.png","visiting_time":60.0,"opening_hours":null,"opening_days":null,"rating":0,"photo_url":null,"description":null,"www":null},{"place_id":"53305911","geometry":{"type":"Point","coordinates":[12.0994305,44.1430154]},"display_name":"Pizzeria Notte E Di', 96, Via Ludovico Ariosto, Bertinoro, FC, EMR, 47032, Italia","category":"eating","type":"restaurant","importance":0.001,"icon":"http://nominatim.openstreetmap.org/images/mapicons/food_restaurant.p.20.png","visiting_time":60.0,"opening_hours":null,"opening_days":null,"rating":0,"photo_url":null,"description":null,"www":null},{"place_id":"44484787","geometry":{"type":"Point","coordinates":[12.1323161,44.1490918]},"display_name":"Trattoria Societa Operaia di Mutuo Soccorso - Locanda della Fortuna, 1, Via Aldruda Frangipane, Bertinoro, FC, EMR, 47032, Italia","category":"eating","type":"restaurant","importance":0.001,"icon":"http://nominatim.openstreetmap.org/images/mapicons/food_restaurant.p.20.png","visiting_time":60.0,"opening_hours":null,"opening_days":null,"rating":0,"photo_url":null,"description":null,"www":null},{"place_id":"22023029","geometry":{"type":"Point","coordinates":[12.1489199,44.1160565]},"display_name":"Ristorante Luis, 541, Viale Collinello, Bertinoro, FC, EMR, 47032, Italia","category":"eating","type":"restaurant","importance":0.001,"icon":"http://nominatim.openstreetmap.org/images/mapicons/food_restaurant.p.20.png","visiting_time":60.0,"opening_hours":null,"opening_days":null,"rating":0,"photo_url":null,"description":null,"www":null},{"place_id":"112427567","geometry":{"type":"Point","coordinates":[12.133343201,44.15006415]},"display_name":"L'Altopalato, Via Francesco Rossi, Bertinoro, FC, EMR, 47032, Italia","category":"eating","type":"restaurant","importance":0.001,"icon":"http://nominatim.openstreetmap.org/images/mapicons/food_restaurant.p.20.png","visiting_time":60.0,"opening_hours":null,"opening_days":null,"rating":0,"photo_url":null,"description":null,"www":null},{"place_id":"115082231","geometry":{"type":"Point","coordinates":[12.149834538,44.09531725]},"display_name":"La Stadera, 5000, Via Tessello, Quartiere Valle Savio, Bertinoro, FC, EMR, 47522, Italia","category":"eating","type":"restaurant","importance":0.001,"icon":"http://nominatim.openstreetmap.org/images/mapicons/food_restaurant.p.20.png","visiting_time":60.0,"opening_hours":null,"opening_days":null,"rating":0,"photo_url":null,"description":null,"www":null},{"place_id":"18586206","geometry":{"type":"Point","coordinates":[12.1874584,44.1994776]},"display_name":"Il Mangione, 59, Via Palmiro Togliatti, Bertinoro, FC, EMR, 47032, Italia","category":"eating","type":"restaurant","importance":0.001,"icon":"http://nominatim.openstreetmap.org/images/mapicons/food_restaurant.p.20.png","visiting_time":60.0,"opening_hours":null,"opening_days":null,"rating":0,"photo_url":null,"description":null,"www":null},{"place_id":"25541769","geometry":{"type":"Point","coordinates":[12.3283254,44.0752425]},"display_name":"Lumira, Via Decio Raggi, Longiano, FC, EMR, Italia","category":"eating","type":"restaurant","importance":0.001,"icon":"http://nominatim.openstreetmap.org/images/mapicons/food_restaurant.p.20.png","visiting_time":60.0,"opening_hours":null,"opening_days":null,"rating":0,"photo_url":null,"description":null,"www":null},{"place_id":"113023057","geometry":{"type":"Point","coordinates":[12.335588634,44.0749553]},"display_name":"Via Montilgallo, Longiano, FC, EMR, Italia","category":"eating","type":"restaurant","importance":0.001,"icon":"http://nominatim.openstreetmap.org/images/mapicons/food_restaurant.p.20.png","visiting_time":60.0,"opening_hours":null,"opening_days":null,"rating":0,"photo_url":null,"description":null,"www":null},{"place_id":"112274478","geometry":{"type":"Point","coordinates":[12.34732585,44.11623815]},"display_name":"Via sopra Rigossa, Gambettola, FC, EMR, Italia","category":"eating","type":"restaurant","importance":0.001,"icon":"http://nominatim.openstreetmap.org/images/mapicons/food_restaurant.p.20.png","visiting_time":60.0,"opening_hours":null,"opening_days":null,"rating":0,"photo_url":null,"description":null,"www":null},{"place_id":"177333668","geometry":{"type":"Point","coordinates":[12.327481889,44.11300895]},"display_name":"Via Loreto, Quartiere Rubicone, Gambettola, FC, EMR, Italia","category":"eating","type":"restaurant","importance":0.001,"icon":"http://nominatim.openstreetmap.org/images/mapicons/food_restaurant.p.20.png","visiting_time":60.0,"opening_hours":null,"opening_days":null,"rating":0,"photo_url":null,"description":null,"www":null},{"place_id":"176112857","geometry":{"type":"Point","coordinates":[12.33790025,44.11718395]},"display_name":"8, Via A. Ravaldini, Gambettola, FC, EMR, Italia","category":"eating","type":"restaurant","importance":0.001,"icon":"http://nominatim.openstreetmap.org/images/mapicons/food_restaurant.p.20.png","visiting_time":60.0,"opening_hours":null,"opening_days":null,"rating":0,"photo_url":null,"description":null,"www":null},{"place_id":"2527503","geometry":{"type":"Point","coordinates":[12.2595565,44.0658938]},"display_name":"Castello di Sorrivoli, Via del Castello, Roncofreddo, FC, EMR, 47020, Italia","category":"eating","type":"restaurant","importance":0.001,"icon":"http://nominatim.openstreetmap.org/images/mapicons/food_restaurant.p.20.png","visiting_time":60.0,"opening_hours":null,"opening_days":null,"rating":0,"photo_url":null,"description":null,"www":null},{"place_id":"51330004","geometry":{"type":"Point","coordinates":[12.2663298,44.0450123]},"display_name":"Agriturismo Tenuta Volpe, 19, Via Lord Byron, Roncofreddo, FC, EMR, 47020, Italia","category":"eating","type":"restaurant","importance":0.001,"icon":"http://nominatim.openstreetmap.org/images/mapicons/food_restaurant.p.20.png","visiting_time":60.0,"opening_hours":null,"opening_days":null,"rating":0,"photo_url":null,"description":null,"www":null},{"place_id":"112905034","geometry":{"type":"Point","coordinates":[12.241101675,44.0297093]},"display_name":"Osteria di Montecodruzzo, 12, Piazzetta Ferretta, Roncofreddo, FC, EMR, 47020, Italia","category":"eating","type":"restaurant","importance":0.001,"icon":"http://nominatim.openstreetmap.org/images/mapicons/food_restaurant.p.20.png","visiting_time":60.0,"opening_hours":null,"opening_days":null,"rating":0,"photo_url":null,"description":null,"www":null},{"place_id":"112976318","geometry":{"type":"Point","coordinates":[12.241058116,44.03006115]},"display_name":"Trattoria dalla Lina, 10, Via Malatesta, Roncofreddo, FC, EMR, 47020, Italia","category":"eating","type":"restaurant","importance":0.001,"icon":"http://nominatim.openstreetmap.org/images/mapicons/food_restaurant.p.20.png","visiting_time":60.0,"opening_hours":null,"opening_days":null,"rating":0,"photo_url":null,"description":null,"www":null},{"place_id":"25454408","geometry":{"type":"Point","coordinates":[12.2441547,44.0602651]},"display_name":"Agriturismo Ca' Marcella, 1325, Via Rudigliano, Roncofreddo, FC, EMR, 47020, Italia","category":"eating","type":"restaurant","importance":0.001,"icon":"http://nominatim.openstreetmap.org/images/mapicons/food_restaurant.p.20.png","visiting_time":60.0,"opening_hours":null,"opening_days":null,"rating":0,"photo_url":null,"description":null,"www":null},{"place_id":"22694086","geometry":{"type":"Point","coordinates":[12.2955976,44.0263793]},"display_name":"Agriturismo Il Cucco, Via Cucco, Roncofreddo, FC, EMR, Italia","category":"eating","type":"restaurant","importance":0.001,"icon":"http://nominatim.openstreetmap.org/images/mapicons/food_restaurant.p.20.png","visiting_time":60.0,"opening_hours":null,"opening_days":null,"rating":0,"photo_url":null,"description":null,"www":null},{"place_id":"178196686","geometry":{"type":"Point","coordinates":[12.24013506,44.1364389]},"display_name":"Rocca Malatestiana, Via Cia degli Ordelaffi, Quartiere Centro Urbano, Cesena, FC, EMR, 47023, Italia","category":"attractions","type":"castle","importance":0.23050715,"icon":"http://nominatim.openstreetmap.org/images/mapicons/tourist_castle.p.20.png","visiting_time":120.0,"opening_hours":null,"opening_days":null,"rating":0,"photo_url":null,"description":null,"www":null},{"place_id":"114814281","geometry":{"type":"Point","coordinates":[12.127016508,44.18720495]},"display_name":"Piazza Trieste, San Leonardo, Forlimpopoli, FC, EMR, 47034, Italia","category":"attractions","type":"castle","importance":0.001,"icon":"http://nominatim.openstreetmap.org/images/mapicons/tourist_castle.p.20.png","visiting_time":120.0,"opening_hours":null,"opening_days":null,"rating":0,"photo_url":null,"description":null,"www":null},{"place_id":"111124943","geometry":{"type":"Point","coordinates":[12.133113734,44.14741765]},"display_name":"Rocca di Bertinoro, Via Aldruda Frangipane, Bertinoro, FC, EMR, 47032, Italia","category":"attractions","type":"castle","importance":0.001,"icon":"http://nominatim.openstreetmap.org/images/mapicons/tourist_castle.p.20.png","visiting_time":120.0,"opening_hours":null,"opening_days":null,"rating":0,"photo_url":null,"description":null,"www":null},{"place_id":"114165373","geometry":{"type":"Point","coordinates":[12.107677056,44.0843684]},"display_name":"Castello di Teodorano, Via Teodorano, Meldola, FC, EMR, Italia","category":"attractions","type":"castle","importance":0.001,"icon":"http://nominatim.openstreetmap.org/images/mapicons/tourist_castle.p.20.png","visiting_time":120.0,"opening_hours":null,"opening_days":null,"rating":0,"photo_url":null,"description":null,"www":null},{"place_id":"7598836","geometry":{"type":"Point","coordinates":[12.3248417,44.0725416]},"display_name":"Castello di Longiano, Via Porta del Ponte, Longiano, FC, EMR, Italia","category":"attractions","type":"castle","importance":0.001,"icon":"http://nominatim.openstreetmap.org/images/mapicons/tourist_castle.p.20.png","visiting_time":120.0,"opening_hours":null,"opening_days":null,"rating":0,"photo_url":null,"description":null,"www":null},{"place_id":"114655102","geometry":{"type":"Point","coordinates":[12.259406943,44.0657809]},"display_name":"Castello di Sorrivoli, Via del Castello, Roncofreddo, FC, EMR, 47020, Italia","category":"attractions","type":"castle","importance":0.001,"icon":"http://nominatim.openstreetmap.org/images/mapicons/tourist_castle.p.20.png","visiting_time":120.0,"opening_hours":null,"opening_days":null,"rating":0,"photo_url":null,"description":null,"www":null},{"place_id":"25459236","geometry":{"type":"Point","coordinates":[12.1841704,44.0629753]},"display_name":"Bar Romagna, Strada Statale 3 bis Tiberina, Quartiere Borello, Cesena, FC, EMR, Italia","category":"lifestyle","type":"bar","importance":0.101,"icon":"http://nominatim.openstreetmap.org/images/mapicons/food_bar.p.20.png","visiting_time":10.0,"opening_hours":null,"opening_days":null,"rating":0,"photo_url":null,"description":null,"www":null},{"place_id":"25074625","geometry":{"type":"Point","coordinates":[12.2042333,44.1114947]},"display_name":"Snack Bar, Strada Statale 3 bis Tiberina, Quartiere Valle Savio, Cesena, FC, EMR, 47522, Italia","category":"lifestyle","type":"bar","importance":0.101,"icon":"http://nominatim.openstreetmap.org/images/mapicons/food_bar.p.20.png","visiting_time":10.0,"opening_hours":null,"opening_days":null,"rating":0,"photo_url":null,"description":null,"www":null},{"place_id":"5298050","geometry":{"type":"Point","coordinates":[12.1961324,44.105802]},"display_name":"Big Ban Bar, Via San Vittore, Quartiere Valle Savio, Cesena, FC, EMR, 47522, Italia","category":"lifestyle","type":"bar","importance":0.101,"icon":"http://nominatim.openstreetmap.org/images/mapicons/food_bar.p.20.png","visiting_time":10.0,"opening_hours":null,"opening_days":null,"rating":0,"photo_url":null,"description":null,"www":null},{"place_id":"23509988","geometry":{"type":"Point","coordinates":[12.2451956,44.1408687]},"display_name":"Dolceamaro Bar, 48a, Viale Gaspare Finali, Quartiere Centro Urbano, Cesena, FC, EMR, 47521, Italia","category":"lifestyle","type":"bar","importance":0.101,"icon":"http://nominatim.openstreetmap.org/images/mapicons/food_bar.p.20.png","visiting_time":10.0,"opening_hours":null,"opening_days":null,"rating":0,"photo_url":null,"description":null,"www":null},{"place_id":"7164414","geometry":{"type":"Point","coordinates":[12.1286385,44.1875846]},"display_name":"Bar pasticceria Maltoni, Via Duca d'Aosta, San Leonardo, Forlimpopoli, FC, EMR, 47034, Italia","category":"lifestyle","type":"bar","importance":0.101,"icon":"http://nominatim.openstreetmap.org/images/mapicons/food_bar.p.20.png","visiting_time":10.0,"opening_hours":null,"opening_days":null,"rating":0,"photo_url":null,"description":null,"www":null},{"place_id":"7228610","geometry":{"type":"Point","coordinates":[12.1232615,44.1871161]},"display_name":"Bar Agip, Via Circonvallazione, San Leonardo, Forlimpopoli, FC, EMR, 47034, Italia","category":"lifestyle","type":"bar","importance":0.101,"icon":"http://nominatim.openstreetmap.org/images/mapicons/food_bar.p.20.png","visiting_time":10.0,"opening_hours":null,"opening_days":null,"rating":0,"photo_url":null,"description":null,"www":null},{"place_id":"23711153","geometry":{"type":"Point","coordinates":[12.1891098,44.1612652]},"display_name":"Bar Alfero, 382, Via Emilia Ponente, Quartiere Oltre Savio, Bertinoro, FC, EMR, 47522, Italia","category":"lifestyle","type":"bar","importance":0.101,"icon":"http://nominatim.openstreetmap.org/images/mapicons/food_bar.p.20.png","visiting_time":10.0,"opening_hours":null,"opening_days":null,"rating":0,"photo_url":null,"description":null,"www":null},{"place_id":"24857241","geometry":{"type":"Point","coordinates":[12.18819,44.2016092]},"display_name":"Cocco's bar, Via Primo Maggio, Bertinoro, FC, EMR, Italia","category":"lifestyle","type":"bar","importance":0.101,"icon":"http://nominatim.openstreetmap.org/images/mapicons/food_bar.p.20.png","visiting_time":10.0,"opening_hours":null,"opening_days":null,"rating":0,"photo_url":null,"description":null,"www":null},{"place_id":"58385754","geometry":{"type":"Point","coordinates":[12.3523435,44.0314446]},"display_name":"bar Centrale, Via Egisto Ricci, Borghi, FC, EMR, Italia","category":"lifestyle","type":"bar","importance":0.101,"icon":"http://nominatim.openstreetmap.org/images/mapicons/food_bar.p.20.png","visiting_time":10.0,"opening_hours":null,"opening_days":null,"rating":0,"photo_url":null,"description":null,"www":null},{"place_id":"23491932","geometry":{"type":"Point","coordinates":[12.2076178,44.0876724]},"display_name":"circolo la torre, 81, Via Castello di Roversano, Quartiere Valle Savio, Cesena, FC, EMR, 47522, Italia","category":"lifestyle","type":"pub","importance":0.001,"icon":"http://nominatim.openstreetmap.org/images/mapicons/food_pub.p.20.png","visiting_time":10.0,"opening_hours":null,"opening_days":null,"rating":0,"photo_url":null,"description":null,"www":null},{"place_id":"24302149","geometry":{"type":"Point","coordinates":[12.2495522,44.1447502]},"display_name":"Caffe Capolinea, 92, Piazza Giorgio Sanguinetti, Quartiere Centro Urbano, Cesena, FC, EMR, 47521, Italia","category":"lifestyle","type":"bar","importance":0.001,"icon":"http://nominatim.openstreetmap.org/images/mapicons/food_bar.p.20.png","visiting_time":10.0,"opening_hours":null,"opening_days":null,"rating":0,"photo_url":null,"description":null,"www":null},{"place_id":"58111236","geometry":{"type":"Point","coordinates":[12.2610932,44.1521163]},"display_name":"Casa del Popolo / Dolcevita Cafè, Via Cervese, Quartiere Cervese Sud, Cesena, FC, EMR, 47521, Italia","category":"lifestyle","type":"bar","importance":0.001,"icon":"http://nominatim.openstreetmap.org/images/mapicons/food_bar.p.20.png","visiting_time":10.0,"opening_hours":null,"opening_days":null,"rating":0,"photo_url":null,"description":null,"www":null},{"place_id":"23959913","geometry":{"type":"Point","coordinates":[12.2481665,44.145229]},"display_name":"Stop & Go Cafè, 19, Viale Europa, Quartiere Centro Urbano, Cesena, FC, EMR, 47521, Italia","category":"lifestyle","type":"bar","importance":0.001,"icon":"http://nominatim.openstreetmap.org/images/mapicons/food_bar.p.20.png","visiting_time":10.0,"opening_hours":null,"opening_days":null,"rating":0,"photo_url":null,"description":null,"www":null},{"place_id":"61937017","geometry":{"type":"Point","coordinates":[12.2432111,44.1625604]},"display_name":"Via Ravennate, Quartiere Ravennate, Cesena, FC, EMR, 47023, Italia","category":"lifestyle","type":"bar","importance":0.001,"icon":"http://nominatim.openstreetmap.org/images/mapicons/food_bar.p.20.png","visiting_time":10.0,"opening_hours":null,"opening_days":null,"rating":0,"photo_url":null,"description":null,"www":null},{"place_id":"216606617","geometry":{"type":"Point","coordinates":[12.2415829,44.1375167]},"display_name":"Piazza del Popolo, Quartiere Centro Urbano, Cesena, FC, EMR, 47023, Italia","category":"lifestyle","type":"bar","importance":0.001,"icon":"http://nominatim.openstreetmap.org/images/mapicons/food_bar.p.20.png","visiting_time":10.0,"opening_hours":null,"opening_days":null,"rating":0,"photo_url":null,"description":null,"www":null},{"place_id":"24238228","geometry":{"type":"Point","coordinates":[12.2457479,44.1432417]},"display_name":"Margo, 294, Viale Giovanni Bovio, Quartiere Centro Urbano, Cesena, FC, EMR, 47521, Italia","category":"lifestyle","type":"bar","importance":0.001,"icon":"http://nominatim.openstreetmap.org/images/mapicons/food_bar.p.20.png","visiting_time":10.0,"opening_hours":null,"opening_days":null,"rating":0,"photo_url":null,"description":null,"www":null},{"place_id":"23792036","geometry":{"type":"Point","coordinates":[12.2436499,44.1375376]},"display_name":"divino caffe, 14, Galleria Urtoller, Quartiere Centro Urbano, Cesena, FC, EMR, 47521, Italia","category":"lifestyle","type":"bar","importance":0.001,"icon":"http://nominatim.openstreetmap.org/images/mapicons/food_bar.p.20.png","visiting_time":10.0,"opening_hours":null,"opening_days":null,"rating":0,"photo_url":null,"description":null,"www":null},{"place_id":"16175192","geometry":{"type":"Point","coordinates":[12.2708005,44.1424591]},"display_name":"Piadineria, Via Giorgio Ambrosoli, Case Frini, Quartiere Fiorenzuola, Cesena, FC, EMR, 47521, Italia","category":"lifestyle","type":"fast_food","importance":0.001,"icon":"http://nominatim.openstreetmap.org/images/mapicons/food_fastfood.p.20.png","visiting_time":10.0,"opening_hours":null,"opening_days":null,"rating":0,"photo_url":null,"description":null,"www":null},{"place_id":"29480262","geometry":{"type":"Point","coordinates":[12.227123,44.1503501]},"display_name":"Via Fausto Coppi, Quartiere Oltre Savio, Cesena, FC, EMR, 47522, Italia","category":"lifestyle","type":"fast_food","importance":0.001,"icon":"http://nominatim.openstreetmap.org/images/mapicons/food_fastfood.p.20.png","visiting_time":10.0,"opening_hours":null,"opening_days":null,"rating":0,"photo_url":null,"description":null,"www":null},{"place_id":"45193163","geometry":{"type":"Point","coordinates":[12.1928073,44.0887872]},"display_name":"Via Castiglione, Quartiere Valle Savio, Cesena, FC, EMR, Italia","category":"lifestyle","type":"fast_food","importance":0.001,"icon":"http://nominatim.openstreetmap.org/images/mapicons/food_fastfood.p.20.png","visiting_time":10.0,"opening_hours":null,"opening_days":null,"rating":0,"photo_url":null,"description":null,"www":null},{"place_id":"8457552","geometry":{"type":"Point","coordinates":[12.2825401,44.1691623]},"display_name":"McDonald's, Via Cervese, Quartiere Cervese Sud, Cesena, FC, EMR, 47521, Italia","category":"lifestyle","type":"fast_food","importance":0.001,"icon":"http://nominatim.openstreetmap.org/images/mapicons/food_fastfood.p.20.png","visiting_time":10.0,"opening_hours":null,"opening_days":null,"rating":0,"photo_url":null,"description":null,"www":null},{"place_id":"23931336","geometry":{"type":"Point","coordinates":[12.2417182,44.1448386]},"display_name":"Eat Burger, 647, Viale Europa, Quartiere Centro Urbano, Cesena, FC, EMR, 47521, Italia","category":"lifestyle","type":"fast_food","importance":0.001,"icon":"http://nominatim.openstreetmap.org/images/mapicons/food_fastfood.p.20.png","visiting_time":10.0,"opening_hours":null,"opening_days":null,"rating":0,"photo_url":null,"description":null,"www":null},{"place_id":"1516337","geometry":{"type":"Point","coordinates":[12.2623039,44.1368735]},"display_name":"McDonald's, Via Salvatore Di Giacomo, Quartiere Fiorenzuola, Cesena, FC, EMR, 47521, Italia","category":"lifestyle","type":"fast_food","importance":0.001,"icon":"http://nominatim.openstreetmap.org/images/mapicons/food_fastfood.p.20.png","visiting_time":10.0,"opening_hours":null,"opening_days":null,"rating":0,"photo_url":null,"description":null,"www":null},{"place_id":"104193302","geometry":{"type":"Point","coordinates":[12.229700277,44.14064175]},"display_name":"Viale Giacomo Matteotti, Quartiere Oltre Savio, Cesena, FC, EMR, 47522, Italia","category":"lifestyle","type":"fast_food","importance":0.001,"icon":"http://nominatim.openstreetmap.org/images/mapicons/food_fastfood.p.20.png","visiting_time":10.0,"opening_hours":null,"opening_days":null,"rating":0,"photo_url":null,"description":null,"www":null},{"place_id":"111268354","geometry":{"type":"Point","coordinates":[12.228559394,44.13236455]},"display_name":"Via Giuseppe Belletti, Quartiere Oltre Savio, Cesena, FC, EMR, 47522, Italia","category":"lifestyle","type":"fast_food","importance":0.001,"icon":"http://nominatim.openstreetmap.org/images/mapicons/food_fastfood.p.20.png","visiting_time":10.0,"opening_hours":null,"opening_days":null,"rating":0,"photo_url":null,"description":null,"www":null},{"place_id":"17169892","geometry":{"type":"Point","coordinates":[12.2446507,44.1266047]},"display_name":"Via Padre Giovanni Genocchi, Quartiere Cesuola, Cesena, FC, EMR, 47023, Italia","category":"lifestyle","type":"fast_food","importance":0.001,"icon":"http://nominatim.openstreetmap.org/images/mapicons/food_fastfood.p.20.png","visiting_time":10.0,"opening_hours":null,"opening_days":null,"rating":0,"photo_url":null,"description":null,"www":null},{"place_id":"85894933","geometry":{"type":"Point","coordinates":[12.249175573,44.1373967]},"display_name":"Piadina, Via Mura Eugenio Valzania, Quartiere Centro Urbano, Cesena, FC, EMR, 47023, Italia","category":"lifestyle","type":"fast_food","importance":0.001,"icon":"http://nominatim.openstreetmap.org/images/mapicons/food_fastfood.p.20.png","visiting_time":10.0,"opening_hours":null,"opening_days":null,"rating":0,"photo_url":null,"description":null,"www":null},{"place_id":"24232797","geometry":{"type":"Point","coordinates":[12.2453621,44.1404498]},"display_name":"La Piadina di Stefano e Mascia, 5, Viale Gaspare Finali, Quartiere Centro Urbano, Cesena, FC, EMR, 47521, Italia","category":"lifestyle","type":"fast_food","importance":0.001,"icon":"http://nominatim.openstreetmap.org/images/mapicons/food_fastfood.p.20.png","visiting_time":10.0,"opening_hours":null,"opening_days":null,"rating":0,"photo_url":null,"description":null,"www":null},{"place_id":"45535865","geometry":{"type":"Point","coordinates":[12.3284756,44.209156]},"display_name":"Chiosco di piadina Claudia & Marilena, Via Bollana, Cervia, RA, EMR, 48015, Italia","category":"lifestyle","type":"fast_food","importance":0.001,"icon":"http://nominatim.openstreetmap.org/images/mapicons/food_fastfood.p.20.png","visiting_time":10.0,"opening_hours":null,"opening_days":null,"rating":0,"photo_url":null,"description":null,"www":null},{"place_id":"7377504","geometry":{"type":"Point","coordinates":[12.127608,44.1877463]},"display_name":"Cantina del Pozzo, Via Vittorio Veneto, San Leonardo, Forlimpopoli, FC, EMR, 47034, Italia","category":"lifestyle","type":"pub","importance":0.001,"icon":"http://nominatim.openstreetmap.org/images/mapicons/food_pub.p.20.png","visiting_time":10.0,"opening_hours":null,"opening_days":null,"rating":0,"photo_url":null,"description":null,"www":null},{"place_id":"7175724","geometry":{"type":"Point","coordinates":[12.1154381,44.1872248]},"display_name":"Majenta Cafè, Via Coriano, San Leonardo, Forlimpopoli, FC, EMR, 47034, Italia","category":"lifestyle","type":"bar","importance":0.001,"icon":"http://nominatim.openstreetmap.org/images/mapicons/food_bar.p.20.png","visiting_time":10.0,"opening_hours":null,"opening_days":null,"rating":0,"photo_url":null,"description":null,"www":null},{"place_id":"7295566","geometry":{"type":"Point","coordinates":[12.1325175,44.1874817]},"display_name":"New Fantasy, Via della Madonna, San Leonardo, Forlimpopoli, FC, EMR, 47034, Italia","category":"lifestyle","type":"fast_food","importance":0.001,"icon":"http://nominatim.openstreetmap.org/images/mapicons/food_fastfood.p.20.png","visiting_time":10.0,"opening_hours":null,"opening_days":null,"rating":0,"photo_url":null,"description":null,"www":null},{"place_id":"7086188","geometry":{"type":"Point","coordinates":[12.1255748,44.1863416]},"display_name":"Tom & Jerry, Via Armando Diaz, San Leonardo, Forlimpopoli, FC, EMR, 47034, Italia","category":"lifestyle","type":"fast_food","importance":0.001,"icon":"http://nominatim.openstreetmap.org/images/mapicons/food_fastfood.p.20.png","visiting_time":10.0,"opening_hours":null,"opening_days":null,"rating":0,"photo_url":null,"description":null,"www":null},{"place_id":"12261361","geometry":{"type":"Point","coordinates":[12.1065069,44.1942326]},"display_name":"America Graffiti, 1387, Via Emilia, San Leonardo, Forlimpopoli, FC, EMR, 47034, Italia","category":"lifestyle","type":"fast_food","importance":0.001,"icon":"http://nominatim.openstreetmap.org/images/mapicons/food_fastfood.p.20.png","visiting_time":10.0,"opening_hours":null,"opening_days":null,"rating":0,"photo_url":null,"description":null,"www":null},{"place_id":"7434621","geometry":{"type":"Point","coordinates":[12.1332957,44.184055]},"display_name":"Sante, Via della Madonna, San Leonardo, Forlimpopoli, FC, EMR, 47034, Italia","category":"lifestyle","type":"fast_food","importance":0.001,"icon":"http://nominatim.openstreetmap.org/images/mapicons/food_fastfood.p.20.png","visiting_time":10.0,"opening_hours":null,"opening_days":null,"rating":0,"photo_url":null,"description":null,"www":null},{"place_id":"108917183","geometry":{"type":"Point","coordinates":[12.101105196,44.1374306]},"display_name":"Via Superga, Bertinoro, FC, EMR, Italia","category":"lifestyle","type":"bar","importance":0.001,"icon":"http://nominatim.openstreetmap.org/images/mapicons/food_bar.p.20.png","visiting_time":10.0,"opening_hours":null,"opening_days":null,"rating":0,"photo_url":null,"description":null,"www":null},{"place_id":"18165511","geometry":{"type":"Point","coordinates":[12.1883093,44.1995262]},"display_name":"Da Marco, Via Santa Croce, Bertinoro, FC, EMR, 47032, Italia","category":"lifestyle","type":"fast_food","importance":0.001,"icon":"http://nominatim.openstreetmap.org/images/mapicons/food_fastfood.p.20.png","visiting_time":10.0,"opening_hours":null,"opening_days":null,"rating":0,"photo_url":null,"description":null,"www":null},{"place_id":"58596609","geometry":{"type":"Point","coordinates":[12.1560836,44.1696415]},"display_name":"Via Giardino, Bertinoro, FC, EMR, 47032, Italia","category":"lifestyle","type":"fast_food","importance":0.001,"icon":"http://nominatim.openstreetmap.org/images/mapicons/food_fastfood.p.20.png","visiting_time":10.0,"opening_hours":null,"opening_days":null,"rating":0,"photo_url":null,"description":null,"www":null},{"place_id":"18102889","geometry":{"type":"Point","coordinates":[12.188492,44.1999204]},"display_name":"Voglia di pizza, Via Santa Croce, Bertinoro, FC, EMR, 47032, Italia","category":"lifestyle","type":"fast_food","importance":0.001,"icon":"http://nominatim.openstreetmap.org/images/mapicons/food_fastfood.p.20.png","visiting_time":10.0,"opening_hours":null,"opening_days":null,"rating":0,"photo_url":null,"description":null,"www":null},{"place_id":"17341008","geometry":{"type":"Point","coordinates":[12.1753503,44.166037]},"display_name":"Via Molino Bratti, Bertinoro, FC, EMR, 47032, Italia","category":"lifestyle","type":"fast_food","importance":0.001,"icon":"http://nominatim.openstreetmap.org/images/mapicons/food_fastfood.p.20.png","visiting_time":10.0,"opening_hours":null,"opening_days":null,"rating":0,"photo_url":null,"description":null,"www":null},{"place_id":"18210878","geometry":{"type":"Point","coordinates":[12.3136166,44.0968493]},"display_name":"La Ca' d'la Piada, Via Provinciale Badia, Longiano, FC, EMR, Italia","category":"lifestyle","type":"fast_food","importance":0.001,"icon":"http://nominatim.openstreetmap.org/images/mapicons/food_fastfood.p.20.png","visiting_time":10.0,"opening_hours":null,"opening_days":null,"rating":0,"photo_url":null,"description":null,"www":null},{"place_id":"23491932","geometry":{"type":"Point","coordinates":[12.2076178,44.0876724]},"display_name":"circolo la torre, 81, Via Castello di Roversano, Quartiere Valle Savio, Cesena, FC, EMR, 47522, Italia","category":"lifestyle","type":"pub","importance":0.001,"icon":"http://nominatim.openstreetmap.org/images/mapicons/food_pub.p.20.png","visiting_time":90.0,"opening_hours":null,"opening_days":null,"rating":0,"photo_url":null,"description":null,"www":null},{"place_id":"216606617","geometry":{"type":"Point","coordinates":[12.2415829,44.1375167]},"display_name":"Piazza del Popolo, Quartiere Centro Urbano, Cesena, FC, EMR, 47023, Italia","category":"lifestyle","type":"bar","importance":0.001,"icon":"http://nominatim.openstreetmap.org/images/mapicons/food_bar.p.20.png","visiting_time":90.0,"opening_hours":null,"opening_days":null,"rating":0,"photo_url":null,"description":null,"www":null},{"place_id":"61528466","geometry":{"type":"Point","coordinates":[12.243232,44.1625955]},"display_name":"Via Ravennate, Quartiere Ravennate, Cesena, FC, EMR, 47023, Italia","category":"lifestyle","type":"bar","importance":0.001,"icon":"http://nominatim.openstreetmap.org/images/mapicons/food_bar.p.20.png","visiting_time":90.0,"opening_hours":null,"opening_days":null,"rating":0,"photo_url":null,"description":null,"www":null},{"place_id":"23959913","geometry":{"type":"Point","coordinates":[12.2481665,44.145229]},"display_name":"Stop & Go Cafè, 19, Viale Europa, Quartiere Centro Urbano, Cesena, FC, EMR, 47521, Italia","category":"lifestyle","type":"bar","importance":0.001,"icon":"http://nominatim.openstreetmap.org/images/mapicons/food_bar.p.20.png","visiting_time":90.0,"opening_hours":null,"opening_days":null,"rating":0,"photo_url":null,"description":null,"www":null},{"place_id":"23509988","geometry":{"type":"Point","coordinates":[12.2451956,44.1408687]},"display_name":"Dolceamaro Bar, 48a, Viale Gaspare Finali, Quartiere Centro Urbano, Cesena, FC, EMR, 47521, Italia","category":"lifestyle","type":"bar","importance":0.001,"icon":"http://nominatim.openstreetmap.org/images/mapicons/food_bar.p.20.png","visiting_time":90.0,"opening_hours":null,"opening_days":null,"rating":0,"photo_url":null,"description":null,"www":null},{"place_id":"5298050","geometry":{"type":"Point","coordinates":[12.1961324,44.105802]},"display_name":"Big Ban Bar, Via San Vittore, Quartiere Valle Savio, Cesena, FC, EMR, 47522, Italia","category":"lifestyle","type":"bar","importance":0.001,"icon":"http://nominatim.openstreetmap.org/images/mapicons/food_bar.p.20.png","visiting_time":90.0,"opening_hours":null,"opening_days":null,"rating":0,"photo_url":null,"description":null,"www":null},{"place_id":"24302149","geometry":{"type":"Point","coordinates":[12.2495522,44.1447502]},"display_name":"Caffe Capolinea, 92, Piazza Giorgio Sanguinetti, Quartiere Centro Urbano, Cesena, FC, EMR, 47521, Italia","category":"lifestyle","type":"bar","importance":0.001,"icon":"http://nominatim.openstreetmap.org/images/mapicons/food_bar.p.20.png","visiting_time":90.0,"opening_hours":null,"opening_days":null,"rating":0,"photo_url":null,"description":null,"www":null},{"place_id":"58111236","geometry":{"type":"Point","coordinates":[12.2610932,44.1521163]},"display_name":"Casa del Popolo / Dolcevita Cafè, Via Cervese, Quartiere Cervese Sud, Cesena, FC, EMR, 47521, Italia","category":"lifestyle","type":"bar","importance":0.001,"icon":"http://nominatim.openstreetmap.org/images/mapicons/food_bar.p.20.png","visiting_time":90.0,"opening_hours":null,"opening_days":null,"rating":0,"photo_url":null,"description":null,"www":null},{"place_id":"25074625","geometry":{"type":"Point","coordinates":[12.2042333,44.1114947]},"display_name":"Snack Bar, Strada Statale 3 bis Tiberina, Quartiere Valle Savio, Cesena, FC, EMR, 47522, Italia","category":"lifestyle","type":"bar","importance":0.001,"icon":"http://nominatim.openstreetmap.org/images/mapicons/food_bar.p.20.png","visiting_time":90.0,"opening_hours":null,"opening_days":null,"rating":0,"photo_url":null,"description":null,"www":null},{"place_id":"24238228","geometry":{"type":"Point","coordinates":[12.2457479,44.1432417]},"display_name":"Margo, 294, Viale Giovanni Bovio, Quartiere Centro Urbano, Cesena, FC, EMR, 47521, Italia","category":"lifestyle","type":"bar","importance":0.001,"icon":"http://nominatim.openstreetmap.org/images/mapicons/food_bar.p.20.png","visiting_time":90.0,"opening_hours":null,"opening_days":null,"rating":0,"photo_url":null,"description":null,"www":null},{"place_id":"23792036","geometry":{"type":"Point","coordinates":[12.2436499,44.1375376]},"display_name":"divino caffe, 14, Galleria Urtoller, Quartiere Centro Urbano, Cesena, FC, EMR, 47521, Italia","category":"lifestyle","type":"bar","importance":0.001,"icon":"http://nominatim.openstreetmap.org/images/mapicons/food_bar.p.20.png","visiting_time":90.0,"opening_hours":null,"opening_days":null,"rating":0,"photo_url":null,"description":null,"www":null},{"place_id":"25459236","geometry":{"type":"Point","coordinates":[12.1841704,44.0629753]},"display_name":"Bar Romagna, Strada Statale 3 bis Tiberina, Quartiere Borello, Cesena, FC, EMR, Italia","category":"lifestyle","type":"bar","importance":0.001,"icon":"http://nominatim.openstreetmap.org/images/mapicons/food_bar.p.20.png","visiting_time":90.0,"opening_hours":null,"opening_days":null,"rating":0,"photo_url":null,"description":null,"www":null},{"place_id":"7377504","geometry":{"type":"Point","coordinates":[12.127608,44.1877463]},"display_name":"Cantina del Pozzo, Via Vittorio Veneto, San Leonardo, Forlimpopoli, FC, EMR, 47034, Italia","category":"lifestyle","type":"pub","importance":0.001,"icon":"http://nominatim.openstreetmap.org/images/mapicons/food_pub.p.20.png","visiting_time":90.0,"opening_hours":null,"opening_days":null,"rating":0,"photo_url":null,"description":null,"www":null},{"place_id":"7175724","geometry":{"type":"Point","coordinates":[12.1154381,44.1872248]},"display_name":"Majenta Cafè, Via Coriano, San Leonardo, Forlimpopoli, FC, EMR, 47034, Italia","category":"lifestyle","type":"bar","importance":0.001,"icon":"http://nominatim.openstreetmap.org/images/mapicons/food_bar.p.20.png","visiting_time":90.0,"opening_hours":null,"opening_days":null,"rating":0,"photo_url":null,"description":null,"www":null},{"place_id":"7228610","geometry":{"type":"Point","coordinates":[12.1232615,44.1871161]},"display_name":"Bar Agip, Via Circonvallazione, San Leonardo, Forlimpopoli, FC, EMR, 47034, Italia","category":"lifestyle","type":"bar","importance":0.001,"icon":"http://nominatim.openstreetmap.org/images/mapicons/food_bar.p.20.png","visiting_time":90.0,"opening_hours":null,"opening_days":null,"rating":0,"photo_url":null,"description":null,"www":null},{"place_id":"7164414","geometry":{"type":"Point","coordinates":[12.1286385,44.1875846]},"display_name":"Bar pasticceria Maltoni, Via Duca d'Aosta, San Leonardo, Forlimpopoli, FC, EMR, 47034, Italia","category":"lifestyle","type":"bar","importance":0.001,"icon":"http://nominatim.openstreetmap.org/images/mapicons/food_bar.p.20.png","visiting_time":90.0,"opening_hours":null,"opening_days":null,"rating":0,"photo_url":null,"description":null,"www":null},{"place_id":"23711153","geometry":{"type":"Point","coordinates":[12.1891098,44.1612652]},"display_name":"Bar Alfero, 382, Via Emilia Ponente, Quartiere Oltre Savio, Bertinoro, FC, EMR, 47522, Italia","category":"lifestyle","type":"bar","importance":0.001,"icon":"http://nominatim.openstreetmap.org/images/mapicons/food_bar.p.20.png","visiting_time":90.0,"opening_hours":null,"opening_days":null,"rating":0,"photo_url":null,"description":null,"www":null},{"place_id":"24857241","geometry":{"type":"Point","coordinates":[12.18819,44.2016092]},"display_name":"Cocco's bar, Via Primo Maggio, Bertinoro, FC, EMR, Italia","category":"lifestyle","type":"bar","importance":0.001,"icon":"http://nominatim.openstreetmap.org/images/mapicons/food_bar.p.20.png","visiting_time":90.0,"opening_hours":null,"opening_days":null,"rating":0,"photo_url":null,"description":null,"www":null},{"place_id":"108917183","geometry":{"type":"Point","coordinates":[12.101105196,44.1374306]},"display_name":"Via Superga, Bertinoro, FC, EMR, Italia","category":"lifestyle","type":"bar","importance":0.001,"icon":"http://nominatim.openstreetmap.org/images/mapicons/food_bar.p.20.png","visiting_time":90.0,"opening_hours":null,"opening_days":null,"rating":0,"photo_url":null,"description":null,"www":null},{"place_id":"58385754","geometry":{"type":"Point","coordinates":[12.3523435,44.0314446]},"display_name":"bar Centrale, Via Egisto Ricci, Borghi, FC, EMR, Italia","category":"lifestyle","type":"bar","importance":0.001,"icon":"http://nominatim.openstreetmap.org/images/mapicons/food_bar.p.20.png","visiting_time":90.0,"opening_hours":null,"opening_days":null,"rating":0,"photo_url":null,"description":null,"www":null},{"place_id":"180169053","geometry":{"type":"Point","coordinates":[-8.3350726,43.2233149]},"display_name":"Abegondo, Galicia, CAFE, España","category":"lifestyle","type":"postcode","importance":0.2125,"icon":null,"visiting_time":10.0,"opening_hours":null,"opening_days":null,"rating":0,"photo_url":null,"description":null,"www":null},{"place_id":"12342674","geometry":{"type":"Point","coordinates":[12.1015677,44.1942858]},"display_name":"Cobà, Via della Croce, San Leonardo, Forlimpopoli, FC, EMR, 47034, Italia","category":"lifestyle","type":"nightclub","importance":0.001,"icon":null,"visiting_time":120.0,"opening_hours":null,"opening_days":null,"rating":0,"photo_url":null,"description":null,"www":null},{"place_id":"6954654","geometry":{"type":"Point","coordinates":[12.1387345,44.1417967]},"display_name":"Via dei Cappuccini, Bertinoro, FC, EMR, 47032, Italia","category":"lifestyle","type":"nightclub","importance":0.001,"icon":null,"visiting_time":120.0,"opening_hours":null,"opening_days":null,"rating":0,"photo_url":null,"description":null,"www":null},{"place_id":"86632266","geometry":{"type":"Point","coordinates":[12.260196845,44.14919785]},"display_name":"Via Cervese, Quartiere Cervese Sud, Cesena, FC, EMR, 47521, Italia","category":"attractions","type":"memorial","importance":0.001,"icon":"http://nominatim.openstreetmap.org/images/mapicons/tourist_monument.p.20.png","visiting_time":10.0,"opening_hours":null,"opening_days":null,"rating":0,"photo_url":null,"description":null,"www":null},{"place_id":"59776907","geometry":{"type":"Point","coordinates":[12.249629,44.1373531]},"display_name":"Monumento alla Resistenza, Via Mura Eugenio Valzania, Quartiere Centro Urbano, Cesena, FC, EMR, 47023, Italia","category":"attractions","type":"memorial","importance":0.001,"icon":"http://nominatim.openstreetmap.org/images/mapicons/tourist_monument.p.20.png","visiting_time":10.0,"opening_hours":null,"opening_days":null,"rating":0,"photo_url":null,"description":null,"www":null},{"place_id":"45528929","geometry":{"type":"Point","coordinates":[12.1319497,44.1490491]},"display_name":"Giuseppe Garibaldi, Via Aldruda Frangipane, Bertinoro, FC, EMR, 47032, Italia","category":"attractions","type":"memorial","importance":0.001,"icon":"http://nominatim.openstreetmap.org/images/mapicons/tourist_monument.p.20.png","visiting_time":10.0,"opening_hours":null,"opening_days":null,"rating":0,"photo_url":null,"description":null,"www":null},{"place_id":"25438640","geometry":{"type":"Point","coordinates":[12.3348247,44.0750552]},"display_name":"Garibaldi, Rotonda Giuseppe Garibaldi, Longiano, FC, EMR, Italia","category":"attractions","type":"memorial","importance":0.001,"icon":"http://nominatim.openstreetmap.org/images/mapicons/tourist_monument.p.20.png","visiting_time":10.0,"opening_hours":null,"opening_days":null,"rating":0,"photo_url":null,"description":null,"www":null},{"place_id":"3579974","geometry":{"type":"Point","coordinates":[12.2134895,44.0454453]},"display_name":"Marco Pantani, Via Montevecchio, Quartiere Borello, Roncofreddo, FC, EMR, 47020, Italia","category":"attractions","type":"memorial","importance":0.001,"icon":"http://nominatim.openstreetmap.org/images/mapicons/tourist_monument.p.20.png","visiting_time":10.0,"opening_hours":null,"opening_days":null,"rating":0,"photo_url":null,"description":null,"www":null},{"place_id":"59776907","geometry":{"type":"Point","coordinates":[12.249629,44.1373531]},"display_name":"Monumento alla Resistenza, Via Mura Eugenio Valzania, Quartiere Centro Urbano, Cesena, FC, EMR, 47023, Italia","category":"attractions","type":"memorial","importance":0.101,"icon":"http://nominatim.openstreetmap.org/images/mapicons/tourist_monument.p.20.png","visiting_time":10.0,"opening_hours":null,"opening_days":null,"rating":0,"photo_url":null,"description":null,"www":null},{"place_id":"44694516","geometry":{"type":"Point","coordinates":[12.1357059,44.1496519]},"display_name":"Monumento a Garibaldi, Piazza Garibaldi, Bertinoro, FC, EMR, 47032, Italia","category":"attractions","type":"monument","importance":0.101,"icon":"http://nominatim.openstreetmap.org/images/mapicons/tourist_monument.p.20.png","visiting_time":10.0,"opening_hours":null,"opening_days":null,"rating":0,"photo_url":null,"description":null,"www":null},{"place_id":"61528860","geometry":{"type":"Point","coordinates":[12.3384707,44.118897]},"display_name":"Monumento Straccivendolo, Corso Mazzini, Gambettola, FC, EMR, Italia","category":"attractions","type":"monument","importance":0.101,"icon":"http://nominatim.openstreetmap.org/images/mapicons/tourist_monument.p.20.png","visiting_time":10.0,"opening_hours":null,"opening_days":null,"rating":0,"photo_url":null,"description":null,"www":null},{"place_id":"86632266","geometry":{"type":"Point","coordinates":[12.260196845,44.14919785]},"display_name":"Via Cervese, Quartiere Cervese Sud, Cesena, FC, EMR, 47521, Italia","category":"attractions","type":"memorial","importance":0.001,"icon":"http://nominatim.openstreetmap.org/images/mapicons/tourist_monument.p.20.png","visiting_time":10.0,"opening_hours":null,"opening_days":null,"rating":0,"photo_url":null,"description":null,"www":null},{"place_id":"116656489","geometry":{"type":"Point","coordinates":[12.127229437,44.18734265]},"display_name":"Via Andrea Costa, San Leonardo, Forlimpopoli, FC, EMR, 47034, Italia","category":"attractions","type":"monument","importance":0.001,"icon":"http://nominatim.openstreetmap.org/images/mapicons/tourist_monument.p.20.png","visiting_time":10.0,"opening_hours":null,"opening_days":null,"rating":0,"photo_url":null,"description":null,"www":null},{"place_id":"45528929","geometry":{"type":"Point","coordinates":[12.1319497,44.1490491]},"display_name":"Giuseppe Garibaldi, Via Aldruda Frangipane, Bertinoro, FC, EMR, 47032, Italia","category":"attractions","type":"memorial","importance":0.001,"icon":"http://nominatim.openstreetmap.org/images/mapicons/tourist_monument.p.20.png","visiting_time":10.0,"opening_hours":null,"opening_days":null,"rating":0,"photo_url":null,"description":null,"www":null},{"place_id":"25438640","geometry":{"type":"Point","coordinates":[12.3348247,44.0750552]},"display_name":"Garibaldi, Rotonda Giuseppe Garibaldi, Longiano, FC, EMR, Italia","category":"attractions","type":"memorial","importance":0.001,"icon":"http://nominatim.openstreetmap.org/images/mapicons/tourist_monument.p.20.png","visiting_time":10.0,"opening_hours":null,"opening_days":null,"rating":0,"photo_url":null,"description":null,"www":null},{"place_id":"3579974","geometry":{"type":"Point","coordinates":[12.2134895,44.0454453]},"display_name":"Marco Pantani, Via Montevecchio, Quartiere Borello, Roncofreddo, FC, EMR, 47020, Italia","category":"attractions","type":"memorial","importance":0.001,"icon":"http://nominatim.openstreetmap.org/images/mapicons/tourist_monument.p.20.png","visiting_time":10.0,"opening_hours":null,"opening_days":null,"rating":0,"photo_url":null,"description":null,"www":null},{"place_id":"58911073","geometry":{"type":"Point","coordinates":[12.244067,44.1392113]},"display_name":"Museo archeologico di Cesena, Via Cesare Montalti, Quartiere Centro Urbano, Cesena, FC, EMR, 47023, Italia","category":"attractions","type":"museum","importance":0.12027225,"icon":"http://nominatim.openstreetmap.org/images/mapicons/tourist_museum.p.20.png","visiting_time":120.0,"opening_hours":null,"opening_days":null,"rating":0,"photo_url":null,"description":null,"www":null},{"place_id":"46751437","geometry":{"type":"Point","coordinates":[12.24147,44.1371501]},"display_name":"Museo di scienze naturali, Piazza del Popolo, Quartiere Centro Urbano, Cesena, FC, EMR, 47023, Italia","category":"attractions","type":"museum","importance":0.12027225,"icon":"http://nominatim.openstreetmap.org/images/mapicons/tourist_museum.p.20.png","visiting_time":120.0,"opening_hours":null,"opening_days":null,"rating":0,"photo_url":null,"description":null,"www":null},{"place_id":"56757800","geometry":{"type":"Point","coordinates":[12.2429801,44.136342]},"display_name":"Galleria d'arte moderna ex Pescheria, 23, Via Pescheria, Quartiere Centro Urbano, Cesena, FC, EMR, 47023, Italia","category":"attractions","type":"museum","importance":0.001,"icon":"http://nominatim.openstreetmap.org/images/mapicons/tourist_museum.p.20.png","visiting_time":120.0,"opening_hours":null,"opening_days":null,"rating":0,"photo_url":null,"description":null,"www":null},{"place_id":"17638438","geometry":{"type":"Point","coordinates":[12.2454082,44.1359114]},"display_name":"Facoltà di Architettura, spazio espositivo, Via Isei, Quartiere Centro Urbano, Cesena, FC, EMR, 47023, Italia","category":"attractions","type":"museum","importance":0.001,"icon":"http://nominatim.openstreetmap.org/images/mapicons/tourist_museum.p.20.png","visiting_time":120.0,"opening_hours":null,"opening_days":null,"rating":0,"photo_url":null,"description":null,"www":null},{"place_id":"18253383","geometry":{"type":"Point","coordinates":[12.2480796,44.1374648]},"display_name":"Pinacoteca Comunale, Vicolo Morsiani, Quartiere Centro Urbano, Cesena, FC, EMR, 47023, Italia","category":"attractions","type":"museum","importance":0.001,"icon":"http://nominatim.openstreetmap.org/images/mapicons/tourist_museum.p.20.png","visiting_time":120.0,"opening_hours":null,"opening_days":null,"rating":0,"photo_url":null,"description":null,"www":null},{"place_id":"179403462","geometry":{"type":"Point","coordinates":[12.227500804,44.13236765]},"display_name":"Parco per Fabio, Quartiere Oltre Savio, Cesena, FC, EMR, Italia","category":"parks","type":"park","importance":0.15,"icon":null,"visiting_time":90.0,"opening_hours":null,"opening_days":null,"rating":0,"photo_url":null,"description":null,"www":null},{"place_id":"169621300","geometry":{"type":"Point","coordinates":[12.289413268,44.14113825]},"display_name":"Parco della Casa Rossa, Quartiere Al Mare, Cesena, FC, EMR, Italia","category":"parks","type":"park","importance":0.15,"icon":null,"visiting_time":90.0,"opening_hours":null,"opening_days":null,"rating":0,"photo_url":null,"description":null,"www":null},{"place_id":"100936255","geometry":{"type":"Point","coordinates":[12.247916156,44.1486446]},"display_name":"Quartiere Cervese Sud, Cesena, FC, EMR, Italia","category":"parks","type":"park","importance":0.15,"icon":null,"visiting_time":90.0,"opening_hours":null,"opening_days":null,"rating":0,"photo_url":null,"description":null,"www":null},{"place_id":"87864338","geometry":{"type":"Point","coordinates":[12.26621453,44.2220637]},"display_name":"Giardino Pietro Maganza, Quartiere Cervese Nord, Cesena, FC, EMR, Italia","category":"parks","type":"park","importance":0.15,"icon":null,"visiting_time":90.0,"opening_hours":null,"opening_days":null,"rating":0,"photo_url":null,"description":null,"www":null},{"place_id":"86227885","geometry":{"type":"Point","coordinates":[12.228418151,44.13451555]},"display_name":"Giardino Giuseppe Palmas, Quartiere Oltre Savio, Cesena, FC, EMR, Italia","category":"parks","type":"park","importance":0.15,"icon":null,"visiting_time":90.0,"opening_hours":null,"opening_days":null,"rating":0,"photo_url":null,"description":null,"www":null},{"place_id":"86175093","geometry":{"type":"Point","coordinates":[12.246708324,44.13240615]},"display_name":"Giardino del Molinaccio, Quartiere Cesuola, Cesena, FC, EMR, Italia","category":"parks","type":"park","importance":0.15,"icon":null,"visiting_time":90.0,"opening_hours":null,"opening_days":null,"rating":0,"photo_url":null,"description":null,"www":null},{"place_id":"86600387","geometry":{"type":"Point","coordinates":[12.216934424,44.1564278]},"display_name":"Quartiere Oltre Savio, Cesena, FC, EMR, Italia","category":"parks","type":"park","importance":0.15,"icon":null,"visiting_time":90.0,"opening_hours":null,"opening_days":null,"rating":0,"photo_url":null,"description":null,"www":null},{"place_id":"87873443","geometry":{"type":"Point","coordinates":[12.217867596,44.1892506]},"display_name":"Quartiere Dismano, Cesena, FC, EMR, Italia","category":"parks","type":"park","importance":0.15,"icon":null,"visiting_time":90.0,"opening_hours":null,"opening_days":null,"rating":0,"photo_url":null,"description":null,"www":null},{"place_id":"126244849","geometry":{"type":"Point","coordinates":[12.296458905,44.17907935]},"display_name":"Quartiere Cervese Nord, Cesena, FC, EMR, Italia","category":"parks","type":"park","importance":0.15,"icon":null,"visiting_time":90.0,"opening_hours":null,"opening_days":null,"rating":0,"photo_url":null,"description":null,"www":null},{"place_id":"86233566","geometry":{"type":"Point","coordinates":[12.236530636,44.1380787]},"display_name":"Giardino Caduti Forze di Polizia, Quartiere Centro Urbano, Cesena, FC, EMR, Italia","category":"parks","type":"park","importance":0.15,"icon":null,"visiting_time":90.0,"opening_hours":null,"opening_days":null,"rating":0,"photo_url":null,"description":null,"www":null},