[{"place_id":"43,90690191656560","geometry":{"type":"Point","coordinates":[12.223138584,43.906901917]},"display_name":"Museo storico minerario Sulphur di Perticara,from:IBC","category":"attractions","type":"HolderOfArchives","importance":0.0,"icon":"","visiting_time":0.0,"opening_hours":"ok","opening_days":"ok","rating":0,"photo_url":null,"description":null,"www":"http://www.sulphur.it"},{"place_id":"43,817713","geometry":{"type":"Point","coordinates":[12.2649516,43.817713]},"display_name":"Comune di Pennabilli,from:IBC","category":"attractions","type":"HolderOfArchives","importance":0.0,"icon":"","visiting_time":0.0,"opening_hours":"ok","opening_days":"ok","rating":0,"photo_url":null,"description":null,"www":"http://www.comune.pennabilli.rn.it"},{"place_id":"43,86419391278620","geometry":{"type":"Point","coordinates":[12.208321228,43.864193913]},"display_name":"Comune di Sant'Agata Feltria,from:IBC","category":"attractions","type":"HolderOfArchives","importance":0.0,"icon":"","visiting_time":0.0,"opening_hours":"ok","opening_days":"ok","rating":0,"photo_url":null,"description":null,"www":"http://www.comune.santagatafeltria.rn.it"},{"place_id":"43,91859223303140","geometry":{"type":"Point","coordinates":[12.141737091,43.918592233]},"display_name":"Biblioteca comunale Tito Maccio Plauto,from:IBC","category":"attractions","type":"Library","importance":0.0,"icon":"","visiting_time":0.0,"opening_hours":"ok","opening_days":"ok","rating":0,"photo_url":null,"description":null,"www":"http://www.comune.sarsina.fc.it/servizi/numeriutili.htm#biblioteche"},{"place_id":"43,81671022790200","geometry":{"type":"Point","coordinates":[12.26507375,43.816710228]},"display_name":"Mateureka Museo del Calcolo,from:IBC","category":"attractions","type":"Museum","importance":0.0,"icon":"","visiting_time":0.0,"opening_hours":"ok","opening_days":"ok","rating":0,"photo_url":null,"description":null,"www":"http://www.mateureka.it"},{"place_id":"43,86419391278620","geometry":{"type":"Point","coordinates":[12.208321228,43.864193913]},"display_name":"Museo delle Arti Rurali,from:IBC","category":"attractions","type":"Museum","importance":0.0,"icon":"","visiting_time":0.0,"opening_hours":"ok","opening_days":"ok","rating":0,"photo_url":null,"description":null,"www":"http://dati.emilia-romagna.it/id/ibc/condition/IT-ER-RN048"},{"place_id":"43,90690191656560","geometry":{"type":"Point","coordinates":[12.223138584,43.906901917]},"display_name":"Sulphur Museo Storico Minerario,from:IBC","category":"attractions","type":"Museum","importance":0.0,"icon":"","visiting_time":0.0,"opening_hours":"ok","opening_days":"ok","rating":0,"photo_url":null,"description":null,"www":"http://www.comune.novafeltria.rn.it/"},{"place_id":"43,86419391278620","geometry":{"type":"Point","coordinates":[12.208321228,43.864193913]},"display_name":"Rocca delle Fiabe,from:IBC","category":"attractions","type":"Museum","importance":0.0,"icon":"","visiting_time":0.0,"opening_hours":"ok","opening_days":"ok","rating":0,"photo_url":null,"description":null,"www":"http://dati.emilia-romagna.it/id/ibc/condition/IT-ER-RN037"}]