[{"place_id":"44,9253057","geometry":{"type":"Point","coordinates":[9.91028949,44.9253057]},"display_name":"Comune di Fiorenzuola d'Arda,from:IBC","category":"attractions","type":"HolderOfArchives","importance":0.0,"icon":"","visiting_time":0.0,"opening_hours":"ok","opening_days":"ok","rating":0,"photo_url":null,"description":null,"www":"http://www.comune.fiorenzuola.pc.it"},{"place_id":"44,89611421088340","geometry":{"type":"Point","coordinates":[9.964657488,44.896114211]},"display_name":"Comune di Alseno,from:IBC","category":"attractions","type":"HolderOfArchives","importance":0.0,"icon":"","visiting_time":0.0,"opening_hours":"ok","opening_days":"ok","rating":0,"photo_url":null,"description":null,"www":"http://www.comune.alseno.pc.it"},{"place_id":"44,9252822","geometry":{"type":"Point","coordinates":[9.91008819,44.9252822]},"display_name":"Biblioteca comunale,from:IBC","category":"attractions","type":"Library","importance":0.0,"icon":"","visiting_time":0.0,"opening_hours":"ok","opening_days":"ok","rating":0,"photo_url":null,"description":null,"www":"http://bibliofiorenzuola.wordpress.com/"},{"place_id":"44,9252822","geometry":{"type":"Point","coordinates":[9.91008819,44.9252822]},"display_name":"Biblioteca comunale,from:IBC","category":"attractions","type":"Library","importance":0.0,"icon":"","visiting_time":0.0,"opening_hours":"ok","opening_days":"ok","rating":0,"photo_url":null,"description":null,"www":"http://www.comune.fiorenzuola.pc.it/citta/biblioteca.html"},{"place_id":"44,97054794031230","geometry":{"type":"Point","coordinates":[9.884778694,44.97054794]},"display_name":"Biblioteca comunale di Roveleto,from:IBC","category":"attractions","type":"Library","importance":0.0,"icon":"","visiting_time":0.0,"opening_hours":"ok","opening_days":"ok","rating":0,"photo_url":null,"description":null,"www":"http://www.istitutocomprensivocadeo.it/le-biblioteche/la-chiameremo-osvaldo-cadeo/"},{"place_id":"44,89611421088340","geometry":{"type":"Point","coordinates":[9.964657488,44.896114211]},"display_name":"Biblioteca comunale Guido Magnelli,from:IBC","category":"attractions","type":"Library","importance":0.0,"icon":"","visiting_time":0.0,"opening_hours":"ok","opening_days":"ok","rating":0,"photo_url":null,"description":null,"www":"http://dati.emilia-romagna.it/id/ibc/condition/IT-PC0001_orari"},{"place_id":"Due piante di Quercia Fiorenzuola d'Arda Parco de' Mezzi (Lucca) 608","geometry":{"type":"Point","coordinates":[9.91407346,44.92955099]},"display_name":"Due piante di Quercia Fiorenzuola d'Arda Parco de' Mezzi (Lucca),from:IBC","category":"tree","type":"tree","importance":0.0,"icon":"","visiting_time":0.0,"opening_hours":"ok","opening_days":"ok","rating":0,"photo_url":null,"description":null,"www":null},{"place_id":"Due piante di Quercia Fiorenzuola d'Arda Parco de' Mezzi (Lucca) 724","geometry":{"type":"Point","coordinates":[9.91425328,44.92970258]},"display_name":"Due piante di Quercia Fiorenzuola d'Arda Parco de' Mezzi (Lucca),from:IBC","category":"tree","type":"tree","importance":0.0,"icon":"","visiting_time":0.0,"opening_hours":"ok","opening_days":"ok","rating":0,"photo_url":null,"description":null,"www":null},{"place_id":"Due piante di Gelso comune Fiorenzuola d'Arda Moronasco 780","geometry":{"type":"Point","coordinates":[9.93550127,44.89824869]},"display_name":"Due piante di Gelso comune Fiorenzuola d'Arda Moronasco,from:IBC","category":"tree","type":"tree","importance":0.0,"icon":"","visiting_time":0.0,"opening_hours":"ok","opening_days":"ok","rating":0,"photo_url":null,"description":null,"www":null}]