[{"place_id":"7086188","geometry":{"type":"Point","coordinates":[12.1255748,44.1863416]},"display_name":"Tom & Jerry, Via Armando Diaz, San Leonardo, Forlimpopoli, FC, EMR, 47034, Italia","category":"eating","type":"fast_food","importance":0.001,"icon":"http://nominatim.openstreetmap.org/images/mapicons/food_fastfood.p.20.png","visiting_time":30.0,"opening_hours":null,"opening_days":null,"rating":0,"photo_url":null,"description":null,"www":null},{"place_id":"12261361","geometry":{"type":"Point","coordinates":[12.1065069,44.1942326]},"display_name":"America Graffiti, 1387, Via Emilia, San Leonardo, Forlimpopoli, FC, EMR, 47034, Italia","category":"eating","type":"fast_food","importance":0.001,"icon":"http://nominatim.openstreetmap.org/images/mapicons/food_fastfood.p.20.png","visiting_time":30.0,"opening_hours":null,"opening_days":null,"rating":0,"photo_url":null,"description":null,"www":null},{"place_id":"7295566","geometry":{"type":"Point","coordinates":[12.1325175,44.1874817]},"display_name":"New Fantasy, Via della Madonna, San Leonardo, Forlimpopoli, FC, EMR, 47034, Italia","category":"eating","type":"fast_food","importance":0.001,"icon":"http://nominatim.openstreetmap.org/images/mapicons/food_fastfood.p.20.png","visiting_time":30.0,"opening_hours":null,"opening_days":null,"rating":0,"photo_url":null,"description":null,"www":null},{"place_id":"7434621","geometry":{"type":"Point","coordinates":[12.1332957,44.184055]},"display_name":"Sante, Via della Madonna, San Leonardo, Forlimpopoli, FC, EMR, 47034, Italia","category":"eating","type":"fast_food","importance":0.001,"icon":"http://nominatim.openstreetmap.org/images/mapicons/food_fastfood.p.20.png","visiting_time":30.0,"opening_hours":null,"opening_days":null,"rating":0,"photo_url":null,"description":null,"www":null},{"place_id":"58596609","geometry":{"type":"Point","coordinates":[12.1560836,44.1696415]},"display_name":"Via Giardino, Bertinoro, FC, EMR, 47032, Italia","category":"eating","type":"fast_food","importance":0.001,"icon":"http://nominatim.openstreetmap.org/images/mapicons/food_fastfood.p.20.png","visiting_time":30.0,"opening_hours":null,"opening_days":null,"rating":0,"photo_url":null,"description":null,"www":null},{"place_id":"7335647","geometry":{"type":"Point","coordinates":[12.1266686,44.1857833]},"display_name":"Ristorante Edo, Via Filippo Turati, San Leonardo, Forlimpopoli, FC, EMR, 47034, Italia","category":"eating","type":"restaurant","importance":0.001,"icon":"http://nominatim.openstreetmap.org/images/mapicons/food_restaurant.p.20.png","visiting_time":60.0,"opening_hours":null,"opening_days":null,"rating":0,"photo_url":null,"description":null,"www":null},{"place_id":"7366868","geometry":{"type":"Point","coordinates":[12.1149622,44.186752]},"display_name":"Pizzeria Malù, Via del Melo, San Leonardo, Forlimpopoli, FC, EMR, 47034, Italia","category":"eating","type":"restaurant","importance":0.001,"icon":"http://nominatim.openstreetmap.org/images/mapicons/food_restaurant.p.20.png","visiting_time":60.0,"opening_hours":null,"opening_days":null,"rating":0,"photo_url":null,"description":null,"www":null},{"place_id":"7349468","geometry":{"type":"Point","coordinates":[12.1160378,44.1940772]},"display_name":"Rosa dei Venti, Via Amendola, San Leonardo, Forlimpopoli, FC, EMR, 47034, Italia","category":"eating","type":"restaurant","importance":0.001,"icon":"http://nominatim.openstreetmap.org/images/mapicons/food_restaurant.p.20.png","visiting_time":60.0,"opening_hours":null,"opening_days":null,"rating":0,"photo_url":null,"description":null,"www":null},{"place_id":"12346615","geometry":{"type":"Point","coordinates":[12.1015677,44.1944046]},"display_name":"Via della Croce, San Leonardo, Forlimpopoli, FC, EMR, 47034, Italia","category":"eating","type":"restaurant","importance":0.001,"icon":"http://nominatim.openstreetmap.org/images/mapicons/food_restaurant.p.20.png","visiting_time":60.0,"opening_hours":null,"opening_days":null,"rating":0,"photo_url":null,"description":null,"www":null},{"place_id":"7219254","geometry":{"type":"Point","coordinates":[12.1277677,44.1854998]},"display_name":"Ristorante Anna, Via Matteotti, San Leonardo, Forlimpopoli, FC, EMR, 47034, Italia","category":"eating","type":"restaurant","importance":0.001,"icon":"http://nominatim.openstreetmap.org/images/mapicons/food_restaurant.p.20.png","visiting_time":60.0,"opening_hours":null,"opening_days":null,"rating":0,"photo_url":null,"description":null,"www":null},{"place_id":"7095931","geometry":{"type":"Point","coordinates":[12.1236733,44.1869821]},"display_name":"Pizzeria Domus, Via Circonvallazione, San Leonardo, Forlimpopoli, FC, EMR, 47034, Italia","category":"eating","type":"restaurant","importance":0.001,"icon":"http://nominatim.openstreetmap.org/images/mapicons/food_restaurant.p.20.png","visiting_time":60.0,"opening_hours":null,"opening_days":null,"rating":0,"photo_url":null,"description":null,"www":null},{"place_id":"6798821","geometry":{"type":"Point","coordinates":[12.128109,44.1935216]},"display_name":"Fra Diavolo, Via Roma, San Leonardo, Forlimpopoli, FC, EMR, 47034, Italia","category":"eating","type":"restaurant","importance":0.001,"icon":"http://nominatim.openstreetmap.org/images/mapicons/food_restaurant.p.20.png","visiting_time":60.0,"opening_hours":null,"opening_days":null,"rating":0,"photo_url":null,"description":null,"www":null},{"place_id":"7086188","geometry":{"type":"Point","coordinates":[12.1255748,44.1863416]},"display_name":"Tom & Jerry, Via Armando Diaz, San Leonardo, Forlimpopoli, FC, EMR, 47034, Italia","category":"eating","type":"fast_food","importance":0.001,"icon":"http://nominatim.openstreetmap.org/images/mapicons/food_fastfood.p.20.png","visiting_time":60.0,"opening_hours":null,"opening_days":null,"rating":0,"photo_url":null,"description":null,"www":null},{"place_id":"7434621","geometry":{"type":"Point","coordinates":[12.1332957,44.184055]},"display_name":"Sante, Via della Madonna, San Leonardo, Forlimpopoli, FC, EMR, 47034, Italia","category":"eating","type":"fast_food","importance":0.001,"icon":"http://nominatim.openstreetmap.org/images/mapicons/food_fastfood.p.20.png","visiting_time":60.0,"opening_hours":null,"opening_days":null,"rating":0,"photo_url":null,"description":null,"www":null},{"place_id":"7295566","geometry":{"type":"Point","coordinates":[12.1325175,44.1874817]},"display_name":"New Fantasy, Via della Madonna, San Leonardo, Forlimpopoli, FC, EMR, 47034, Italia","category":"eating","type":"fast_food","importance":0.001,"icon":"http://nominatim.openstreetmap.org/images/mapicons/food_fastfood.p.20.png","visiting_time":60.0,"opening_hours":null,"opening_days":null,"rating":0,"photo_url":null,"description":null,"www":null},{"place_id":"12261361","geometry":{"type":"Point","coordinates":[12.1065069,44.1942326]},"display_name":"America Graffiti, 1387, Via Emilia, San Leonardo, Forlimpopoli, FC, EMR, 47034, Italia","category":"eating","type":"fast_food","importance":0.001,"icon":"http://nominatim.openstreetmap.org/images/mapicons/food_fastfood.p.20.png","visiting_time":60.0,"opening_hours":null,"opening_days":null,"rating":0,"photo_url":null,"description":null,"www":null},{"place_id":"58596609","geometry":{"type":"Point","coordinates":[12.1560836,44.1696415]},"display_name":"Via Giardino, Bertinoro, FC, EMR, 47032, Italia","category":"eating","type":"fast_food","importance":0.001,"icon":"http://nominatim.openstreetmap.org/images/mapicons/food_fastfood.p.20.png","visiting_time":60.0,"opening_hours":null,"opening_days":null,"rating":0,"photo_url":null,"description":null,"www":null},{"place_id":"7219254","geometry":{"type":"Point","coordinates":[12.1277677,44.1854998]},"display_name":"Ristorante Anna, Via Matteotti, San Leonardo, Forlimpopoli, FC, EMR, 47034, Italia","category":"eating","type":"restaurant","importance":0.001,"icon":"http://nominatim.openstreetmap.org/images/mapicons/food_restaurant.p.20.png","visiting_time":60.0,"opening_hours":null,"opening_days":null,"rating":0,"photo_url":null,"description":null,"www":null},{"place_id":"7349468","geometry":{"type":"Point","coordinates":[12.1160378,44.1940772]},"display_name":"Rosa dei Venti, Via Amendola, San Leonardo, Forlimpopoli, FC, EMR, 47034, Italia","category":"eating","type":"restaurant","importance":0.001,"icon":"http://nominatim.openstreetmap.org/images/mapicons/food_restaurant.p.20.png","visiting_time":60.0,"opening_hours":null,"opening_days":null,"rating":0,"photo_url":null,"description":null,"www":null},{"place_id":"7366868","geometry":{"type":"Point","coordinates":[12.1149622,44.186752]},"display_name":"Pizzeria Malù, Via del Melo, San Leonardo, Forlimpopoli, FC, EMR, 47034, Italia","category":"eating","type":"restaurant","importance":0.001,"icon":"http://nominatim.openstreetmap.org/images/mapicons/food_restaurant.p.20.png","visiting_time":60.0,"opening_hours":null,"opening_days":null,"rating":0,"photo_url":null,"description":null,"www":null},{"place_id":"7095931","geometry":{"type":"Point","coordinates":[12.1236733,44.1869821]},"display_name":"Pizzeria Domus, Via Circonvallazione, San Leonardo, Forlimpopoli, FC, EMR, 47034, Italia","category":"eating","type":"restaurant","importance":0.001,"icon":"http://nominatim.openstreetmap.org/images/mapicons/food_restaurant.p.20.png","visiting_time":60.0,"opening_hours":null,"opening_days":null,"rating":0,"photo_url":null,"description":null,"www":null},{"place_id":"7335647","geometry":{"type":"Point","coordinates":[12.1266686,44.1857833]},"display_name":"Ristorante Edo, Via Filippo Turati, San Leonardo, Forlimpopoli, FC, EMR, 47034, Italia","category":"eating","type":"restaurant","importance":0.001,"icon":"http://nominatim.openstreetmap.org/images/mapicons/food_restaurant.p.20.png","visiting_time":60.0,"opening_hours":null,"opening_days":null,"rating":0,"photo_url":null,"description":null,"www":null},{"place_id":"6798821","geometry":{"type":"Point","coordinates":[12.128109,44.1935216]},"display_name":"Fra Diavolo, Via Roma, San Leonardo, Forlimpopoli, FC, EMR, 47034, Italia","category":"eating","type":"restaurant","importance":0.001,"icon":"http://nominatim.openstreetmap.org/images/mapicons/food_restaurant.p.20.png","visiting_time":60.0,"opening_hours":null,"opening_days":null,"rating":0,"photo_url":null,"description":null,"www":null},{"place_id":"12346615","geometry":{"type":"Point","coordinates":[12.1015677,44.1944046]},"display_name":"Via della Croce, San Leonardo, Forlimpopoli, FC, EMR, 47034, Italia","category":"eating","type":"restaurant","importance":0.001,"icon":"http://nominatim.openstreetmap.org/images/mapicons/food_restaurant.p.20.png","visiting_time":60.0,"opening_hours":null,"opening_days":null,"rating":0,"photo_url":null,"description":null,"www":null},{"place_id":"114814281","geometry":{"type":"Point","coordinates":[12.127016508,44.18720495]},"display_name":"Piazza Trieste, San Leonardo, Forlimpopoli, FC, EMR, 47034, Italia","category":"attractions","type":"castle","importance":0.001,"icon":"http://nominatim.openstreetmap.org/images/mapicons/tourist_castle.p.20.png","visiting_time":120.0,"opening_hours":null,"opening_days":null,"rating":0,"photo_url":null,"description":null,"www":null},{"place_id":"7228610","geometry":{"type":"Point","coordinates":[12.1232615,44.1871161]},"display_name":"Bar Agip, Via Circonvallazione, San Leonardo, Forlimpopoli, FC, EMR, 47034, Italia","category":"lifestyle","type":"bar","importance":0.101,"icon":"http://nominatim.openstreetmap.org/images/mapicons/food_bar.p.20.png","visiting_time":10.0,"opening_hours":null,"opening_days":null,"rating":0,"photo_url":null,"description":null,"www":null},{"place_id":"7164414","geometry":{"type":"Point","coordinates":[12.1286385,44.1875846]},"display_name":"Bar pasticceria Maltoni, Via Duca d'Aosta, San Leonardo, Forlimpopoli, FC, EMR, 47034, Italia","category":"lifestyle","type":"bar","importance":0.101,"icon":"http://nominatim.openstreetmap.org/images/mapicons/food_bar.p.20.png","visiting_time":10.0,"opening_hours":null,"opening_days":null,"rating":0,"photo_url":null,"description":null,"www":null},{"place_id":"7377504","geometry":{"type":"Point","coordinates":[12.127608,44.1877463]},"display_name":"Cantina del Pozzo, Via Vittorio Veneto, San Leonardo, Forlimpopoli, FC, EMR, 47034, Italia","category":"lifestyle","type":"pub","importance":0.001,"icon":"http://nominatim.openstreetmap.org/images/mapicons/food_pub.p.20.png","visiting_time":10.0,"opening_hours":null,"opening_days":null,"rating":0,"photo_url":null,"description":null,"www":null},{"place_id":"7175724","geometry":{"type":"Point","coordinates":[12.1154381,44.1872248]},"display_name":"Majenta Cafè, Via Coriano, San Leonardo, Forlimpopoli, FC, EMR, 47034, Italia","category":"lifestyle","type":"bar","importance":0.001,"icon":"http://nominatim.openstreetmap.org/images/mapicons/food_bar.p.20.png","visiting_time":10.0,"opening_hours":null,"opening_days":null,"rating":0,"photo_url":null,"description":null,"www":null},{"place_id":"7086188","geometry":{"type":"Point","coordinates":[12.1255748,44.1863416]},"display_name":"Tom & Jerry, Via Armando Diaz, San Leonardo, Forlimpopoli, FC, EMR, 47034, Italia","category":"lifestyle","type":"fast_food","importance":0.001,"icon":"http://nominatim.openstreetmap.org/images/mapicons/food_fastfood.p.20.png","visiting_time":10.0,"opening_hours":null,"opening_days":null,"rating":0,"photo_url":null,"description":null,"www":null},{"place_id":"7295566","geometry":{"type":"Point","coordinates":[12.1325175,44.1874817]},"display_name":"New Fantasy, Via della Madonna, San Leonardo, Forlimpopoli, FC, EMR, 47034, Italia","category":"lifestyle","type":"fast_food","importance":0.001,"icon":"http://nominatim.openstreetmap.org/images/mapicons/food_fastfood.p.20.png","visiting_time":10.0,"opening_hours":null,"opening_days":null,"rating":0,"photo_url":null,"description":null,"www":null},{"place_id":"12261361","geometry":{"type":"Point","coordinates":[12.1065069,44.1942326]},"display_name":"America Graffiti, 1387, Via Emilia, San Leonardo, Forlimpopoli, FC, EMR, 47034, Italia","category":"lifestyle","type":"fast_food","importance":0.001,"icon":"http://nominatim.openstreetmap.org/images/mapicons/food_fastfood.p.20.png","visiting_time":10.0,"opening_hours":null,"opening_days":null,"rating":0,"photo_url":null,"description":null,"www":null},{"place_id":"7434621","geometry":{"type":"Point","coordinates":[12.1332957,44.184055]},"display_name":"Sante, Via della Madonna, San Leonardo, Forlimpopoli, FC, EMR, 47034, Italia","category":"lifestyle","type":"fast_food","importance":0.001,"icon":"http://nominatim.openstreetmap.org/images/mapicons/food_fastfood.p.20.png","visiting_time":10.0,"opening_hours":null,"opening_days":null,"rating":0,"photo_url":null,"description":null,"www":null},{"place_id":"58596609","geometry":{"type":"Point","coordinates":[12.1560836,44.1696415]},"display_name":"Via Giardino, Bertinoro, FC, EMR, 47032, Italia","category":"lifestyle","type":"fast_food","importance":0.001,"icon":"http://nominatim.openstreetmap.org/images/mapicons/food_fastfood.p.20.png","visiting_time":10.0,"opening_hours":null,"opening_days":null,"rating":0,"photo_url":null,"description":null,"www":null},{"place_id":"7377504","geometry":{"type":"Point","coordinates":[12.127608,44.1877463]},"display_name":"Cantina del Pozzo, Via Vittorio Veneto, San Leonardo, Forlimpopoli, FC, EMR, 47034, Italia","category":"lifestyle","type":"pub","importance":0.001,"icon":"http://nominatim.openstreetmap.org/images/mapicons/food_pub.p.20.png","visiting_time":90.0,"opening_hours":null,"opening_days":null,"rating":0,"photo_url":null,"description":null,"www":null},{"place_id":"7164414","geometry":{"type":"Point","coordinates":[12.1286385,44.1875846]},"display_name":"Bar pasticceria Maltoni, Via Duca d'Aosta, San Leonardo, Forlimpopoli, FC, EMR, 47034, Italia","category":"lifestyle","type":"bar","importance":0.001,"icon":"http://nominatim.openstreetmap.org/images/mapicons/food_bar.p.20.png","visiting_time":90.0,"opening_hours":null,"opening_days":null,"rating":0,"photo_url":null,"description":null,"www":null},{"place_id":"7228610","geometry":{"type":"Point","coordinates":[12.1232615,44.1871161]},"display_name":"Bar Agip, Via Circonvallazione, San Leonardo, Forlimpopoli, FC, EMR, 47034, Italia","category":"lifestyle","type":"bar","importance":0.001,"icon":"http://nominatim.openstreetmap.org/images/mapicons/food_bar.p.20.png","visiting_time":90.0,"opening_hours":null,"opening_days":null,"rating":0,"photo_url":null,"description":null,"www":null},{"place_id":"7175724","geometry":{"type":"Point","coordinates":[12.1154381,44.1872248]},"display_name":"Majenta Cafè, Via Coriano, San Leonardo, Forlimpopoli, FC, EMR, 47034, Italia","category":"lifestyle","type":"bar","importance":0.001,"icon":"http://nominatim.openstreetmap.org/images/mapicons/food_bar.p.20.png","visiting_time":90.0,"opening_hours":null,"opening_days":null,"rating":0,"photo_url":null,"description":null,"www":null},{"place_id":"180169053","geometry":{"type":"Point","coordinates":[-8.3350726,43.2233149]},"display_name":"Abegondo, Galicia, CAFE, España","category":"lifestyle","type":"postcode","importance":0.2125,"icon":null,"visiting_time":10.0,"opening_hours":null,"opening_days":null,"rating":0,"photo_url":null,"description":null,"www":null},{"place_id":"12342674","geometry":{"type":"Point","coordinates":[12.1015677,44.1942858]},"display_name":"Cobà, Via della Croce, San Leonardo, Forlimpopoli, FC, EMR, 47034, Italia","category":"lifestyle","type":"nightclub","importance":0.001,"icon":null,"visiting_time":120.0,"opening_hours":null,"opening_days":null,"rating":0,"photo_url":null,"description":null,"www":null},{"place_id":"116656489","geometry":{"type":"Point","coordinates":[12.127229437,44.18734265]},"display_name":"Via Andrea Costa, San Leonardo, Forlimpopoli, FC, EMR, 47034, Italia","category":"attractions","type":"monument","importance":0.001,"icon":"http://nominatim.openstreetmap.org/images/mapicons/tourist_monument.p.20.png","visiting_time":10.0,"opening_hours":null,"opening_days":null,"rating":0,"photo_url":null,"description":null,"www":null},{"place_id":"162654498","geometry":{"type":"Point","coordinates":[12.127238809,44.18224905]},"display_name":"Parco Urbano Luciano Lama, San Leonardo, Forlimpopoli, FC, EMR, Italia","category":"parks","type":"park","importance":0.15,"icon":null,"visiting_time":90.0,"opening_hours":null,"opening_days":null,"rating":0,"photo_url":null,"description":null,"www":null},{"place_id":"164626771","geometry":{"type":"Point","coordinates":[12.125150528,44.21176385]},"display_name":"Parco Don Tommaso Gatti, San Leonardo, Forlimpopoli, FC, EMR, Italia","category":"parks","type":"park","importance":0.15,"icon":null,"visiting_time":90.0,"opening_hours":null,"opening_days":null,"rating":0,"photo_url":null,"description":null,"www":null},{"place_id":"6846006","geometry":{"type":"Point","coordinates":[12.1180464,44.1862333]},"display_name":"Chiesa Santo Spirito, Via Giardino, San Leonardo, Forlimpopoli, FC, EMR, 47034, Italia","category":"attractions","type":"place_of_worship","importance":0.001,"icon":"http://nominatim.openstreetmap.org/images/mapicons/place_of_worship_unknown3.p.20.png","visiting_time":30.0,"opening_hours":null,"opening_days":null,"rating":0,"photo_url":null,"description":null,"www":null},{"place_id":"55317698","geometry":{"type":"Point","coordinates":[12.1261903,44.1883482]},"display_name":"Chiesa dei Servi, Via Cesare Battisti, San Leonardo, Forlimpopoli, FC, EMR, 47034, Italia","category":"attractions","type":"place_of_worship","importance":0.001,"icon":"http://nominatim.openstreetmap.org/images/mapicons/place_of_worship_unknown3.p.20.png","visiting_time":30.0,"opening_hours":null,"opening_days":null,"rating":0,"photo_url":null,"description":null,"www":null},{"place_id":"7420138","geometry":{"type":"Point","coordinates":[12.1268531,44.188706]},"display_name":"San Pietro, Via Massi, San Leonardo, Forlimpopoli, FC, EMR, 47034, Italia","category":"attractions","type":"place_of_worship","importance":0.001,"icon":"http://nominatim.openstreetmap.org/images/mapicons/place_of_worship_unknown3.p.20.png","visiting_time":30.0,"opening_hours":null,"opening_days":null,"rating":0,"photo_url":null,"description":null,"www":null},{"place_id":"55024629","geometry":{"type":"Point","coordinates":[12.1253038,44.1877096]},"display_name":"Chiesa del Carmine, Via Aurelio Saffi, San Leonardo, Forlimpopoli, FC, EMR, 47034, Italia","category":"attractions","type":"place_of_worship","importance":0.001,"icon":"http://nominatim.openstreetmap.org/images/mapicons/place_of_worship_unknown3.p.20.png","visiting_time":30.0,"opening_hours":null,"opening_days":null,"rating":0,"photo_url":null,"description":null,"www":null},{"place_id":"55024626","geometry":{"type":"Point","coordinates":[12.1241451,44.1884221]},"display_name":"Chiesa di San Giovanni Battista, Via Aurelio Saffi, San Leonardo, Forlimpopoli, FC, EMR, 47034, Italia","category":"attractions","type":"place_of_worship","importance":0.001,"icon":"http://nominatim.openstreetmap.org/images/mapicons/place_of_worship_unknown3.p.20.png","visiting_time":30.0,"opening_hours":null,"opening_days":null,"rating":0,"photo_url":null,"description":null,"www":null},{"place_id":"54403317","geometry":{"type":"Point","coordinates":[12.1234355,44.1897966]},"display_name":"Chiesa di San Ruffillo, Via Brunori, San Leonardo, Forlimpopoli, FC, EMR, 47034, Italia","category":"attractions","type":"place_of_worship","importance":0.001,"icon":"http://nominatim.openstreetmap.org/images/mapicons/place_of_worship_unknown3.p.20.png","visiting_time":30.0,"opening_hours":null,"opening_days":null,"rating":0,"photo_url":null,"description":null,"www":null},{"place_id":"113043992","geometry":{"type":"Point","coordinates":[12.132501337,44.2056634]},"display_name":"Via Celletta, San Leonardo, Forlimpopoli, FC, EMR, 47034, Italia","category":"attractions","type":"place_of_worship","importance":0.001,"icon":"http://nominatim.openstreetmap.org/images/mapicons/place_of_worship_unknown3.p.20.png","visiting_time":30.0,"opening_hours":null,"opening_days":null,"rating":0,"photo_url":null,"description":null,"www":null},{"place_id":"90378547","geometry":{"type":"Point","coordinates":[12.125726173,44.2124217]},"display_name":"Via Pino Terzo, San Leonardo, Forlimpopoli, FC, EMR, 47034, Italia","category":"attractions","type":"place_of_worship","importance":0.001,"icon":"http://nominatim.openstreetmap.org/images/mapicons/place_of_worship_unknown3.p.20.png","visiting_time":30.0,"opening_hours":null,"opening_days":null,"rating":0,"photo_url":null,"description":null,"www":null},{"place_id":"53032364","geometry":{"type":"Point","coordinates":[12.1328596,44.1836939]},"display_name":"Chiesa della Madonna del Popolo, Via Matteotti, San Leonardo, Forlimpopoli, FC, EMR, 47034, Italia","category":"attractions","type":"place_of_worship","importance":0.001,"icon":"http://nominatim.openstreetmap.org/images/mapicons/place_of_worship_unknown3.p.20.png","visiting_time":30.0,"opening_hours":null,"opening_days":null,"rating":0,"photo_url":null,"description":null,"www":null},{"place_id":"7134221","geometry":{"type":"Point","coordinates":[12.1485847,44.1703634]},"display_name":"Santa Maria del Lago, Via Lago, Bertinoro, FC, EMR, 47032, Italia","category":"attractions","type":"place_of_worship","importance":0.001,"icon":"http://nominatim.openstreetmap.org/images/mapicons/place_of_worship_unknown3.p.20.png","visiting_time":30.0,"opening_hours":null,"opening_days":null,"rating":0,"photo_url":null,"description":null,"www":null},{"place_id":"6846006","geometry":{"type":"Point","coordinates":[12.1180464,44.1862333]},"display_name":"Chiesa Santo Spirito, Via Giardino, San Leonardo, Forlimpopoli, FC, EMR, 47034, Italia","category":"attractions","type":"place_of_worship","importance":0.001,"icon":"http://nominatim.openstreetmap.org/images/mapicons/place_of_worship_unknown3.p.20.png","visiting_time":30.0,"opening_hours":null,"opening_days":null,"rating":0,"photo_url":null,"description":null,"www":null},{"place_id":"55317698","geometry":{"type":"Point","coordinates":[12.1261903,44.1883482]},"display_name":"Chiesa dei Servi, Via Cesare Battisti, San Leonardo, Forlimpopoli, FC, EMR, 47034, Italia","category":"attractions","type":"place_of_worship","importance":0.001,"icon":"http://nominatim.openstreetmap.org/images/mapicons/place_of_worship_unknown3.p.20.png","visiting_time":30.0,"opening_hours":null,"opening_days":null,"rating":0,"photo_url":null,"description":null,"www":null},{"place_id":"7420138","geometry":{"type":"Point","coordinates":[12.1268531,44.188706]},"display_name":"San Pietro, Via Massi, San Leonardo, Forlimpopoli, FC, EMR, 47034, Italia","category":"attractions","type":"place_of_worship","importance":0.001,"icon":"http://nominatim.openstreetmap.org/images/mapicons/place_of_worship_unknown3.p.20.png","visiting_time":30.0,"opening_hours":null,"opening_days":null,"rating":0,"photo_url":null,"description":null,"www":null},{"place_id":"55024629","geometry":{"type":"Point","coordinates":[12.1253038,44.1877096]},"display_name":"Chiesa del Carmine, Via Aurelio Saffi, San Leonardo, Forlimpopoli, FC, EMR, 47034, Italia","category":"attractions","type":"place_of_worship","importance":0.001,"icon":"http://nominatim.openstreetmap.org/images/mapicons/place_of_worship_unknown3.p.20.png","visiting_time":30.0,"opening_hours":null,"opening_days":null,"rating":0,"photo_url":null,"description":null,"www":null},{"place_id":"55024626","geometry":{"type":"Point","coordinates":[12.1241451,44.1884221]},"display_name":"Chiesa di San Giovanni Battista, Via Aurelio Saffi, San Leonardo, Forlimpopoli, FC, EMR, 47034, Italia","category":"attractions","type":"place_of_worship","importance":0.001,"icon":"http://nominatim.openstreetmap.org/images/mapicons/place_of_worship_unknown3.p.20.png","visiting_time":30.0,"opening_hours":null,"opening_days":null,"rating":0,"photo_url":null,"description":null,"www":null},{"place_id":"54403317","geometry":{"type":"Point","coordinates":[12.1234355,44.1897966]},"display_name":"Chiesa di San Ruffillo, Via Brunori, San Leonardo, Forlimpopoli, FC, EMR, 47034, Italia","category":"attractions","type":"place_of_worship","importance":0.001,"icon":"http://nominatim.openstreetmap.org/images/mapicons/place_of_worship_unknown3.p.20.png","visiting_time":30.0,"opening_hours":null,"opening_days":null,"rating":0,"photo_url":null,"description":null,"www":null},{"place_id":"113043992","geometry":{"type":"Point","coordinates":[12.132501337,44.2056634]},"display_name":"Via Celletta, San Leonardo, Forlimpopoli, FC, EMR, 47034, Italia","category":"attractions","type":"place_of_worship","importance":0.001,"icon":"http://nominatim.openstreetmap.org/images/mapicons/place_of_worship_unknown3.p.20.png","visiting_time":30.0,"opening_hours":null,"opening_days":null,"rating":0,"photo_url":null,"description":null,"www":null},{"place_id":"90378547","geometry":{"type":"Point","coordinates":[12.125726173,44.2124217]},"display_name":"Via Pino Terzo, San Leonardo, Forlimpopoli, FC, EMR, 47034, Italia","category":"attractions","type":"place_of_worship","importance":0.001,"icon":"http://nominatim.openstreetmap.org/images/mapicons/place_of_worship_unknown3.p.20.png","visiting_time":30.0,"opening_hours":null,"opening_days":null,"rating":0,"photo_url":null,"description":null,"www":null},{"place_id":"53032364","geometry":{"type":"Point","coordinates":[12.1328596,44.1836939]},"display_name":"Chiesa della Madonna del Popolo, Via Matteotti, San Leonardo, Forlimpopoli, FC, EMR, 47034, Italia","category":"attractions","type":"place_of_worship","importance":0.001,"icon":"http://nominatim.openstreetmap.org/images/mapicons/place_of_worship_unknown3.p.20.png","visiting_time":30.0,"opening_hours":null,"opening_days":null,"rating":0,"photo_url":null,"description":null,"www":null},{"place_id":"7134221","geometry":{"type":"Point","coordinates":[12.1485847,44.1703634]},"display_name":"Santa Maria del Lago, Via Lago, Bertinoro, FC, EMR, 47032, Italia","category":"attractions","type":"place_of_worship","importance":0.001,"icon":"http://nominatim.openstreetmap.org/images/mapicons/place_of_worship_unknown3.p.20.png","visiting_time":30.0,"opening_hours":null,"opening_days":null,"rating":0,"photo_url":null,"description":null,"www":null},{"place_id":"11813986","geometry":{"type":"Point","coordinates":[12.1267152,44.1857308]},"display_name":"Hotel Edo, Via Filippo Turati, San Leonardo, Forlimpopoli, FC, EMR, 47034, Italia","category":"resting","type":"hotel","importance":0.101,"icon":"http://nominatim.openstreetmap.org/images/mapicons/accommodation_hotel2.p.20.png","visiting_time":10.0,"opening_hours":null,"opening_days":null,"rating":0,"photo_url":null,"description":null,"www":null}]