[{"place_id":"44,48644844831010","geometry":{"type":"Point","coordinates":[11.359390033,44.486448448]},"display_name":"Provincia di Cristo Re dei frati minori dell'Emilia Romagna,from:IBC","category":"attractions","type":"HolderOfArchives","importance":0.0,"icon":"","visiting_time":0.0,"opening_hours":"ok","opening_days":"ok","rating":0,"photo_url":null,"description":null,"www":"http://www.fratiminorier.it"},{"place_id":"44,47216150955870","geometry":{"type":"Point","coordinates":[11.36480824,44.47216151]},"display_name":"Biblioteca Renzo Renzi della Fondazione Cineteca di Bologna,from:IBC","category":"attractions","type":"HolderOfArchives","importance":0.0,"icon":"","visiting_time":0.0,"opening_hours":"ok","opening_days":"ok","rating":0,"photo_url":null,"description":null,"www":"http://www.cinetecadibologna.it/biblioteca"},{"place_id":"44,47043046844200","geometry":{"type":"Point","coordinates":[11.408123516,44.470430468]},"display_name":"Archivio storico comunale Carlo Berti Pichat di San Lazzaro di Savena,from:IBC","category":"attractions","type":"HolderOfArchives","importance":0.0,"icon":"","visiting_time":0.0,"opening_hours":"ok","opening_days":"ok","rating":0,"photo_url":null,"description":null,"www":"http://www.comune.sanlazzaro.bo.it"},{"place_id":"44,48644844831010","geometry":{"type":"Point","coordinates":[11.359390033,44.486448448]},"display_name":"Antoniano dei frati minori di Bologna,from:IBC","category":"attractions","type":"HolderOfArchives","importance":0.0,"icon":"","visiting_time":0.0,"opening_hours":"ok","opening_days":"ok","rating":0,"photo_url":null,"description":null,"www":"http://www.antoniano.it"},{"place_id":"44,44202746801750","geometry":{"type":"Point","coordinates":[11.475618013,44.442027468]},"display_name":"Biblioteca comunale 8 marzo 1908 di Ozzano dell'Emilia,from:IBC","category":"attractions","type":"HolderOfArchives","importance":0.0,"icon":"","visiting_time":0.0,"opening_hours":"ok","opening_days":"ok","rating":0,"photo_url":null,"description":null,"www":"http://www.comune.ozzano.bo.it"},{"place_id":"44,49026749899070","geometry":{"type":"Point","coordinates":[11.363851605,44.490267499]},"display_name":"Biblioteca Centralizzata,from:IBC","category":"attractions","type":"Library","importance":0.0,"icon":"","visiting_time":0.0,"opening_hours":"ok","opening_days":"ok","rating":0,"photo_url":null,"description":null,"www":"http://www.aosp.bo.it//biblio/homepage.htm"},{"place_id":"44,47247433733920","geometry":{"type":"Point","coordinates":[11.412708462,44.472474337]},"display_name":"Mediateca,from:IBC","category":"attractions","type":"Library","importance":0.0,"icon":"","visiting_time":0.0,"opening_hours":"ok","opening_days":"ok","rating":0,"photo_url":null,"description":null,"www":"http://www.mediatecadisanlazzaro.it/"},{"place_id":"44,47408851709620","geometry":{"type":"Point","coordinates":[11.391819838,44.474088517]},"display_name":"Biblioteca Natalia Ginzburg nel quartiere Savena,from:IBC","category":"attractions","type":"Library","importance":0.0,"icon":"","visiting_time":0.0,"opening_hours":"ok","opening_days":"ok","rating":0,"photo_url":null,"description":null,"www":"http://informa.comune.bologna.it/iperbole/istituzionebiblioteche/luoghi/62013/id/51653/"},{"place_id":"44,44202746801750","geometry":{"type":"Point","coordinates":[11.475618013,44.442027468]},"display_name":"Biblioteca comunale 8 Marzo 1908,from:IBC","category":"attractions","type":"Library","importance":0.0,"icon":"","visiting_time":0.0,"opening_hours":"ok","opening_days":"ok","rating":0,"photo_url":null,"description":null,"www":"http://www.comune.ozzano.bo.it/internet/Vivere-la-citta/Biblioteca"},{"place_id":"44,48644844831010","geometry":{"type":"Point","coordinates":[11.359390033,44.486448448]},"display_name":"Biblioteca provinciale dei Frati Minori dell'Emilia,from:IBC","category":"attractions","type":"Library","importance":0.0,"icon":"","visiting_time":0.0,"opening_hours":"ok","opening_days":"ok","rating":0,"photo_url":null,"description":null,"www":"http://www.anagrafebbcc.chiesacattolica.it/anagraficaCEIBib/public/VisualizzaScheda.do"},{"place_id":"44,48644844831010","geometry":{"type":"Point","coordinates":[11.359390033,44.486448448]},"display_name":"Biblioteca provinciale dei Frati Minori dell'Emilia,from:IBC","category":"attractions","type":"Library","importance":0.0,"icon":"","visiting_time":0.0,"opening_hours":"ok","opening_days":"ok","rating":0,"photo_url":null,"description":null,"www":"http://www.fratiminorier.it/attivita.php?id=4&attiva=2#biblioteca"},{"place_id":"44,47216150955870","geometry":{"type":"Point","coordinates":[11.36480824,44.47216151]},"display_name":"Biblioteca Renzo Renzi Cinema e Fotografia,from:IBC","category":"attractions","type":"Library","importance":0.0,"icon":"","visiting_time":0.0,"opening_hours":"ok","opening_days":"ok","rating":0,"photo_url":null,"description":null,"www":"http://www.cinetecadibologna.it/biblioteca"},{"place_id":"44,46966191435470","geometry":{"type":"Point","coordinates":[11.369982701,44.469661914]},"display_name":"Museo Nazionale del Soldatino M. Massaccesi,from:IBC","category":"attractions","type":"Museum","importance":0.0,"icon":"","visiting_time":0.0,"opening_hours":"ok","opening_days":"ok","rating":0,"photo_url":null,"description":null,"www":"http://dati.emilia-romagna.it/id/ibc/condition/IT-ER-BO041"},{"place_id":"44,44202746801750","geometry":{"type":"Point","coordinates":[11.475618013,44.442027468]},"display_name":"Mostra permanente - Il museo della città romana di Claterna,from:IBC","category":"attractions","type":"Museum","importance":0.0,"icon":"","visiting_time":0.0,"opening_hours":"ok","opening_days":"ok","rating":0,"photo_url":null,"description":null,"www":"http://www.civitasclaterna.org"},{"place_id":"44,46985222831540","geometry":{"type":"Point","coordinates":[11.400327972,44.469852228]},"display_name":"Museo della Preistoria Luigi Donini,from:IBC","category":"attractions","type":"Museum","importance":0.0,"icon":"","visiting_time":0.0,"opening_hours":"ok","opening_days":"ok","rating":0,"photo_url":null,"description":null,"www":"http://dati.emilia-romagna.it/id/ibc/condition/IT-ER-BO029"},{"place_id":"44,43519933622890","geometry":{"type":"Point","coordinates":[11.48611946,44.435199336]},"display_name":"Raccolta di Antichi Strumenti Chirurgici Veterinari,from:IBC","category":"attractions","type":"Museum","importance":0.0,"icon":"","visiting_time":0.0,"opening_hours":"ok","opening_days":"ok","rating":0,"photo_url":null,"description":null,"www":"http://www.sma.unibo.it/strumentiveterinari/"},{"place_id":"44,43519933622890","geometry":{"type":"Point","coordinates":[11.48611946,44.435199336]},"display_name":"Museo di Anatomia degli Animali Domestici,from:IBC","category":"attractions","type":"Museum","importance":0.0,"icon":"","visiting_time":0.0,"opening_hours":"ok","opening_days":"ok","rating":0,"photo_url":null,"description":null,"www":"http://www.sma.unibo.it/animalidomestici/"},{"place_id":"44,43519933622890","geometry":{"type":"Point","coordinates":[11.48611946,44.435199336]},"display_name":"Museo di Anatomia Patologica e Teratologia Veterinaria G.B. Ercolani,from:IBC","category":"attractions","type":"Museum","importance":0.0,"icon":"","visiting_time":0.0,"opening_hours":"ok","opening_days":"ok","rating":0,"photo_url":null,"description":null,"www":"http://www.sma.unibo.it/patologiaveterinaria/index.html"},{"place_id":"Un Cedro dell’Atlante Pianoro Rastignano Via Buozzi, 6 89","geometry":{"type":"Point","coordinates":[11.36039726,44.44418629]},"display_name":"Un Cedro dell’Atlante Pianoro Rastignano Via Buozzi, 6,from:IBC","category":"tree","type":"tree","importance":0.0,"icon":"","visiting_time":0.0,"opening_hours":"ok","opening_days":"ok","rating":0,"photo_url":"http://online.ibc.regione.emilia-romagna.it/mtrees/image/130.jpg","description":null,"www":null},{"place_id":"Un boschetto planiziale con tre esemplari monumentali di Farnia, Frassino e Pioppo bianco Bologna S. Ruffillo Via La Bastia, 2 113","geometry":{"type":"Point","coordinates":[11.36800623,44.45055536]},"display_name":"Un boschetto planiziale con tre esemplari monumentali di Farnia, Frassino e Pioppo bianco Bologna S. Ruffillo Via La Bastia, 2,from:IBC","category":"tree","type":"tree","importance":0.0,"icon":"","visiting_time":0.0,"opening_hours":"ok","opening_days":"ok","rating":0,"photo_url":"http://online.ibc.regione.emilia-romagna.it/mtrees/image/8067.jpg","description":null,"www":null},{"place_id":"Un boschetto planiziale con tre esemplari monumentali di Farnia, Frassino e Pioppo bianco Bologna S. Ruffillo Via La Bastia, 2 499","geometry":{"type":"Point","coordinates":[11.36780713,44.4506045]},"display_name":"Un boschetto planiziale con tre esemplari monumentali di Farnia, Frassino e Pioppo bianco Bologna S. Ruffillo Via La Bastia, 2,from:IBC","category":"tree","type":"tree","importance":0.0,"icon":"","visiting_time":0.0,"opening_hours":"ok","opening_days":"ok","rating":0,"photo_url":"http://online.ibc.regione.emilia-romagna.it/mtrees/image/8073.jpg","description":null,"www":null},{"place_id":"Una Quercia Ozzano dell'Emilia Via Pertini 808","geometry":{"type":"Point","coordinates":[11.48286488,44.43485287]},"display_name":"Una Quercia Ozzano dell'Emilia Via Pertini,from:IBC","category":"tree","type":"tree","importance":0.0,"icon":"","visiting_time":0.0,"opening_hours":"ok","opening_days":"ok","rating":0,"photo_url":"http://online.ibc.regione.emilia-romagna.it/mtrees/image/126.jpg","description":null,"www":null},{"place_id":"Un boschetto planiziale con tre esemplari monumentali di Farnia, Frassino e Pioppo bianco Bologna S. Ruffillo Via La Bastia, 2 820","geometry":{"type":"Point","coordinates":[11.36753904,44.45112321]},"display_name":"Un boschetto planiziale con tre esemplari monumentali di Farnia, Frassino e Pioppo bianco Bologna S. Ruffillo Via La Bastia, 2,from:IBC","category":"tree","type":"tree","importance":0.0,"icon":"","visiting_time":0.0,"opening_hours":"ok","opening_days":"ok","rating":0,"photo_url":null,"description":null,"www":null}]