[{"place_id":"44,44233798783590","geometry":{"type":"Point","coordinates":[11.8616011,44.442337988]},"display_name":"Comune di Sant'Agata sul Santerno,from:IBC","category":"attractions","type":"HolderOfArchives","importance":0.0,"icon":"","visiting_time":0.0,"opening_hours":"ok","opening_days":"ok","rating":0,"photo_url":null,"description":null,"www":"http://www.comune.santagatasulsanterno.ra.it"},{"place_id":"44,44649547375280","geometry":{"type":"Point","coordinates":[11.828181284,44.446495474]},"display_name":"Comune di Massa Lombarda,from:IBC","category":"attractions","type":"HolderOfArchives","importance":0.0,"icon":"","visiting_time":0.0,"opening_hours":"ok","opening_days":"ok","rating":0,"photo_url":null,"description":null,"www":"http://www.comune.massalombarda.ra.it/GUIDA-AI-SERVIZI/Cultura-e-Tempo-Libero/Archivio-Storico"},{"place_id":"44,44262475342370","geometry":{"type":"Point","coordinates":[11.861781112,44.442624753]},"display_name":"Biblioteca comunale Loris Ricci Garotti,from:IBC","category":"attractions","type":"Library","importance":0.0,"icon":"","visiting_time":0.0,"opening_hours":"ok","opening_days":"ok","rating":0,"photo_url":null,"description":null,"www":"http://www.comune.santagatasulsanterno.ra.it/Citta-e-territorio/Cultura/Biblioteca"},{"place_id":"44,4453083","geometry":{"type":"Point","coordinates":[11.8305724,44.4453083]},"display_name":"Biblioteca comunale Carlo Venturini,from:IBC","category":"attractions","type":"Library","importance":0.0,"icon":"","visiting_time":0.0,"opening_hours":"ok","opening_days":"ok","rating":0,"photo_url":null,"description":null,"www":"http://www.comune.massalombarda.ra.it/GUIDA-AI-SERVIZI/Cultura-e-Tempo-Libero/Centro-Culturale-Venturini"},{"place_id":"44,44183267053820","geometry":{"type":"Point","coordinates":[11.833040272,44.441832671]},"display_name":"Museo della Frutticoltura Adolfo Bonvicini,from:IBC","category":"attractions","type":"Museum","importance":0.0,"icon":"","visiting_time":0.0,"opening_hours":"ok","opening_days":"ok","rating":0,"photo_url":null,"description":null,"www":"http://dati.emilia-romagna.it/id/ibc/condition/IT-ER-RA017"},{"place_id":"44,44520188141640","geometry":{"type":"Point","coordinates":[11.8308377,44.445201881]},"display_name":"Centro Culturale Carlo Venturini,from:IBC","category":"attractions","type":"Museum","importance":0.0,"icon":"","visiting_time":0.0,"opening_hours":"ok","opening_days":"ok","rating":0,"photo_url":null,"description":null,"www":"http://www.comune.massalombarda.ra.it"},{"place_id":"Un Pioppo bianco Massa Lombarda Via Merlo, 19 94","geometry":{"type":"Point","coordinates":[11.78511009,44.50052562]},"display_name":"Un Pioppo bianco Massa Lombarda Via Merlo, 19,from:IBC","category":"tree","type":"tree","importance":0.0,"icon":"","visiting_time":0.0,"opening_hours":"ok","opening_days":"ok","rating":0,"photo_url":"http://online.ibc.regione.emilia-romagna.it/mtrees/image/1316.jpg","description":null,"www":null},{"place_id":"Un Gelso nero Massa Lombarda Via Selice Vecchia 242","geometry":{"type":"Point","coordinates":[11.81840566,44.48096567]},"display_name":"Un Gelso nero Massa Lombarda Via Selice Vecchia,from:IBC","category":"tree","type":"tree","importance":0.0,"icon":"","visiting_time":0.0,"opening_hours":"ok","opening_days":"ok","rating":0,"photo_url":"http://online.ibc.regione.emilia-romagna.it/mtrees/image/1326.jpg","description":null,"www":null},{"place_id":"Un Gelso comune Massa Lombarda Via del Signore, 22 284","geometry":{"type":"Point","coordinates":[11.76646683,44.49490249]},"display_name":"Un Gelso comune Massa Lombarda Via del Signore, 22,from:IBC","category":"tree","type":"tree","importance":0.0,"icon":"","visiting_time":0.0,"opening_hours":"ok","opening_days":"ok","rating":0,"photo_url":"http://online.ibc.regione.emilia-romagna.it/mtrees/image/1314.jpg","description":null,"www":null},{"place_id":"Un Pioppo nero Massa Lombarda Via del Signore, 16 383","geometry":{"type":"Point","coordinates":[11.77257927,44.49304375]},"display_name":"Un Pioppo nero Massa Lombarda Via del Signore, 16,from:IBC","category":"tree","type":"tree","importance":0.0,"icon":"","visiting_time":0.0,"opening_hours":"ok","opening_days":"ok","rating":0,"photo_url":"http://online.ibc.regione.emilia-romagna.it/mtrees/image/1310.jpg","description":null,"www":null},{"place_id":"Un Pioppo bianco Massa Lombarda Via del Signore, 24 470","geometry":{"type":"Point","coordinates":[11.76236387,44.49510988]},"display_name":"Un Pioppo bianco Massa Lombarda Via del Signore, 24,from:IBC","category":"tree","type":"tree","importance":0.0,"icon":"","visiting_time":0.0,"opening_hours":"ok","opening_days":"ok","rating":0,"photo_url":"http://online.ibc.regione.emilia-romagna.it/mtrees/image/1306.jpg","description":null,"www":null},{"place_id":"Due Tigli Lugo Belricetto Via Fiumazzo, 354 594","geometry":{"type":"Point","coordinates":[11.84953155,44.42709732]},"display_name":"Due Tigli Lugo Belricetto Via Fiumazzo, 354,from:IBC","category":"tree","type":"tree","importance":0.0,"icon":"","visiting_time":0.0,"opening_hours":"ok","opening_days":"ok","rating":0,"photo_url":null,"description":null,"www":null},{"place_id":"Tre Farnie in filare Lugo Villa S. Martino Loc. Ronchetto 638","geometry":{"type":"Point","coordinates":[11.84945286,44.42806253]},"display_name":"Tre Farnie in filare Lugo Villa S. Martino Loc. Ronchetto,from:IBC","category":"tree","type":"tree","importance":0.0,"icon":"","visiting_time":0.0,"opening_hours":"ok","opening_days":"ok","rating":0,"photo_url":"http://online.ibc.regione.emilia-romagna.it/mtrees/image/1227.jpg","description":null,"www":null},{"place_id":"Un Pioppo nero Lugo Villa S. Martino Ronchetto 647","geometry":{"type":"Point","coordinates":[11.84987689,44.42722373]},"display_name":"Un Pioppo nero Lugo Villa S. Martino Ronchetto,from:IBC","category":"tree","type":"tree","importance":0.0,"icon":"","visiting_time":0.0,"opening_hours":"ok","opening_days":"ok","rating":0,"photo_url":"http://online.ibc.regione.emilia-romagna.it/mtrees/image/1297.jpg","description":null,"www":null},{"place_id":"Un Olmo comune Massa Lombarda Viale Ravenna, 4 652","geometry":{"type":"Point","coordinates":[11.84562015,44.44149058]},"display_name":"Un Olmo comune Massa Lombarda Viale Ravenna, 4,from:IBC","category":"tree","type":"tree","importance":0.0,"icon":"","visiting_time":0.0,"opening_hours":"ok","opening_days":"ok","rating":0,"photo_url":"http://online.ibc.regione.emilia-romagna.it/mtrees/image/1229.jpg","description":null,"www":null},{"place_id":"Una Farnia Massa Lombarda Via Damano, 2 904","geometry":{"type":"Point","coordinates":[11.82810724,44.44963187]},"display_name":"Una Farnia Massa Lombarda Via Damano, 2,from:IBC","category":"tree","type":"tree","importance":0.0,"icon":"","visiting_time":0.0,"opening_hours":"ok","opening_days":"ok","rating":0,"photo_url":"http://online.ibc.regione.emilia-romagna.it/mtrees/image/1301.jpg","description":null,"www":null},{"place_id":"Due Farnie Massa Lombarda Via Damano, 7 1049","geometry":{"type":"Point","coordinates":[11.83036474,44.45291575]},"display_name":"Due Farnie Massa Lombarda Via Damano, 7,from:IBC","category":"tree","type":"tree","importance":0.0,"icon":"","visiting_time":0.0,"opening_hours":"ok","opening_days":"ok","rating":0,"photo_url":null,"description":null,"www":null}]