[{"place_id":"celi325","geometry":{"type":"Point","coordinates":[12.24546,44.66957]},"display_name":"Bagno Astra","category":"eating","type":"celiachia","importance":0.1,"icon":"","visiting_time":0.0,"opening_hours":"ok","opening_days":"ok","rating":0,"photo_url":null,"description":"Glutine","www":"www.bagnoastra.it"},{"place_id":"celi3109","geometry":{"type":"Point","coordinates":[12.183022,44.695825]},"display_name":"Al Ponticello","category":"eating","type":"celiachia","importance":0.1,"icon":"","visiting_time":0.0,"opening_hours":"ok","opening_days":"ok","rating":0,"photo_url":null,"description":"Glutine","www":"www.alponticello.it"},{"place_id":"celi8825","geometry":{"type":"Point","coordinates":[12.206333,44.732556]},"display_name":"Alle Aie sul Lago","category":"eating","type":"celiachia","importance":0.1,"icon":"","visiting_time":0.0,"opening_hours":"ok","opening_days":"ok","rating":0,"photo_url":null,"description":"Glutine","www":"www.alleaie.it"},{"place_id":"celi8085","geometry":{"type":"Point","coordinates":[12.241907,44.678288]},"display_name":"Gelateria del Cuore","category":"eating","type":"celiachia","importance":0.1,"icon":"","visiting_time":0.0,"opening_hours":"ok","opening_days":"ok","rating":0,"photo_url":null,"description":"Glutine","www":"null"},{"place_id":"celi4539","geometry":{"type":"Point","coordinates":[12.2445583,44.6613909]},"display_name":"Logonovo","category":"eating","type":"celiachia","importance":0.1,"icon":"","visiting_time":0.0,"opening_hours":"ok","opening_days":"ok","rating":0,"photo_url":null,"description":"Glutine","www":"www.hotellogonovo.it"},{"place_id":"celi13226","geometry":{"type":"Point","coordinates":[12.2433415,44.6675607]},"display_name":"Mammamia","category":"eating","type":"celiachia","importance":0.1,"icon":"","visiting_time":0.0,"opening_hours":"ok","opening_days":"ok","rating":0,"photo_url":null,"description":"Senza Glutine","www":"null"},{"place_id":"celi2944","geometry":{"type":"Point","coordinates":[12.2398162,44.7149215]},"display_name":"Gelateria K 2","category":"eating","type":"celiachia","importance":0.1,"icon":"","visiting_time":0.0,"opening_hours":"ok","opening_days":"ok","rating":0,"photo_url":null,"description":"Senza Glutine","www":"www.gelateriak2.it"},{"place_id":"celi11782","geometry":{"type":"Point","coordinates":[12.117014,44.8183096]},"display_name":"La Via del Volano","category":"eating","type":"celiachia","importance":0.1,"icon":"","visiting_time":0.0,"opening_hours":"ok","opening_days":"ok","rating":0,"photo_url":null,"description":"Glutine","www":"www.laviadelvolano.com"}]