[{"place_id":"celi12439","geometry":{"type":"Point","coordinates":[12.4281,44.156732]},"display_name":"America Graffiti","category":"eating","type":"celiachia","importance":1.0,"icon":"","visiting_time":0.0,"opening_hours":"ok","opening_days":"ok","rating":0,"photo_url":null,"description":"Glutine","www":"null"},{"place_id":"celi5418","geometry":{"type":"Point","coordinates":[12.404927,44.203967]},"display_name":"Bagno Piscina 4 Venti","category":"eating","type":"celiachia","importance":1.0,"icon":"","visiting_time":0.0,"opening_hours":"ok","opening_days":"ok","rating":0,"photo_url":null,"description":"Glutine","www":"www.bagno4venti.com"},{"place_id":"celi9961","geometry":{"type":"Point","coordinates":[12.4335214,44.1718131]},"display_name":"Gelateria delle Nazioni","category":"eating","type":"celiachia","importance":1.0,"icon":"","visiting_time":0.0,"opening_hours":"ok","opening_days":"ok","rating":0,"photo_url":null,"description":"Senza Glutine","www":"null"},{"place_id":"celi7795","geometry":{"type":"Point","coordinates":[12.397221,44.200834]},"display_name":"Ca' Nostra","category":"eating","type":"celiachia","importance":1.0,"icon":"","visiting_time":0.0,"opening_hours":"ok","opening_days":"ok","rating":0,"photo_url":null,"description":"Glutine","www":"null"},{"place_id":"celi8289","geometry":{"type":"Point","coordinates":[12.4031119,44.2029101]},"display_name":"Il Jelato di Jessica","category":"eating","type":"celiachia","importance":1.0,"icon":"","visiting_time":0.0,"opening_hours":"ok","opening_days":"ok","rating":0,"photo_url":null,"description":"Senza Glutine","www":"www.ilgelatodijessica.it"}]