[{"place_id":"44,69344693785980","geometry":{"type":"Point","coordinates":[10.42227725,44.693446938]},"display_name":"Comune di Montechiarugolo,from:IBC","category":"attractions","type":"HolderOfArchives","importance":0.0,"icon":"","visiting_time":0.0,"opening_hours":"ok","opening_days":"ok","rating":0,"photo_url":null,"description":null,"www":"http://www.comune.montechiarugolo.pr.it"},{"place_id":"44,74536303284330","geometry":{"type":"Point","coordinates":[10.219970883,44.745363033]},"display_name":"Archivio storico comunale di Collecchio,from:IBC","category":"attractions","type":"HolderOfArchives","importance":0.0,"icon":"","visiting_time":0.0,"opening_hours":"ok","opening_days":"ok","rating":0,"photo_url":null,"description":null,"www":"http://www.comune.collecchio.pr.it"},{"place_id":"44,71551780030590","geometry":{"type":"Point","coordinates":[10.228384758,44.7155178]},"display_name":"Comune di Sala Baganza,from:IBC","category":"attractions","type":"HolderOfArchives","importance":0.0,"icon":"","visiting_time":0.0,"opening_hours":"ok","opening_days":"ok","rating":0,"photo_url":null,"description":null,"www":"http://www.comune.sala-baganza.pr.it"},{"place_id":"44,80726604668910","geometry":{"type":"Point","coordinates":[10.309622836,44.807266047]},"display_name":"Club Alpino Italiano - Sezione di Parma,from:IBC","category":"attractions","type":"HolderOfArchives","importance":0.0,"icon":"","visiting_time":0.0,"opening_hours":"ok","opening_days":"ok","rating":0,"photo_url":null,"description":null,"www":"http://www.caiparma.it"},{"place_id":"44,69534844888810","geometry":{"type":"Point","coordinates":[10.241550357,44.695348449]},"display_name":"Comune di Felino,from:IBC","category":"attractions","type":"HolderOfArchives","importance":0.0,"icon":"","visiting_time":0.0,"opening_hours":"ok","opening_days":"ok","rating":0,"photo_url":null,"description":null,"www":"http://www.comune.felino.pr.it"},{"place_id":"44,79544253584200","geometry":{"type":"Point","coordinates":[10.302745022,44.795442536]},"display_name":"Fondazione Teatro Due di Parma,from:IBC","category":"attractions","type":"HolderOfArchives","importance":0.0,"icon":"","visiting_time":0.0,"opening_hours":"ok","opening_days":"ok","rating":0,"photo_url":null,"description":null,"www":"http://www.teatrodue.org"},{"place_id":"44,78626662179530","geometry":{"type":"Point","coordinates":[10.333498927,44.786266622]},"display_name":"Provincia di Parma,from:IBC","category":"attractions","type":"HolderOfArchives","importance":0.0,"icon":"","visiting_time":0.0,"opening_hours":"ok","opening_days":"ok","rating":0,"photo_url":null,"description":null,"www":"http://www.provincia.parma.it"},{"place_id":"44,88989607324620","geometry":{"type":"Point","coordinates":[10.364303893,44.889896073]},"display_name":"Comune di Torrile,from:IBC","category":"attractions","type":"HolderOfArchives","importance":0.0,"icon":"","visiting_time":0.0,"opening_hours":"ok","opening_days":"ok","rating":0,"photo_url":null,"description":null,"www":"http://www.comune.torrile.pr.it"},{"place_id":"44,79273368761400","geometry":{"type":"Point","coordinates":[10.311155861,44.792733688]},"display_name":"Comune di Parma,from:IBC","category":"attractions","type":"HolderOfArchives","importance":0.0,"icon":"","visiting_time":0.0,"opening_hours":"ok","opening_days":"ok","rating":0,"photo_url":null,"description":null,"www":"http://www.archiviostorico.comune.parma.it"},{"place_id":"44,80461921827010","geometry":{"type":"Point","coordinates":[10.329745815,44.804619218]},"display_name":"Biblioteca comunale Ugo Guanda,from:IBC","category":"attractions","type":"Library","importance":0.0,"icon":"","visiting_time":0.0,"opening_hours":"ok","opening_days":"ok","rating":0,"photo_url":null,"description":null,"www":"http://biblioteche.comune.parma.it/portal/page?_pageid=193,334414&_dad=portal&_schema=PORTAL&nome_cat=GUANDA"},{"place_id":"44,80436891953420","geometry":{"type":"Point","coordinates":[10.317941868,44.80436892]},"display_name":"Biblioteca Civica Mario Colombi Guidotti,from:IBC","category":"attractions","type":"Library","importance":0.0,"icon":"","visiting_time":0.0,"opening_hours":"ok","opening_days":"ok","rating":0,"photo_url":null,"description":null,"www":"http://biblioteche.comune.parma.it/BibParma/civica/index.htm"},{"place_id":"44,80500067016180","geometry":{"type":"Point","coordinates":[10.332930797,44.80500067]},"display_name":"Casa della musica. Archivio storico del Teatro Regio - Sezione storica,from:IBC","category":"attractions","type":"Library","importance":0.0,"icon":"","visiting_time":0.0,"opening_hours":"ok","opening_days":"ok","rating":0,"photo_url":null,"description":null,"www":"http://www.lacasadellamusica.it"},{"place_id":"44,80333381469700","geometry":{"type":"Point","coordinates":[10.319107605,44.803333815]},"display_name":"Centro Cinema Lino Ventura,from:IBC","category":"attractions","type":"Library","importance":0.0,"icon":"","visiting_time":0.0,"opening_hours":"ok","opening_days":"ok","rating":0,"photo_url":null,"description":null,"www":"http://www.centrocinemalinoventura.it"},{"place_id":"44,74536303284330","geometry":{"type":"Point","coordinates":[10.219970883,44.745363033]},"display_name":"Biblioteca comunale,from:IBC","category":"attractions","type":"Library","importance":0.0,"icon":"","visiting_time":0.0,"opening_hours":"ok","opening_days":"ok","rating":0,"photo_url":null,"description":null,"www":"http://www.collecchioonline.it"},{"place_id":"44,72746113739010","geometry":{"type":"Point","coordinates":[10.388418599,44.727461137]},"display_name":"Biblioteca comunale,from:IBC","category":"attractions","type":"Library","importance":0.0,"icon":"","visiting_time":0.0,"opening_hours":"ok","opening_days":"ok","rating":0,"photo_url":null,"description":null,"www":"http://www.comune.montechiarugolo.pr.it/page.asp?IDCategoria=828&IDSezione=6078"},{"place_id":"44,71269297965990","geometry":{"type":"Point","coordinates":[10.227646423,44.71269298]},"display_name":"Biblioteca comunale Vilma Preti,from:IBC","category":"attractions","type":"Library","importance":0.0,"icon":"","visiting_time":0.0,"opening_hours":"ok","opening_days":"ok","rating":0,"photo_url":null,"description":null,"www":"http://dati.emilia-romagna.it/id/ibc/condition/IT-PR0100_orari"},{"place_id":"44,80500067016180","geometry":{"type":"Point","coordinates":[10.332930797,44.80500067]},"display_name":"Casa della musica. Archivio storico del Teatro Regio - Sezione multimediale,from:IBC","category":"attractions","type":"Library","importance":0.0,"icon":"","visiting_time":0.0,"opening_hours":"ok","opening_days":"ok","rating":0,"photo_url":null,"description":null,"www":"http://www.lacasadellamusica.it"},{"place_id":"44,80461921827010","geometry":{"type":"Point","coordinates":[10.329745815,44.804619218]},"display_name":"Biblioteca Internazionale Ilaria Alpi,from:IBC","category":"attractions","type":"Library","importance":0.0,"icon":"","visiting_time":0.0,"opening_hours":"ok","opening_days":"ok","rating":0,"photo_url":null,"description":null,"www":"http://www.biblioteche.comune.parma.it/portal/page?_pageid=193,334438&_dad=portal&_schema=PORTAL&C_ITEM=581315&p_data=15-02-2010&p_area=BIBLIOTECHE"},{"place_id":"44,69159677957410","geometry":{"type":"Point","coordinates":[10.249685947,44.69159678]},"display_name":"Biblioteca comunale Cesare Pavese,from:IBC","category":"attractions","type":"Library","importance":0.0,"icon":"","visiting_time":0.0,"opening_hours":"ok","opening_days":"ok","rating":0,"photo_url":null,"description":null,"www":"http://www.comune.felino.pr.it"},{"place_id":"44,80436891953420","geometry":{"type":"Point","coordinates":[10.317941868,44.80436892]},"display_name":"Biblioteca di agricoltura Antonio Bizzozero,from:IBC","category":"attractions","type":"Library","importance":0.0,"icon":"","visiting_time":0.0,"opening_hours":"ok","opening_days":"ok","rating":0,"photo_url":null,"description":null,"www":"http://biblioteche.comune.parma.it"},{"place_id":"44,79229290295800","geometry":{"type":"Point","coordinates":[10.358211291,44.792292903]},"display_name":"Biblioteca comunale Cesare Pavese,from:IBC","category":"attractions","type":"Library","importance":0.0,"icon":"","visiting_time":0.0,"opening_hours":"ok","opening_days":"ok","rating":0,"photo_url":null,"description":null,"www":"http://biblioteche.comune.parma.it"},{"place_id":"44,79273368761400","geometry":{"type":"Point","coordinates":[10.311155861,44.792733688]},"display_name":"Archivio storico comunale - Biblioteca,from:IBC","category":"attractions","type":"Library","importance":0.0,"icon":"","visiting_time":0.0,"opening_hours":"ok","opening_days":"ok","rating":0,"photo_url":null,"description":null,"www":"http://www.archiviostorico.comune.parma.it"},{"place_id":"44,80963102869130","geometry":{"type":"Point","coordinates":[10.310996488,44.809631029]},"display_name":"Biblioteca di Alice,from:IBC","category":"attractions","type":"Library","importance":0.0,"icon":"","visiting_time":0.0,"opening_hours":"ok","opening_days":"ok","rating":0,"photo_url":null,"description":null,"www":"http://www.biblioteche.comune.parma.it"},{"place_id":"44,80436891953420","geometry":{"type":"Point","coordinates":[10.317941868,44.80436892]},"display_name":"Biblioteca Umberto Balestrazzi,from:IBC","category":"attractions","type":"Library","importance":0.0,"icon":"","visiting_time":0.0,"opening_hours":"ok","opening_days":"ok","rating":0,"photo_url":null,"description":null,"www":"http://www.biblioteche.comune.parma.it/balestrazzi/it-IT/homepage.aspx"},{"place_id":"44,80436891953420","geometry":{"type":"Point","coordinates":[10.317941868,44.80436892]},"display_name":"Emeroteca comunale,from:IBC","category":"attractions","type":"Library","importance":0.0,"icon":"","visiting_time":0.0,"opening_hours":"ok","opening_days":"ok","rating":0,"photo_url":null,"description":null,"www":"http://biblioteche.comune.parma.it"},{"place_id":"44,81853935624380","geometry":{"type":"Point","coordinates":[10.309548501,44.818539356]},"display_name":"Museo Anatomico Veterinario A. Lemoigne,from:IBC","category":"attractions","type":"Museum","importance":0.0,"icon":"","visiting_time":0.0,"opening_hours":"ok","opening_days":"ok","rating":0,"photo_url":null,"description":null,"www":"http://dati.emilia-romagna.it/id/ibc/condition/IT-ER-PR043"},{"place_id":"44,76719578861660","geometry":{"type":"Point","coordinates":[10.315199306,44.767195789]},"display_name":"Museo di Fisica e Scienze della Terra - sez. Macedonio Melloni,from:IBC","category":"attractions","type":"Museum","importance":0.0,"icon":"","visiting_time":0.0,"opening_hours":"ok","opening_days":"ok","rating":0,"photo_url":null,"description":null,"www":"http://dati.emilia-romagna.it/id/ibc/condition/IT-ER-PR039"},{"place_id":"44,80420138001650","geometry":{"type":"Point","coordinates":[10.322414984,44.80420138]},"display_name":"Museo Casa Natale A.Toscanini,from:IBC","category":"attractions","type":"Museum","importance":0.0,"icon":"","visiting_time":0.0,"opening_hours":"ok","opening_days":"ok","rating":0,"photo_url":null,"description":null,"www":"http://www.museotoscanini.it"},{"place_id":"44,76653358950740","geometry":{"type":"Point","coordinates":[10.304354279,44.76653359]},"display_name":"Museo di Fisica e Scienze della Terra - Sez. Paleontologica,from:IBC","category":"attractions","type":"Museum","importance":0.0,"icon":"","visiting_time":0.0,"opening_hours":"ok","opening_days":"ok","rating":0,"photo_url":null,"description":null,"www":"http://dati.emilia-romagna.it/id/ibc/condition/IT-ER-PR041"},{"place_id":"44,80227516218190","geometry":{"type":"Point","coordinates":[10.327729017,44.802275162]},"display_name":"Museo dell'Ordine Costantiniano di San Giorgio,from:IBC","category":"attractions","type":"Museum","importance":0.0,"icon":"","visiting_time":0.0,"opening_hours":"ok","opening_days":"ok","rating":0,"photo_url":null,"description":null,"www":"http://www.museocostantinianodellasteccata.it/"},{"place_id":"44,75791260653600","geometry":{"type":"Point","coordinates":[10.235971633,44.757912607]},"display_name":"Museo Ettore Guatelli,from:IBC","category":"attractions","type":"Museum","importance":0.0,"icon":"","visiting_time":0.0,"opening_hours":"ok","opening_days":"ok","rating":0,"photo_url":null,"description":null,"www":"http://www.museoguatelli.it"},{"place_id":"44,78838214830380","geometry":{"type":"Point","coordinates":[10.326745337,44.788382148]},"display_name":"Museo d'Arte Cinese ed Etnografico,from:IBC","category":"attractions","type":"Museum","importance":0.0,"icon":"","visiting_time":0.0,"opening_hours":"ok","opening_days":"ok","rating":0,"photo_url":null,"description":null,"www":"http://www.museocineseparma.org"},{"place_id":"44,80437685962320","geometry":{"type":"Point","coordinates":[10.329879335,44.80437686]},"display_name":"Pinacoteca G. Stuard,from:IBC","category":"attractions","type":"Museum","importance":0.0,"icon":"","visiting_time":0.0,"opening_hours":"ok","opening_days":"ok","rating":0,"photo_url":null,"description":null,"www":"http://dati.emilia-romagna.it/id/ibc/condition/IT-ER-PR011"},{"place_id":"44,80071585497780","geometry":{"type":"Point","coordinates":[10.329541511,44.800715855]},"display_name":"Collezione Borsari 1870 - Primo Museo Italiano della Profumeria,from:IBC","category":"attractions","type":"Museum","importance":0.0,"icon":"","visiting_time":0.0,"opening_hours":"ok","opening_days":"ok","rating":0,"photo_url":null,"description":null,"www":"http://www.parmacolorviola.com/ita/borsari.html"},{"place_id":"44,79582458735900","geometry":{"type":"Point","coordinates":[10.327348592,44.795824587]},"display_name":"Orto Botanico,from:IBC","category":"attractions","type":"Museum","importance":0.0,"icon":"","visiting_time":0.0,"opening_hours":"ok","opening_days":"ok","rating":0,"photo_url":null,"description":null,"www":"http://dati.emilia-romagna.it/id/ibc/condition/IT-ER-PR015"},{"place_id":"44,80386774411520","geometry":{"type":"Point","coordinates":[10.327989126,44.803867744]},"display_name":"Museo Glauco Lombardi,from:IBC","category":"attractions","type":"Museum","importance":0.0,"icon":"","visiting_time":0.0,"opening_hours":"ok","opening_days":"ok","rating":0,"photo_url":null,"description":null,"www":"http://www.museolombardi.it/sitolombardi/default.asp"},{"place_id":"44,80500067016180","geometry":{"type":"Point","coordinates":[10.332930797,44.80500067]},"display_name":"Museo dell'Opera,from:IBC","category":"attractions","type":"Museum","importance":0.0,"icon":"","visiting_time":0.0,"opening_hours":"ok","opening_days":"ok","rating":0,"photo_url":null,"description":null,"www":"http://dati.emilia-romagna.it/id/ibc/condition/IT-ER-PR028"},{"place_id":"44,80205173547790","geometry":{"type":"Point","coordinates":[10.331726201,44.802051735]},"display_name":"Museo Amedeo Bocchi,from:IBC","category":"attractions","type":"Museum","importance":0.0,"icon":"","visiting_time":0.0,"opening_hours":"ok","opening_days":"ok","rating":0,"photo_url":null,"description":null,"www":"http://www.museobocchi.it"},{"place_id":"44,71269297965990","geometry":{"type":"Point","coordinates":[10.227646423,44.71269298]},"display_name":"Museo del Vino,from:IBC","category":"attractions","type":"Museum","importance":0.0,"icon":"","visiting_time":0.0,"opening_hours":"ok","opening_days":"ok","rating":0,"photo_url":null,"description":null,"www":"http://dati.emilia-romagna.it/id/ibc/condition/IT-ER-PR074"},{"place_id":"44,80373461744950","geometry":{"type":"Point","coordinates":[10.329523878,44.803734617]},"display_name":"Museo Diocesano,from:IBC","category":"attractions","type":"Museum","importance":0.0,"icon":"","visiting_time":0.0,"opening_hours":"ok","opening_days":"ok","rating":0,"photo_url":null,"description":null,"www":"http://dati.emilia-romagna.it/id/ibc/condition/IT-ER-PR044"},{"place_id":"44,76653358950740","geometry":{"type":"Point","coordinates":[10.304354279,44.76653359]},"display_name":"Museo di Fisica e Scienze della Terra - Sez. Mineralogica,from:IBC","category":"attractions","type":"Museum","importance":0.0,"icon":"","visiting_time":0.0,"opening_hours":"ok","opening_days":"ok","rating":0,"photo_url":null,"description":null,"www":"http://dati.emilia-romagna.it/id/ibc/condition/IT-ER-PR042"},{"place_id":"44,71269297965990","geometry":{"type":"Point","coordinates":[10.227646423,44.71269298]},"display_name":"Rocca Sanvitale - Mostra permanente della scultrice Jucci Ugolotti,from:IBC","category":"attractions","type":"Museum","importance":0.0,"icon":"","visiting_time":0.0,"opening_hours":"ok","opening_days":"ok","rating":0,"photo_url":null,"description":null,"www":"http://www.comune.sala-baganza.pr.it"},{"place_id":"44,69288552484070","geometry":{"type":"Point","coordinates":[10.423412701,44.692885525]},"display_name":"Castello e Raccolta Archeologica,from:IBC","category":"attractions","type":"Museum","importance":0.0,"icon":"","visiting_time":0.0,"opening_hours":"ok","opening_days":"ok","rating":0,"photo_url":null,"description":null,"www":"http://dati.emilia-romagna.it/id/ibc/condition/IT-ER-PR038"},{"place_id":"44,66754681210290","geometry":{"type":"Point","coordinates":[10.348672859,44.667546812]},"display_name":"Fondazione Magnani Rocca,from:IBC","category":"attractions","type":"Museum","importance":0.0,"icon":"","visiting_time":0.0,"opening_hours":"ok","opening_days":"ok","rating":0,"photo_url":null,"description":null,"www":"http://www.magnanirocca.it"},{"place_id":"44,80205173547790","geometry":{"type":"Point","coordinates":[10.331726201,44.802051735]},"display_name":"Museo Renato Vernizzi,from:IBC","category":"attractions","type":"Museum","importance":0.0,"icon":"","visiting_time":0.0,"opening_hours":"ok","opening_days":"ok","rating":0,"photo_url":null,"description":null,"www":"http://dati.emilia-romagna.it/id/ibc/condition/IT-ER-PR075"},{"place_id":"44,79582458735900","geometry":{"type":"Point","coordinates":[10.327348592,44.795824587]},"display_name":"Museo di Storia Naturale,from:IBC","category":"attractions","type":"Museum","importance":0.0,"icon":"","visiting_time":0.0,"opening_hours":"ok","opening_days":"ok","rating":0,"photo_url":null,"description":null,"www":"http://dati.emilia-romagna.it/id/ibc/condition/IT-ER-PR009"},{"place_id":"44,80412920117700","geometry":{"type":"Point","coordinates":[10.328728515,44.804129201]},"display_name":"Castello dei Burattini - Museo Giordano Ferrari,from:IBC","category":"attractions","type":"Museum","importance":0.0,"icon":"","visiting_time":0.0,"opening_hours":"ok","opening_days":"ok","rating":0,"photo_url":null,"description":null,"www":"http://www.castellodeiburattini.it/index.asp"},{"place_id":"44,80496618911910","geometry":{"type":"Point","coordinates":[10.309744235,44.804966189]},"display_name":"Museo di Scienze Biomediche, Biotecnologiche e Traslazionali,from:IBC","category":"attractions","type":"Museum","importance":0.0,"icon":"","visiting_time":0.0,"opening_hours":"ok","opening_days":"ok","rating":0,"photo_url":null,"description":null,"www":"http://dati.emilia-romagna.it/id/ibc/condition/IT-ER-PR040"},{"place_id":"Un Platano Parma Strada Baganza, 15 (Podere Baganza) 132","geometry":{"type":"Point","coordinates":[10.25052699,44.72469858]},"display_name":"Un Platano Parma Strada Baganza, 15 (Podere Baganza),from:IBC","category":"tree","type":"tree","importance":0.0,"icon":"","visiting_time":0.0,"opening_hours":"ok","opening_days":"ok","rating":0,"photo_url":"http://online.ibc.regione.emilia-romagna.it/mtrees/image/1001.jpg","description":null,"www":null},{"place_id":"Un Acero campestre Gattatico Corte Rainuzzo 262","geometry":{"type":"Point","coordinates":[10.43403806,44.77876852]},"display_name":"Un Acero campestre Gattatico Corte Rainuzzo,from:IBC","category":"tree","type":"tree","importance":0.0,"icon":"","visiting_time":0.0,"opening_hours":"ok","opening_days":"ok","rating":0,"photo_url":"http://online.ibc.regione.emilia-romagna.it/mtrees/image/2317.jpg","description":null,"www":null},{"place_id":"Un Platano comune Montechiarugolo Basilicagoiano Via S. Giminiano, 75 268","geometry":{"type":"Point","coordinates":[10.41412935,44.73674326]},"display_name":"Un Platano comune Montechiarugolo Basilicagoiano Via S. Giminiano, 75,from:IBC","category":"tree","type":"tree","importance":0.0,"icon":"","visiting_time":0.0,"opening_hours":"ok","opening_days":"ok","rating":0,"photo_url":"http://online.ibc.regione.emilia-romagna.it/mtrees/image/1090.jpg","description":null,"www":null},{"place_id":"Una Farnia Parma Pannocchia Via Val Parma 503","geometry":{"type":"Point","coordinates":[10.30627149,44.67847859]},"display_name":"Una Farnia Parma Pannocchia Via Val Parma,from:IBC","category":"tree","type":"tree","importance":0.0,"icon":"","visiting_time":0.0,"opening_hours":"ok","opening_days":"ok","rating":0,"photo_url":"http://online.ibc.regione.emilia-romagna.it/mtrees/image/7020.12.06.pdf","description":null,"www":null},{"place_id":"Farnia Parma Stradella Via Fontanorio 669","geometry":{"type":"Point","coordinates":[10.30517875,44.74269455]},"display_name":"Farnia Parma Stradella Via Fontanorio,from:IBC","category":"tree","type":"tree","importance":0.0,"icon":"","visiting_time":0.0,"opening_hours":"ok","opening_days":"ok","rating":0,"photo_url":"http://online.ibc.regione.emilia-romagna.it/mtrees/image/1133.jpg","description":null,"www":null},{"place_id":"Una Farnia Gattatico Pantaro di Sotto 714","geometry":{"type":"Point","coordinates":[10.43003447,44.7886129]},"display_name":"Una Farnia Gattatico Pantaro di Sotto,from:IBC","category":"tree","type":"tree","importance":0.0,"icon":"","visiting_time":0.0,"opening_hours":"ok","opening_days":"ok","rating":0,"photo_url":"http://online.ibc.regione.emilia-romagna.it/mtrees/image/6708.jpg","description":null,"www":null},{"place_id":"Un Cedro del Libano Montechiarugolo Tortiano - Via Solari, 9 719","geometry":{"type":"Point","coordinates":[10.41474169,44.68312802]},"display_name":"Un Cedro del Libano Montechiarugolo Tortiano - Via Solari, 9,from:IBC","category":"tree","type":"tree","importance":0.0,"icon":"","visiting_time":0.0,"opening_hours":"ok","opening_days":"ok","rating":0,"photo_url":"http://online.ibc.regione.emilia-romagna.it/mtrees/image/6692.12.06.pdf","description":null,"www":null},{"place_id":"Una Farnia Montechiarugolo Monticelli Terme Via Montepelato Nord, 4 722","geometry":{"type":"Point","coordinates":[10.39580835,44.72960495]},"display_name":"Una Farnia Montechiarugolo Monticelli Terme Via Montepelato Nord, 4,from:IBC","category":"tree","type":"tree","importance":0.0,"icon":"","visiting_time":0.0,"opening_hours":"ok","opening_days":"ok","rating":0,"photo_url":"http://online.ibc.regione.emilia-romagna.it/mtrees/image/5543.jpg","description":null,"www":null},{"place_id":"Una Farnia Montechiarugolo Basilicagoiano, via 25 aprile, 22 832","geometry":{"type":"Point","coordinates":[10.40119557,44.70481916]},"display_name":"Una Farnia Montechiarugolo Basilicagoiano, via 25 aprile, 22,from:IBC","category":"tree","type":"tree","importance":0.0,"icon":"","visiting_time":0.0,"opening_hours":"ok","opening_days":"ok","rating":0,"photo_url":"http://online.ibc.regione.emilia-romagna.it/mtrees/image/1118.jpg","description":null,"www":null},{"place_id":"Una Farnia Montechiarugolo Basilicagoiano Via Resga, 4/A 864","geometry":{"type":"Point","coordinates":[10.4291903,44.72366476]},"display_name":"Una Farnia Montechiarugolo Basilicagoiano Via Resga, 4/A,from:IBC","category":"tree","type":"tree","importance":0.0,"icon":"","visiting_time":0.0,"opening_hours":"ok","opening_days":"ok","rating":0,"photo_url":"http://online.ibc.regione.emilia-romagna.it/mtrees/image/1102.jpg","description":null,"www":null},{"place_id":"Una Farnia Montechiarugolo Monticelli Terme Via Monte, 2 867","geometry":{"type":"Point","coordinates":[10.38660489,44.71914859]},"display_name":"Una Farnia Montechiarugolo Monticelli Terme Via Monte, 2,from:IBC","category":"tree","type":"tree","importance":0.0,"icon":"","visiting_time":0.0,"opening_hours":"ok","opening_days":"ok","rating":0,"photo_url":"http://online.ibc.regione.emilia-romagna.it/mtrees/image/1111.jpg","description":null,"www":null}]