[{"place_id":"178604555","geometry":{"type":"Point","coordinates":[10.423829414,44.69291975]},"display_name":"Castello di Montechiarugolo, Via Margherita, Santa Fenicola, Montechiarugolo, PR, EMR, 43022, Italia","category":"attractions","type":"attraction","importance":0.44622755,"icon":"http://nominatim.openstreetmap.org/images/mapicons/poi_point_of_interest.p.20.png","visiting_time":30.0,"opening_hours":null,"opening_days":null,"rating":0,"photo_url":null,"description":null,"www":null},{"place_id":"114246372","geometry":{"type":"Point","coordinates":[10.326786633,44.80323475]},"display_name":"Teatro Regio, Piazzale Antonio Barezzi, Parma, PR, EMR, 43121, Italia","category":"attractions","type":"attraction","importance":0.32826576,"icon":"http://nominatim.openstreetmap.org/images/mapicons/poi_point_of_interest.p.20.png","visiting_time":30.0,"opening_hours":null,"opening_days":null,"rating":0,"photo_url":null,"description":null,"www":null},{"place_id":"112198890","geometry":{"type":"Point","coordinates":[10.331300174,44.8032367]},"display_name":"Cattedrale di Santa Maria Assunta, Strada del Consorzio, Parma, PR, EMR, 43121, Italia","category":"attractions","type":"attraction","importance":0.2851812,"icon":"http://nominatim.openstreetmap.org/images/mapicons/poi_point_of_interest.p.20.png","visiting_time":30.0,"opening_hours":null,"opening_days":null,"rating":0,"photo_url":null,"description":null,"www":null},{"place_id":"130798538","geometry":{"type":"Point","coordinates":[10.330392663,44.8030622]},"display_name":"Battistero di San Giovanni, Piazza Duomo, Parma, PR, EMR, 43121, Italia","category":"attractions","type":"attraction","importance":0.24238366,"icon":"http://nominatim.openstreetmap.org/images/mapicons/poi_point_of_interest.p.20.png","visiting_time":30.0,"opening_hours":null,"opening_days":null,"rating":0,"photo_url":null,"description":null,"www":null},{"place_id":"179696079","geometry":{"type":"Point","coordinates":[10.325970875,44.80518275]},"display_name":"Palazzo della Pilotta, Strada alla Pilotta, Parma, PR, EMR, 13, Italia","category":"attractions","type":"attraction","importance":0.23470384,"icon":"http://nominatim.openstreetmap.org/images/mapicons/poi_point_of_interest.p.20.png","visiting_time":30.0,"opening_hours":null,"opening_days":null,"rating":0,"photo_url":null,"description":null,"www":null},{"place_id":"18574548","geometry":{"type":"Point","coordinates":[10.3257998,44.8044728]},"display_name":"Teatro Farnese, Piazza della Pilotta, Parma, PR, EMR, 13, Italia","category":"attractions","type":"attraction","importance":0.22603048,"icon":"http://nominatim.openstreetmap.org/images/mapicons/poi_point_of_interest.p.20.png","visiting_time":30.0,"opening_hours":null,"opening_days":null,"rating":0,"photo_url":null,"description":null,"www":null},{"place_id":"178620422","geometry":{"type":"Point","coordinates":[10.329284648,44.80461245]},"display_name":"ex Monastero di San Paolo (Parma), Vicolo delle Asse, Parma, PR, EMR, 43121, Italia","category":"attractions","type":"attraction","importance":0.18611063,"icon":"http://nominatim.openstreetmap.org/images/mapicons/poi_point_of_interest.p.20.png","visiting_time":30.0,"opening_hours":null,"opening_days":null,"rating":0,"photo_url":null,"description":null,"www":null},{"place_id":"11032209","geometry":{"type":"Point","coordinates":[10.227483,44.7126566]},"display_name":"Rocca San Vitale, Piazza Antonio Gramsci, La Costa, Sala Baganza, PR, EMR, 43044, Italia","category":"attractions","type":"attraction","importance":0.093055315,"icon":"http://nominatim.openstreetmap.org/images/mapicons/poi_point_of_interest.p.20.png","visiting_time":30.0,"opening_hours":null,"opening_days":null,"rating":0,"photo_url":null,"description":null,"www":null},{"place_id":"74620818","geometry":{"type":"Point","coordinates":[10.329750683,44.80184895]},"display_name":"Piazzale della Macina, Parma, PR, EMR, 43121, Italia","category":"attractions","type":"attraction","importance":0.001,"icon":"http://nominatim.openstreetmap.org/images/mapicons/poi_point_of_interest.p.20.png","visiting_time":30.0,"opening_hours":null,"opening_days":null,"rating":0,"photo_url":null,"description":null,"www":null},{"place_id":"113633160","geometry":{"type":"Point","coordinates":[10.366888926,44.80245435]},"display_name":"Chiesa della Certosa, Viale alla Certosa, Parma, PR, EMR, 43121, Italia","category":"attractions","type":"attraction","importance":0.001,"icon":"http://nominatim.openstreetmap.org/images/mapicons/poi_point_of_interest.p.20.png","visiting_time":30.0,"opening_hours":null,"opening_days":null,"rating":0,"photo_url":null,"description":null,"www":null},{"place_id":"74793957","geometry":{"type":"Point","coordinates":[10.330503096,44.8034175]},"display_name":"Piazza Duomo, Parma, PR, EMR, 43121, Italia","category":"attractions","type":"attraction","importance":0.001,"icon":"http://nominatim.openstreetmap.org/images/mapicons/poi_point_of_interest.p.20.png","visiting_time":30.0,"opening_hours":null,"opening_days":null,"rating":0,"photo_url":null,"description":null,"www":null},{"place_id":"163237339","geometry":{"type":"Point","coordinates":[10.317347152,44.80666865]},"display_name":"Tempietto d'Arcadia, Viale Centrale, Parma, PR, EMR, 13, Italia","category":"attractions","type":"attraction","importance":0.001,"icon":"http://nominatim.openstreetmap.org/images/mapicons/poi_point_of_interest.p.20.png","visiting_time":30.0,"opening_hours":null,"opening_days":null,"rating":0,"photo_url":null,"description":null,"www":null},{"place_id":"18812366","geometry":{"type":"Point","coordinates":[10.3291473,44.8040218]},"display_name":"Monumento ai Caduti di tutte le guerre, Borgo del Parmigianino, Parma, PR, EMR, 43121, Italia","category":"attractions","type":"attraction","importance":0.001,"icon":"http://nominatim.openstreetmap.org/images/mapicons/poi_point_of_interest.p.20.png","visiting_time":30.0,"opening_hours":null,"opening_days":null,"rating":0,"photo_url":null,"description":null,"www":null},{"place_id":"79915994","geometry":{"type":"Point","coordinates":[10.358558762,44.79188065]},"display_name":"Rocca di San Lazzaro, Via Emilio Lepido, Parma, PR, EMR, 43121, Italia","category":"attractions","type":"attraction","importance":0.001,"icon":"http://nominatim.openstreetmap.org/images/mapicons/poi_point_of_interest.p.20.png","visiting_time":30.0,"opening_hours":null,"opening_days":null,"rating":0,"photo_url":null,"description":null,"www":null},{"place_id":"80002865","geometry":{"type":"Point","coordinates":[10.347428743,44.8562215]},"display_name":"Certosa di Paradigna, Via Viazza di Paradigna, Parma, PR, EMR, 43100, Italia","category":"attractions","type":"attraction","importance":0.001,"icon":"http://nominatim.openstreetmap.org/images/mapicons/poi_point_of_interest.p.20.png","visiting_time":30.0,"opening_hours":null,"opening_days":null,"rating":0,"photo_url":null,"description":null,"www":null},{"place_id":"76912875","geometry":{"type":"Point","coordinates":[10.327981323,44.8014822]},"display_name":"Piazza Giuseppe Garibaldi, Parma, PR, EMR, 43121, Italia","category":"attractions","type":"attraction","importance":0.001,"icon":"http://nominatim.openstreetmap.org/images/mapicons/poi_point_of_interest.p.20.png","visiting_time":30.0,"opening_hours":null,"opening_days":null,"rating":0,"photo_url":null,"description":null,"www":null},{"place_id":"54881028","geometry":{"type":"Point","coordinates":[10.3316128,44.8495353]},"display_name":"Consorzio Produttori Latte Soc. Coop., 15, Strada Puppiola, Parma, PR, EMR, 43122, Italia","category":"attractions","type":"attraction","importance":0.001,"icon":"http://nominatim.openstreetmap.org/images/mapicons/poi_point_of_interest.p.20.png","visiting_time":30.0,"opening_hours":null,"opening_days":null,"rating":0,"photo_url":null,"description":null,"www":null},{"place_id":"161328277","geometry":{"type":"Point","coordinates":[10.328516285,44.80117565]},"display_name":"Palazzo del Comune (già del Podestà), Strada della Repubblica, Parma, PR, EMR, 43121, Italia","category":"attractions","type":"attraction","importance":0.001,"icon":"http://nominatim.openstreetmap.org/images/mapicons/poi_point_of_interest.p.20.png","visiting_time":30.0,"opening_hours":null,"opening_days":null,"rating":0,"photo_url":null,"description":null,"www":null},{"place_id":"79803591","geometry":{"type":"Point","coordinates":[10.288817733,44.84891415]},"display_name":"Palacassa, Via Fortunato Rizzi, Fiere di Parma, Parma, PR, EMR, 43126, Italia","category":"attractions","type":"attraction","importance":0.001,"icon":"http://nominatim.openstreetmap.org/images/mapicons/poi_point_of_interest.p.20.png","visiting_time":30.0,"opening_hours":null,"opening_days":null,"rating":0,"photo_url":null,"description":null,"www":null},{"place_id":"20715790","geometry":{"type":"Point","coordinates":[10.3285447,44.8012608]},"display_name":"Portico dei Granai, Strada della Repubblica, Parma, PR, EMR, 43121, Italia","category":"attractions","type":"attraction","importance":0.001,"icon":"http://nominatim.openstreetmap.org/images/mapicons/poi_point_of_interest.p.20.png","visiting_time":30.0,"opening_hours":null,"opening_days":null,"rating":0,"photo_url":null,"description":null,"www":null},{"place_id":"112272409","geometry":{"type":"Point","coordinates":[10.324228275,44.80220505]},"display_name":"Resti ponte romano, Strada Giuseppe Mazzini, Parma, PR, EMR, 43121, Italia","category":"attractions","type":"attraction","importance":0.001,"icon":"http://nominatim.openstreetmap.org/images/mapicons/poi_point_of_interest.p.20.png","visiting_time":30.0,"opening_hours":null,"opening_days":null,"rating":0,"photo_url":null,"description":null,"www":null},{"place_id":"18836398","geometry":{"type":"Point","coordinates":[10.3272634,44.8050519]},"display_name":"Monumento a Giuseppe Verdi, Piazza della Pilotta, Parma, PR, EMR, 13, Italia","category":"attractions","type":"attraction","importance":0.001,"icon":"http://nominatim.openstreetmap.org/images/mapicons/poi_point_of_interest.p.20.png","visiting_time":30.0,"opening_hours":null,"opening_days":null,"rating":0,"photo_url":null,"description":null,"www":null},{"place_id":"111200773","geometry":{"type":"Point","coordinates":[10.327945756,44.80198225]},"display_name":"Palazzo del Governatore, Piazza Giuseppe Garibaldi, Parma, PR, EMR, 43121, Italia","category":"attractions","type":"attraction","importance":0.001,"icon":"http://nominatim.openstreetmap.org/images/mapicons/poi_point_of_interest.p.20.png","visiting_time":30.0,"opening_hours":null,"opening_days":null,"rating":0,"photo_url":null,"description":null,"www":null},{"place_id":"83604084","geometry":{"type":"Point","coordinates":[10.281840949,44.8878482]},"display_name":"Fontanili di Viarolo, Via Lorno, Sissa Trecasali, PR, EMR, Italia","category":"attractions","type":"attraction","importance":0.001,"icon":"http://nominatim.openstreetmap.org/images/mapicons/poi_point_of_interest.p.20.png","visiting_time":30.0,"opening_hours":null,"opening_days":null,"rating":0,"photo_url":null,"description":null,"www":null},{"place_id":"55338440","geometry":{"type":"Point","coordinates":[10.3192329,44.8067632]},"display_name":"Vaso, Viale Centrale, Parma, PR, EMR, 13, Italia","category":"attractions","type":"artwork","importance":0.001,"icon":"http://nominatim.openstreetmap.org/images/mapicons/tourist_art_gallery2.p.20.png","visiting_time":5.0,"opening_hours":null,"opening_days":null,"rating":0,"photo_url":null,"description":null,"www":null},{"place_id":"55829513","geometry":{"type":"Point","coordinates":[10.3177633,44.807097]},"display_name":"Zefiro, Viale Centrale, Parma, PR, EMR, 13, Italia","category":"attractions","type":"artwork","importance":0.001,"icon":"http://nominatim.openstreetmap.org/images/mapicons/tourist_art_gallery2.p.20.png","visiting_time":5.0,"opening_hours":null,"opening_days":null,"rating":0,"photo_url":null,"description":null,"www":null},{"place_id":"55421044","geometry":{"type":"Point","coordinates":[10.3180568,44.8050615]},"display_name":"Arianna, Via John Fitzgerald Kennedy, Parma, PR, EMR, 13, Italia","category":"attractions","type":"artwork","importance":0.001,"icon":"http://nominatim.openstreetmap.org/images/mapicons/tourist_art_gallery2.p.20.png","visiting_time":5.0,"opening_hours":null,"opening_days":null,"rating":0,"photo_url":null,"description":null,"www":null},{"place_id":"19973298","geometry":{"type":"Point","coordinates":[10.313972,44.8043649]},"display_name":"Piazzale Santa Croce, Parma, PR, EMR, 13, Italia","category":"attractions","type":"artwork","importance":0.001,"icon":"http://nominatim.openstreetmap.org/images/mapicons/tourist_art_gallery2.p.20.png","visiting_time":5.0,"opening_hours":null,"opening_days":null,"rating":0,"photo_url":null,"description":null,"www":null},{"place_id":"55745252","geometry":{"type":"Point","coordinates":[10.3154972,44.8060695]},"display_name":"Grand Vase, Viale Alberto Pasini, Parma, PR, EMR, 13, Italia","category":"attractions","type":"artwork","importance":0.001,"icon":"http://nominatim.openstreetmap.org/images/mapicons/tourist_art_gallery2.p.20.png","visiting_time":5.0,"opening_hours":null,"opening_days":null,"rating":0,"photo_url":null,"description":null,"www":null},{"place_id":"53996554","geometry":{"type":"Point","coordinates":[10.3222208,44.8075185]},"display_name":"Trittolemo, Etoile, Parma, PR, EMR, 13, Italia","category":"attractions","type":"artwork","importance":0.001,"icon":"http://nominatim.openstreetmap.org/images/mapicons/tourist_art_gallery2.p.20.png","visiting_time":5.0,"opening_hours":null,"opening_days":null,"rating":0,"photo_url":null,"description":null,"www":null},{"place_id":"3603030","geometry":{"type":"Point","coordinates":[10.31665,44.8060511]},"display_name":"Fontana del Trianon, Viale Centrale, Parma, PR, EMR, 13, Italia","category":"attractions","type":"artwork","importance":0.001,"icon":"http://nominatim.openstreetmap.org/images/mapicons/tourist_art_gallery2.p.20.png","visiting_time":5.0,"opening_hours":null,"opening_days":null,"rating":0,"photo_url":null,"description":null,"www":null},{"place_id":"55657339","geometry":{"type":"Point","coordinates":[10.3222766,44.8073203]},"display_name":"Pale, Etoile, Parma, PR, EMR, 13, Italia","category":"attractions","type":"artwork","importance":0.001,"icon":"http://nominatim.openstreetmap.org/images/mapicons/tourist_art_gallery2.p.20.png","visiting_time":5.0,"opening_hours":null,"opening_days":null,"rating":0,"photo_url":null,"description":null,"www":null},{"place_id":"55104078","geometry":{"type":"Point","coordinates":[10.3179939,44.8071078]},"display_name":"Flora, Viale Centrale, Parma, PR, EMR, 13, Italia","category":"attractions","type":"artwork","importance":0.001,"icon":"http://nominatim.openstreetmap.org/images/mapicons/tourist_art_gallery2.p.20.png","visiting_time":5.0,"opening_hours":null,"opening_days":null,"rating":0,"photo_url":null,"description":null,"www":null},{"place_id":"54424463","geometry":{"type":"Point","coordinates":[10.3177775,44.8050648]},"display_name":"Bacco, Via John Fitzgerald Kennedy, Parma, PR, EMR, 13, Italia","category":"attractions","type":"artwork","importance":0.001,"icon":"http://nominatim.openstreetmap.org/images/mapicons/tourist_art_gallery2.p.20.png","visiting_time":5.0,"opening_hours":null,"opening_days":null,"rating":0,"photo_url":null,"description":null,"www":null},{"place_id":"53458641","geometry":{"type":"Point","coordinates":[10.3230748,44.8058166]},"display_name":"Satiro e Naiade, Etoile, Parma, PR, EMR, 13, Italia","category":"attractions","type":"artwork","importance":0.001,"icon":"http://nominatim.openstreetmap.org/images/mapicons/tourist_art_gallery2.p.20.png","visiting_time":5.0,"opening_hours":null,"opening_days":null,"rating":0,"photo_url":null,"description":null,"www":null},{"place_id":"54056379","geometry":{"type":"Point","coordinates":[10.3178807,44.8066982]},"display_name":"Sileno ed Egle, Viale Centrale, Parma, PR, EMR, 13, Italia","category":"attractions","type":"artwork","importance":0.001,"icon":"http://nominatim.openstreetmap.org/images/mapicons/tourist_art_gallery2.p.20.png","visiting_time":5.0,"opening_hours":null,"opening_days":null,"rating":0,"photo_url":null,"description":null,"www":null},{"place_id":"55378379","geometry":{"type":"Point","coordinates":[10.3225164,44.8075675]},"display_name":"Pomona, Etoile, Parma, PR, EMR, 13, Italia","category":"attractions","type":"artwork","importance":0.001,"icon":"http://nominatim.openstreetmap.org/images/mapicons/tourist_art_gallery2.p.20.png","visiting_time":5.0,"opening_hours":null,"opening_days":null,"rating":0,"photo_url":null,"description":null,"www":null},{"place_id":"55064409","geometry":{"type":"Point","coordinates":[10.3225856,44.8073745]},"display_name":"Vertumno, Etoile, Parma, PR, EMR, 13, Italia","category":"attractions","type":"artwork","importance":0.001,"icon":"http://nominatim.openstreetmap.org/images/mapicons/tourist_art_gallery2.p.20.png","visiting_time":5.0,"opening_hours":null,"opening_days":null,"rating":0,"photo_url":null,"description":null,"www":null},{"place_id":"59024078","geometry":{"type":"Point","coordinates":[10.3219147,44.8004395]},"display_name":"Piccolo zoo, 54/a, Strada Nino Bixio, Parma, PR, EMR, 43125, Italia","category":"attractions","type":"pet","importance":0.101,"icon":null,"visiting_time":120.0,"opening_hours":null,"opening_days":null,"rating":0,"photo_url":null,"description":null,"www":null},{"place_id":"60358903","geometry":{"type":"Point","coordinates":[10.3291005,44.8072517]},"display_name":"PunJab Fastfood-3, 1/c, Borgo Giambattista Borghesi, Parma, PR, EMR, 43121, Italia","category":"eating","type":"fast_food","importance":0.201,"icon":"http://nominatim.openstreetmap.org/images/mapicons/food_fastfood.p.20.png","visiting_time":30.0,"opening_hours":null,"opening_days":null,"rating":0,"photo_url":null,"description":null,"www":null},{"place_id":"58978037","geometry":{"type":"Point","coordinates":[10.3175829,44.8036348]},"display_name":"My fast food, 49/b, Strada Massimo D'Azeglio, Parma, PR, EMR, 43125, Italia","category":"eating","type":"fast_food","importance":0.201,"icon":"http://nominatim.openstreetmap.org/images/mapicons/food_fastfood.p.20.png","visiting_time":30.0,"opening_hours":null,"opening_days":null,"rating":0,"photo_url":null,"description":null,"www":null},{"place_id":"57188407","geometry":{"type":"Point","coordinates":[10.328812,44.8057473]},"display_name":"Pizzeria e Kebab, 49/a, Strada Giuseppe Garibaldi, Parma, PR, EMR, 43121, Italia","category":"eating","type":"fast_food","importance":0.001,"icon":"http://nominatim.openstreetmap.org/images/mapicons/food_fastfood.p.20.png","visiting_time":30.0,"opening_hours":null,"opening_days":null,"rating":0,"photo_url":null,"description":null,"www":null},{"place_id":"58337222","geometry":{"type":"Point","coordinates":[10.3282619,44.8020414]},"display_name":"John Stick, 4/b, Via Giuseppe Verdi, Parma, PR, EMR, 43121, Italia","category":"eating","type":"fast_food","importance":0.001,"icon":"http://nominatim.openstreetmap.org/images/mapicons/food_fastfood.p.20.png","visiting_time":30.0,"opening_hours":null,"opening_days":null,"rating":0,"photo_url":null,"description":null,"www":null},{"place_id":"57324574","geometry":{"type":"Point","coordinates":[10.3217464,44.8027421]},"display_name":"La valle dell'eden, 15/a, Strada Massimo D'Azeglio, Parma, PR, EMR, 43125, Italia","category":"eating","type":"fast_food","importance":0.001,"icon":"http://nominatim.openstreetmap.org/images/mapicons/food_fastfood.p.20.png","visiting_time":30.0,"opening_hours":null,"opening_days":null,"rating":0,"photo_url":null,"description":null,"www":null},{"place_id":"58901612","geometry":{"type":"Point","coordinates":[10.3325849,44.8008776]},"display_name":"Parma Pizza, 1/c, Via Francesco Petrarca, Parma, PR, EMR, 43121, Italia","category":"eating","type":"fast_food","importance":0.001,"icon":"http://nominatim.openstreetmap.org/images/mapicons/food_fastfood.p.20.png","visiting_time":30.0,"opening_hours":null,"opening_days":null,"rating":0,"photo_url":null,"description":null,"www":null},{"place_id":"58902107","geometry":{"type":"Point","coordinates":[10.3224275,44.8016875]},"display_name":"Alba, 20/a, Strada Nino Bixio, Parma, PR, EMR, 43125, Italia","category":"eating","type":"fast_food","importance":0.001,"icon":"http://nominatim.openstreetmap.org/images/mapicons/food_fastfood.p.20.png","visiting_time":30.0,"opening_hours":null,"opening_days":null,"rating":0,"photo_url":null,"description":null,"www":null},{"place_id":"58521503","geometry":{"type":"Point","coordinates":[10.3214201,44.799837]},"display_name":"I due gatti, 78/a, Strada Nino Bixio, Parma, PR, EMR, 43125, Italia","category":"eating","type":"fast_food","importance":0.001,"icon":"http://nominatim.openstreetmap.org/images/mapicons/food_fastfood.p.20.png","visiting_time":30.0,"opening_hours":null,"opening_days":null,"rating":0,"photo_url":null,"description":null,"www":null},{"place_id":"58084763","geometry":{"type":"Point","coordinates":[10.3362493,44.7997184]},"display_name":"Pizzaland, 65/a, Strada della Repubblica, Parma, PR, EMR, 43121, Italia","category":"eating","type":"fast_food","importance":0.001,"icon":"http://nominatim.openstreetmap.org/images/mapicons/food_fastfood.p.20.png","visiting_time":30.0,"opening_hours":null,"opening_days":null,"rating":0,"photo_url":null,"description":null,"www":null},{"place_id":"20686407","geometry":{"type":"Point","coordinates":[10.3354621,44.8203002]},"display_name":"Degustazione Prosciutto, Via Rocco Bormioli, Parma, PR, EMR, 43121, Italia","category":"eating","type":"fast_food","importance":0.001,"icon":"http://nominatim.openstreetmap.org/images/mapicons/food_fastfood.p.20.png","visiting_time":30.0,"opening_hours":null,"opening_days":null,"rating":0,"photo_url":null,"description":null,"www":null},{"place_id":"59022305","geometry":{"type":"Point","coordinates":[10.3292623,44.8033796]},"display_name":"Amor di Patata, 4, Strada al Duomo, Parma, PR, EMR, 43121, Italia","category":"eating","type":"fast_food","importance":0.001,"icon":"http://nominatim.openstreetmap.org/images/mapicons/food_fastfood.p.20.png","visiting_time":30.0,"opening_hours":null,"opening_days":null,"rating":0,"photo_url":null,"description":null,"www":null},{"place_id":"59465507","geometry":{"type":"Point","coordinates":[10.3178929,44.8016055]},"display_name":"Lo sfizio, 58/b, Strada Matteo Renato Imbriani, Parma, PR, EMR, 43125, Italia","category":"eating","type":"fast_food","importance":0.001,"icon":"http://nominatim.openstreetmap.org/images/mapicons/food_fastfood.p.20.png","visiting_time":30.0,"opening_hours":null,"opening_days":null,"rating":0,"photo_url":null,"description":null,"www":null},{"place_id":"58575400","geometry":{"type":"Point","coordinates":[10.3293588,44.8077372]},"display_name":"Adam Kebab, 44/c, Strada Giuseppe Garibaldi, Parma, PR, EMR, 43121, Italia","category":"eating","type":"fast_food","importance":0.001,"icon":"http://nominatim.openstreetmap.org/images/mapicons/food_fastfood.p.20.png","visiting_time":30.0,"opening_hours":null,"opening_days":null,"rating":0,"photo_url":null,"description":null,"www":null},{"place_id":"111626444","geometry":{"type":"Point","coordinates":[10.334553079,44.8204644]},"display_name":"McDonald's, 4A, Via Rodolfi Mansueto, Parma, PR, EMR, 43121, Italia","category":"eating","type":"fast_food","importance":0.001,"icon":"http://nominatim.openstreetmap.org/images/mapicons/food_fastfood.p.20.png","visiting_time":30.0,"opening_hours":null,"opening_days":null,"rating":0,"photo_url":null,"description":null,"www":null},{"place_id":"57188201","geometry":{"type":"Point","coordinates":[10.3247172,44.8013734]},"display_name":"DOC The Burger House, 7/a, Borgo Piccinini, Parma, PR, EMR, 43121, Italia","category":"eating","type":"fast_food","importance":0.001,"icon":"http://nominatim.openstreetmap.org/images/mapicons/food_fastfood.p.20.png","visiting_time":30.0,"opening_hours":null,"opening_days":null,"rating":0,"photo_url":null,"description":null,"www":null},{"place_id":"59093482","geometry":{"type":"Point","coordinates":[10.3212899,44.7996747]},"display_name":"Acqua e farina, 84/a, Strada Nino Bixio, Parma, PR, EMR, 43125, Italia","category":"eating","type":"fast_food","importance":0.001,"icon":"http://nominatim.openstreetmap.org/images/mapicons/food_fastfood.p.20.png","visiting_time":30.0,"opening_hours":null,"opening_days":null,"rating":0,"photo_url":null,"description":null,"www":null},{"place_id":"58575521","geometry":{"type":"Point","coordinates":[10.3175983,44.8006799]},"display_name":"Mamma mia, 58/a, Borgo San Giuseppe, Parma, PR, EMR, 43125, Italia","category":"eating","type":"fast_food","importance":0.001,"icon":"http://nominatim.openstreetmap.org/images/mapicons/food_fastfood.p.20.png","visiting_time":30.0,"opening_hours":null,"opening_days":null,"rating":0,"photo_url":null,"description":null,"www":null},{"place_id":"58201358","geometry":{"type":"Point","coordinates":[10.3273325,44.7958462]},"display_name":"La divina del profeta, 92/a, Strada Luigi Carlo Farini, Parma, PR, EMR, 43121, Italia","category":"eating","type":"fast_food","importance":0.001,"icon":"http://nominatim.openstreetmap.org/images/mapicons/food_fastfood.p.20.png","visiting_time":30.0,"opening_hours":null,"opening_days":null,"rating":0,"photo_url":null,"description":null,"www":null},{"place_id":"59755075","geometry":{"type":"Point","coordinates":[10.3279008,44.803159]},"display_name":"Voglia di piadina, 9/b, Borgo Angelo Mazza, Parma, PR, EMR, 43121, Italia","category":"eating","type":"fast_food","importance":0.001,"icon":"http://nominatim.openstreetmap.org/images/mapicons/food_fastfood.p.20.png","visiting_time":30.0,"opening_hours":null,"opening_days":null,"rating":0,"photo_url":null,"description":null,"www":null},{"place_id":"58980352","geometry":{"type":"Point","coordinates":[10.3199945,44.8030385]},"display_name":"Il profeta, 30/a, Strada Massimo D'Azeglio, Parma, PR, EMR, 43125, Italia","category":"eating","type":"fast_food","importance":0.001,"icon":"http://nominatim.openstreetmap.org/images/mapicons/food_fastfood.p.20.png","visiting_time":30.0,"opening_hours":null,"opening_days":null,"rating":0,"photo_url":null,"description":null,"www":null},{"place_id":"58980112","geometry":{"type":"Point","coordinates":[10.3148482,44.8046701]},"display_name":"Burghi Park, 25/a, Via John Fitzgerald Kennedy, Parma, PR, EMR, 43125, Italia","category":"eating","type":"fast_food","importance":0.001,"icon":"http://nominatim.openstreetmap.org/images/mapicons/food_fastfood.p.20.png","visiting_time":30.0,"opening_hours":null,"opening_days":null,"rating":0,"photo_url":null,"description":null,"www":null},{"place_id":"57801103","geometry":{"type":"Point","coordinates":[10.3247878,44.8026119]},"display_name":"Agirò, 45, Piazza Ghiaia, Parma, PR, EMR, 43121, Italia","category":"eating","type":"fast_food","importance":0.001,"icon":"http://nominatim.openstreetmap.org/images/mapicons/food_fastfood.p.20.png","visiting_time":30.0,"opening_hours":null,"opening_days":null,"rating":0,"photo_url":null,"description":null,"www":null},{"place_id":"4398759","geometry":{"type":"Point","coordinates":[10.3385717,44.8053552]},"display_name":"Pizzeria Paradiso, Via Trieste, Parma, PR, EMR, 43121, Italia","category":"eating","type":"fast_food","importance":0.001,"icon":"http://nominatim.openstreetmap.org/images/mapicons/food_fastfood.p.20.png","visiting_time":30.0,"opening_hours":null,"opening_days":null,"rating":0,"photo_url":null,"description":null,"www":null},{"place_id":"59093190","geometry":{"type":"Point","coordinates":[10.3282084,44.804395]},"display_name":"Carboni's, 19/b, Strada Giuseppe Garibaldi, Parma, PR, EMR, 43121, Italia","category":"eating","type":"fast_food","importance":0.001,"icon":"http://nominatim.openstreetmap.org/images/mapicons/food_fastfood.p.20.png","visiting_time":30.0,"opening_hours":null,"opening_days":null,"rating":0,"photo_url":null,"description":null,"www":null},{"place_id":"60601703","geometry":{"type":"Point","coordinates":[10.3182401,44.8033851]},"display_name":"La bruschetta, 66/a, Strada Massimo D'Azeglio, Parma, PR, EMR, 43125, Italia","category":"eating","type":"fast_food","importance":0.001,"icon":"http://nominatim.openstreetmap.org/images/mapicons/food_fastfood.p.20.png","visiting_time":30.0,"opening_hours":null,"opening_days":null,"rating":0,"photo_url":null,"description":null,"www":null},{"place_id":"58201345","geometry":{"type":"Point","coordinates":[10.3177678,44.8032029]},"display_name":"PFK, 3/d, Borgo Pietro Cocconi, Parma, PR, EMR, 43125, Italia","category":"eating","type":"fast_food","importance":0.001,"icon":"http://nominatim.openstreetmap.org/images/mapicons/food_fastfood.p.20.png","visiting_time":30.0,"opening_hours":null,"opening_days":null,"rating":0,"photo_url":null,"description":null,"www":null},{"place_id":"60358836","geometry":{"type":"Point","coordinates":[10.3302902,44.8070617]},"display_name":"MEET Hamburger Gourmet, 8/b, Strada venti Settembre, Parma, PR, EMR, 43121, Italia","category":"eating","type":"fast_food","importance":0.001,"icon":"http://nominatim.openstreetmap.org/images/mapicons/food_fastfood.p.20.png","visiting_time":30.0,"opening_hours":null,"opening_days":null,"rating":0,"photo_url":null,"description":null,"www":null},{"place_id":"59457878","geometry":{"type":"Point","coordinates":[10.3218481,44.8003617]},"display_name":"Perri, 56/a, Strada Nino Bixio, Parma, PR, EMR, 43125, Italia","category":"eating","type":"fast_food","importance":0.001,"icon":"http://nominatim.openstreetmap.org/images/mapicons/food_fastfood.p.20.png","visiting_time":30.0,"opening_hours":null,"opening_days":null,"rating":0,"photo_url":null,"description":null,"www":null},{"place_id":"58990902","geometry":{"type":"Point","coordinates":[10.3168231,44.8037975]},"display_name":"Carpe Diem, 69/a, Strada Massimo D'Azeglio, Parma, PR, EMR, 43125, Italia","category":"eating","type":"fast_food","importance":0.001,"icon":"http://nominatim.openstreetmap.org/images/mapicons/food_fastfood.p.20.png","visiting_time":30.0,"opening_hours":null,"opening_days":null,"rating":0,"photo_url":null,"description":null,"www":null},{"place_id":"58201308","geometry":{"type":"Point","coordinates":[10.329032,44.8013936]},"display_name":"Pepen, 2/c, Vicolo Sant'Alessandro, Parma, PR, EMR, 43121, Italia","category":"eating","type":"fast_food","importance":0.001,"icon":"http://nominatim.openstreetmap.org/images/mapicons/food_fastfood.p.20.png","visiting_time":30.0,"opening_hours":null,"opening_days":null,"rating":0,"photo_url":null,"description":null,"www":null},{"place_id":"58990615","geometry":{"type":"Point","coordinates":[10.3263339,44.8019174]},"display_name":"Quore italiano, 2/a, Borgo Carlo Goldoni, Parma, PR, EMR, 43121, Italia","category":"eating","type":"fast_food","importance":0.001,"icon":"http://nominatim.openstreetmap.org/images/mapicons/food_fastfood.p.20.png","visiting_time":30.0,"opening_hours":null,"opening_days":null,"rating":0,"photo_url":null,"description":null,"www":null},{"place_id":"58158470","geometry":{"type":"Point","coordinates":[10.3291187,44.8036719]},"display_name":"Toast Amore, 31, Strada Cavour, Parma, PR, EMR, 43121, Italia","category":"eating","type":"fast_food","importance":0.001,"icon":"http://nominatim.openstreetmap.org/images/mapicons/food_fastfood.p.20.png","visiting_time":30.0,"opening_hours":null,"opening_days":null,"rating":0,"photo_url":null,"description":null,"www":null},{"place_id":"58990200","geometry":{"type":"Point","coordinates":[10.325101,44.8021181]},"display_name":"Lady Pizza, 37, Strada Giuseppe Mazzini, Parma, PR, EMR, 43121, Italia","category":"eating","type":"fast_food","importance":0.001,"icon":"http://nominatim.openstreetmap.org/images/mapicons/food_fastfood.p.20.png","visiting_time":30.0,"opening_hours":null,"opening_days":null,"rating":0,"photo_url":null,"description":null,"www":null},{"place_id":"58762257","geometry":{"type":"Point","coordinates":[10.3261593,44.8022961]},"display_name":"La Pizza da Piero, 8/a, Borgo Basinio Basini, Parma, PR, EMR, 43121, Italia","category":"eating","type":"fast_food","importance":0.001,"icon":"http://nominatim.openstreetmap.org/images/mapicons/food_fastfood.p.20.png","visiting_time":30.0,"opening_hours":null,"opening_days":null,"rating":0,"photo_url":null,"description":null,"www":null},{"place_id":"58990195","geometry":{"type":"Point","coordinates":[10.3271479,44.7959005]},"display_name":"Universo vegano, 71/a, Strada Luigi Carlo Farini, Parma, PR, EMR, 43121, Italia","category":"eating","type":"fast_food","importance":0.001,"icon":"http://nominatim.openstreetmap.org/images/mapicons/food_fastfood.p.20.png","visiting_time":30.0,"opening_hours":null,"opening_days":null,"rating":0,"photo_url":null,"description":null,"www":null},{"place_id":"60601677","geometry":{"type":"Point","coordinates":[10.3203131,44.7987354]},"display_name":"La taranta, 75/a, Strada Nino Bixio, Parma, PR, EMR, 43125, Italia","category":"eating","type":"fast_food","importance":0.001,"icon":"http://nominatim.openstreetmap.org/images/mapicons/food_fastfood.p.20.png","visiting_time":30.0,"opening_hours":null,"opening_days":null,"rating":0,"photo_url":null,"description":null,"www":null},{"place_id":"57322000","geometry":{"type":"Point","coordinates":[10.3274987,44.8003793]},"display_name":"Da Walter La Clinica del Panino, 2/d, Borgo Palmia, Parma, PR, EMR, 43121, Italia","category":"eating","type":"fast_food","importance":0.001,"icon":"http://nominatim.openstreetmap.org/images/mapicons/food_fastfood.p.20.png","visiting_time":30.0,"opening_hours":null,"opening_days":null,"rating":0,"photo_url":null,"description":null,"www":null},{"place_id":"58066553","geometry":{"type":"Point","coordinates":[10.3351564,44.8026153]},"display_name":"Pizza Saffi, 40, Strada Aurelio Saffi, Parma, PR, EMR, 43121, Italia","category":"eating","type":"fast_food","importance":0.001,"icon":"http://nominatim.openstreetmap.org/images/mapicons/food_fastfood.p.20.png","visiting_time":30.0,"opening_hours":null,"opening_days":null,"rating":0,"photo_url":null,"description":null,"www":null},{"place_id":"58063574","geometry":{"type":"Point","coordinates":[10.3276827,44.8033838]},"display_name":"Io Sushi, 11/d, Strada Giuseppe Garibaldi, Parma, PR, EMR, 43121, Italia","category":"eating","type":"fast_food","importance":0.001,"icon":"http://nominatim.openstreetmap.org/images/mapicons/food_fastfood.p.20.png","visiting_time":30.0,"opening_hours":null,"opening_days":null,"rating":0,"photo_url":null,"description":null,"www":null},{"place_id":"57801026","geometry":{"type":"Point","coordinates":[10.3290681,44.807545]},"display_name":"Da Jeser, 4/a, Strada Guido e Pilo Albertelli, Parma, PR, EMR, 43121, Italia","category":"eating","type":"fast_food","importance":0.001,"icon":"http://nominatim.openstreetmap.org/images/mapicons/food_fastfood.p.20.png","visiting_time":30.0,"opening_hours":null,"opening_days":null,"rating":0,"photo_url":null,"description":null,"www":null},{"place_id":"58336066","geometry":{"type":"Point","coordinates":[10.3297949,44.8027437]},"display_name":"Tra l'uss e l'asa - Kitchen Lab, 6/c, Borgo San Biagio, Parma, PR, EMR, 43121, Italia","category":"eating","type":"fast_food","importance":0.001,"icon":"http://nominatim.openstreetmap.org/images/mapicons/food_fastfood.p.20.png","visiting_time":30.0,"opening_hours":null,"opening_days":null,"rating":0,"photo_url":null,"description":null,"www":null},{"place_id":"60127455","geometry":{"type":"Point","coordinates":[10.3294338,44.8079821]},"display_name":"Fior di Pizza, 46/e, Strada Giuseppe Garibaldi, Parma, PR, EMR, 43121, Italia","category":"eating","type":"fast_food","importance":0.001,"icon":"http://nominatim.openstreetmap.org/images/mapicons/food_fastfood.p.20.png","visiting_time":30.0,"opening_hours":null,"opening_days":null,"rating":0,"photo_url":null,"description":null,"www":null},{"place_id":"58083868","geometry":{"type":"Point","coordinates":[10.3277426,44.7996854]},"display_name":"Viva Nacho, 28/b, Strada Luigi Carlo Farini, Parma, PR, EMR, 43121, Italia","category":"eating","type":"fast_food","importance":0.001,"icon":"http://nominatim.openstreetmap.org/images/mapicons/food_fastfood.p.20.png","visiting_time":30.0,"opening_hours":null,"opening_days":null,"rating":0,"photo_url":null,"description":null,"www":null},{"place_id":"58335468","geometry":{"type":"Point","coordinates":[10.329452,44.8040793]},"display_name":"Peccato Salato, 1/b, Borgo del Parmigianino, Parma, PR, EMR, 43121, Italia","category":"eating","type":"fast_food","importance":0.001,"icon":"http://nominatim.openstreetmap.org/images/mapicons/food_fastfood.p.20.png","visiting_time":30.0,"opening_hours":null,"opening_days":null,"rating":0,"photo_url":null,"description":null,"www":null},{"place_id":"58538183","geometry":{"type":"Point","coordinates":[10.3276299,44.8003583]},"display_name":"Degusteria Romani, 2/c, Borgo Palmia, Parma, PR, EMR, 43121, Italia","category":"eating","type":"fast_food","importance":0.001,"icon":"http://nominatim.openstreetmap.org/images/mapicons/food_fastfood.p.20.png","visiting_time":30.0,"opening_hours":null,"opening_days":null,"rating":0,"photo_url":null,"description":null,"www":null},{"place_id":"59022003","geometry":{"type":"Point","coordinates":[10.3287526,44.7997157]},"display_name":"F.I.S.H., 15/a, Via Ferdinando Maestri, Parma, PR, EMR, 43121, Italia","category":"eating","type":"fast_food","importance":0.001,"icon":"http://nominatim.openstreetmap.org/images/mapicons/food_fastfood.p.20.png","visiting_time":30.0,"opening_hours":null,"opening_days":null,"rating":0,"photo_url":null,"description":null,"www":null},{"place_id":"58201221","geometry":{"type":"Point","coordinates":[10.3264822,44.8021866]},"display_name":"Fritto Mania, 4/b, Borgo Carlo Goldoni, Parma, PR, EMR, 43121, Italia","category":"eating","type":"fast_food","importance":0.001,"icon":"http://nominatim.openstreetmap.org/images/mapicons/food_fastfood.p.20.png","visiting_time":30.0,"opening_hours":null,"opening_days":null,"rating":0,"photo_url":null,"description":null,"www":null},{"place_id":"58902665","geometry":{"type":"Point","coordinates":[10.3194277,44.8018434]},"display_name":"Piramide, 39/d, Strada Matteo Renato Imbriani, Parma, PR, EMR, 43125, Italia","category":"eating","type":"fast_food","importance":0.001,"icon":"http://nominatim.openstreetmap.org/images/mapicons/food_fastfood.p.20.png","visiting_time":30.0,"opening_hours":null,"opening_days":null,"rating":0,"photo_url":null,"description":null,"www":null},{"place_id":"58990124","geometry":{"type":"Point","coordinates":[10.3296982,44.7991298]},"display_name":"Frank Focaccia, 19/a, Piazzale San Lorenzo, Parma, PR, EMR, 43121, Italia","category":"eating","type":"fast_food","importance":0.001,"icon":"http://nominatim.openstreetmap.org/images/mapicons/food_fastfood.p.20.png","visiting_time":30.0,"opening_hours":null,"opening_days":null,"rating":0,"photo_url":null,"description":null,"www":null},{"place_id":"19735531","geometry":{"type":"Point","coordinates":[10.3212528,44.8091783]},"display_name":"Pizzeria 4 mori, Viale Piacenza, Parma, PR, EMR, 13, Italia","category":"eating","type":"fast_food","importance":0.001,"icon":"http://nominatim.openstreetmap.org/images/mapicons/food_fastfood.p.20.png","visiting_time":30.0,"opening_hours":null,"opening_days":null,"rating":0,"photo_url":null,"description":null,"www":null},{"place_id":"57710924","geometry":{"type":"Point","coordinates":[10.334887,44.8059272]},"display_name":"Hello food store, 106/a, Viale Mentana, Parma, PR, EMR, 43121, Italia","category":"eating","type":"convenience","importance":0.101,"icon":"http://nominatim.openstreetmap.org/images/mapicons/shopping_convenience.p.20.png","visiting_time":60.0,"opening_hours":null,"opening_days":null,"rating":0,"photo_url":null,"description":null,"www":null},{"place_id":"58978037","geometry":{"type":"Point","coordinates":[10.3175829,44.8036348]},"display_name":"My fast food, 49/b, Strada Massimo D'Azeglio, Parma, PR, EMR, 43125, Italia","category":"eating","type":"fast_food","importance":0.101,"icon":"http://nominatim.openstreetmap.org/images/mapicons/food_fastfood.p.20.png","visiting_time":60.0,"opening_hours":null,"opening_days":null,"rating":0,"photo_url":null,"description":null,"www":null},{"place_id":"60239125","geometry":{"type":"Point","coordinates":[10.3217998,44.8096182]},"display_name":"European Food Safety Authority, Viale Piacenza, Parma, PR, EMR, 13, Italia","category":"eating","type":"research","importance":0.101,"icon":null,"visiting_time":60.0,"opening_hours":null,"opening_days":null,"rating":0,"photo_url":null,"description":null,"www":null},{"place_id":"54328967","geometry":{"type":"Point","coordinates":[10.3075958,44.8054927]},"display_name":"Ristorante Coochi, 16, Viale Antonio Gramsci, Parma, PR, EMR, 43126, Italia","category":"eating","type":"restaurant","importance":0.001,"icon":"http://nominatim.openstreetmap.org/images/mapicons/food_restaurant.p.20.png","visiting_time":60.0,"opening_hours":null,"opening_days":null,"rating":0,"photo_url":null,"description":null,"www":null},{"place_id":"60126973","geometry":{"type":"Point","coordinates":[10.3376163,44.8040623]},"display_name":"Africa Due, 80/a, Viale Mentana, Parma, PR, EMR, 43121, Italia","category":"eating","type":"restaurant","importance":0.001,"icon":"http://nominatim.openstreetmap.org/images/mapicons/food_restaurant.p.20.png","visiting_time":60.0,"opening_hours":null,"opening_days":null,"rating":0,"photo_url":null,"description":null,"www":null},{"place_id":"9609338","geometry":{"type":"Point","coordinates":[10.3450078,44.8614103]},"display_name":"Il norcino, Via Colorno, Parma, PR, EMR, 43121, Italia","category":"eating","type":"restaurant","importance":0.001,"icon":"http://nominatim.openstreetmap.org/images/mapicons/food_restaurant.p.20.png","visiting_time":60.0,"opening_hours":null,"opening_days":null,"rating":0,"photo_url":null,"description":null,"www":null},{"place_id":"8620243","geometry":{"type":"Point","coordinates":[10.3220695,44.7742875]},"display_name":"Via Sandro Botticelli, Parma, PR, EMR, 43121, Italia","category":"eating","type":"restaurant","importance":0.001,"icon":"http://nominatim.openstreetmap.org/images/mapicons/food_restaurant.p.20.png","visiting_time":60.0,"opening_hours":null,"opening_days":null,"rating":0,"photo_url":null,"description":null,"www":null},{"place_id":"3843142","geometry":{"type":"Point","coordinates":[10.3379161,44.7843986]},"display_name":"San Marté, 1, Via Alcide De Gasperi, Parma, PR, EMR, 43121, Italia","category":"eating","type":"restaurant","importance":0.001,"icon":"http://nominatim.openstreetmap.org/images/mapicons/food_restaurant.p.20.png","visiting_time":60.0,"opening_hours":null,"opening_days":null,"rating":0,"photo_url":null,"description":null,"www":null},{"place_id":"57911060","geometry":{"type":"Point","coordinates":[10.3138695,44.8095819]},"display_name":"Ristorante Casa Romaneasca, 18, Via Primo Savani, Parma, PR, EMR, 13, Italia","category":"eating","type":"restaurant","importance":0.001,"icon":"http://nominatim.openstreetmap.org/images/mapicons/food_restaurant.p.20.png","visiting_time":60.0,"opening_hours":null,"opening_days":null,"rating":0,"photo_url":null,"description":null,"www":null},{"place_id":"4517823","geometry":{"type":"Point","coordinates":[10.3416234,44.7990336]},"display_name":"Sushi Wok, 3, Largo Fausto Bocchi, Parma, PR, EMR, 43121, Italia","category":"eating","type":"restaurant","importance":0.001,"icon":"http://nominatim.openstreetmap.org/images/mapicons/food_restaurant.p.20.png","visiting_time":60.0,"opening_hours":null,"opening_days":null,"rating":0,"photo_url":null,"description":null,"www":null},{"place_id":"50508934","geometry":{"type":"Point","coordinates":[10.3393611,44.832382]},"display_name":"Trattoria - Sapori di Parma, Via San Leonardo, Parma, PR, EMR, 43121, Italia","category":"eating","type":"restaurant","importance":0.001,"icon":"http://nominatim.openstreetmap.org/images/mapicons/food_restaurant.p.20.png","visiting_time":60.0,"opening_hours":null,"opening_days":null,"rating":0,"photo_url":null,"description":null,"www":null},{"place_id":"53207254","geometry":{"type":"Point","coordinates":[10.3333751,44.8081676]},"display_name":"Mishi Mishi, 30, Viale Antonio Fratti, Parma, PR, EMR, 43121, Italia","category":"eating","type":"restaurant","importance":0.001,"icon":"http://nominatim.openstreetmap.org/images/mapicons/food_restaurant.p.20.png","visiting_time":60.0,"opening_hours":null,"opening_days":null,"rating":0,"photo_url":null,"description":null,"www":null},{"place_id":"61946107","geometry":{"type":"Point","coordinates":[10.3385532,44.8370345]},"display_name":"Roadhouse, Strada Traversante Lupo, Parma, PR, EMR, 43121, Italia","category":"eating","type":"restaurant","importance":0.001,"icon":"http://nominatim.openstreetmap.org/images/mapicons/food_restaurant.p.20.png","visiting_time":60.0,"opening_hours":null,"opening_days":null,"rating":0,"photo_url":null,"description":null,"www":null},{"place_id":"3704816","geometry":{"type":"Point","coordinates":[10.341293,44.789562]},"display_name":"Tirolesina, Via Zarotto, Parma, PR, EMR, 43121, Italia","category":"eating","type":"restaurant","importance":0.001,"icon":"http://nominatim.openstreetmap.org/images/mapicons/food_restaurant.p.20.png","visiting_time":60.0,"opening_hours":null,"opening_days":null,"rating":0,"photo_url":null,"description":null,"www":null},{"place_id":"16927977","geometry":{"type":"Point","coordinates":[10.311736,44.780073]},"display_name":"Pizzeria La Vela, Strada Montanara, Parma, PR, EMR, 43121, Italia","category":"eating","type":"restaurant","importance":0.001,"icon":"http://nominatim.openstreetmap.org/images/mapicons/food_restaurant.p.20.png","visiting_time":60.0,"opening_hours":null,"opening_days":null,"rating":0,"photo_url":null,"description":null,"www":null},{"place_id":"4313242","geometry":{"type":"Point","coordinates":[10.3412199,44.7992182]},"display_name":"Real McCoy, Largo Fausto Bocchi, Parma, PR, EMR, 43121, Italia","category":"eating","type":"restaurant","importance":0.001,"icon":"http://nominatim.openstreetmap.org/images/mapicons/food_restaurant.p.20.png","visiting_time":60.0,"opening_hours":null,"opening_days":null,"rating":0,"photo_url":null,"description":null,"www":null},{"place_id":"17406944","geometry":{"type":"Point","coordinates":[10.3979699,44.7788247]},"display_name":"Ristorante Pizzeria Tremonti 2, Via Emilio Lepido, Parma, PR, EMR, 43123, Italia","category":"eating","type":"restaurant","importance":0.001,"icon":"http://nominatim.openstreetmap.org/images/mapicons/food_restaurant.p.20.png","visiting_time":60.0,"opening_hours":null,"opening_days":null,"rating":0,"photo_url":null,"description":null,"www":null},{"place_id":"4555749","geometry":{"type":"Point","coordinates":[10.3146886,44.7938582]},"display_name":"Shibuya, 35, Viale Milazzo, Parma, PR, EMR, 43121, Italia","category":"eating","type":"restaurant","importance":0.001,"icon":"http://nominatim.openstreetmap.org/images/mapicons/food_restaurant.p.20.png","visiting_time":60.0,"opening_hours":null,"opening_days":null,"rating":0,"photo_url":null,"description":null,"www":null},{"place_id":"4012397","geometry":{"type":"Point","coordinates":[10.352033,44.79152]},"display_name":"La certosa, Via Lorenzo Molossi, Parma, PR, EMR, 43121, Italia","category":"eating","type":"restaurant","importance":0.001,"icon":"http://nominatim.openstreetmap.org/images/mapicons/food_restaurant.p.20.png","visiting_time":60.0,"opening_hours":null,"opening_days":null,"rating":0,"photo_url":null,"description":null,"www":null},{"place_id":"17600356","geometry":{"type":"Point","coordinates":[10.397418,44.778948]},"display_name":"Pizzeria Da Peppino, Via Emilio Lepido, Parma, PR, EMR, 43123, Italia","category":"eating","type":"restaurant","importance":0.001,"icon":"http://nominatim.openstreetmap.org/images/mapicons/food_restaurant.p.20.png","visiting_time":60.0,"opening_hours":null,"opening_days":null,"rating":0,"photo_url":null,"description":null,"www":null},{"place_id":"4022618","geometry":{"type":"Point","coordinates":[10.378663,44.7692905]},"display_name":"Il piccolo Principe, Strada Budellungo, Parma, PR, EMR, 43121, Italia","category":"eating","type":"restaurant","importance":0.001,"icon":"http://nominatim.openstreetmap.org/images/mapicons/food_restaurant.p.20.png","visiting_time":60.0,"opening_hours":null,"opening_days":null,"rating":0,"photo_url":null,"description":null,"www":null},{"place_id":"16944833","geometry":{"type":"Point","coordinates":[10.3244771,44.7709023]},"display_name":"Parmarotta, Strada Langhirano, Parma, PR, EMR, 43121, Italia","category":"eating","type":"restaurant","importance":0.001,"icon":"http://nominatim.openstreetmap.org/images/mapicons/food_restaurant.p.20.png","visiting_time":60.0,"opening_hours":null,"opening_days":null,"rating":0,"photo_url":null,"description":null,"www":null},{"place_id":"50028347","geometry":{"type":"Point","coordinates":[10.3363195,44.8245826]},"display_name":"Trattoria - Imelde, Via San Leonardo, Parma, PR, EMR, 43121, Italia","category":"eating","type":"restaurant","importance":0.001,"icon":"http://nominatim.openstreetmap.org/images/mapicons/food_restaurant.p.20.png","visiting_time":60.0,"opening_hours":null,"opening_days":null,"rating":0,"photo_url":null,"description":null,"www":null},{"place_id":"17239060","geometry":{"type":"Point","coordinates":[10.3217371,44.7908915]},"display_name":"Piazza Lago Ballano, Parma, PR, EMR, 43121, Italia","category":"eating","type":"restaurant","importance":0.001,"icon":"http://nominatim.openstreetmap.org/images/mapicons/food_restaurant.p.20.png","visiting_time":60.0,"opening_hours":null,"opening_days":null,"rating":0,"photo_url":null,"description":null,"www":null},{"place_id":"7066620","geometry":{"type":"Point","coordinates":[10.3800608,44.7687656]},"display_name":"Trattoria i Due Platani, Strada Budellungo, Parma, PR, EMR, 43121, Italia","category":"eating","type":"restaurant","importance":0.001,"icon":"http://nominatim.openstreetmap.org/images/mapicons/food_restaurant.p.20.png","visiting_time":60.0,"opening_hours":null,"opening_days":null,"rating":0,"photo_url":null,"description":null,"www":null},{"place_id":"57800346","geometry":{"type":"Point","coordinates":[10.3282909,44.7983604]},"display_name":"Sa marjoga, 27/a, Borgo Garimberti, Parma, PR, EMR, 43121, Italia","category":"eating","type":"restaurant","importance":0.001,"icon":"http://nominatim.openstreetmap.org/images/mapicons/food_restaurant.p.20.png","visiting_time":60.0,"opening_hours":null,"opening_days":null,"rating":0,"photo_url":null,"description":null,"www":null},{"place_id":"16719442","geometry":{"type":"Point","coordinates":[10.2984905,44.7853805]},"display_name":"Strada Cavagnari, Parma, PR, EMR, 43121, Italia","category":"eating","type":"restaurant","importance":0.001,"icon":"http://nominatim.openstreetmap.org/images/mapicons/food_restaurant.p.20.png","visiting_time":60.0,"opening_hours":null,"opening_days":null,"rating":0,"photo_url":null,"description":null,"www":null},{"place_id":"20639278","geometry":{"type":"Point","coordinates":[10.3330676,44.8198034]},"display_name":"La tirolese, Via Ferdinando Guerci, Parma, PR, EMR, 13, Italia","category":"eating","type":"restaurant","importance":0.001,"icon":"http://nominatim.openstreetmap.org/images/mapicons/food_restaurant.p.20.png","visiting_time":60.0,"opening_hours":null,"opening_days":null,"rating":0,"photo_url":null,"description":null,"www":null},{"place_id":"59485025","geometry":{"type":"Point","coordinates":[10.3796688,44.8272324]},"display_name":"Autogril, Autostrada del Sole, Parma, PR, EMR, 43121, Italia","category":"eating","type":"restaurant","importance":0.001,"icon":"http://nominatim.openstreetmap.org/images/mapicons/food_restaurant.p.20.png","visiting_time":60.0,"opening_hours":null,"opening_days":null,"rating":0,"photo_url":null,"description":null,"www":null},{"place_id":"58159098","geometry":{"type":"Point","coordinates":[10.322,44.8046221]},"display_name":"Corale G. Verdi, 9/c, Vicolo Asdente, Parma, PR, EMR, 43125, Italia","category":"eating","type":"restaurant","importance":0.001,"icon":"http://nominatim.openstreetmap.org/images/mapicons/food_restaurant.p.20.png","visiting_time":60.0,"opening_hours":null,"opening_days":null,"rating":0,"photo_url":null,"description":null,"www":null},{"place_id":"4728851","geometry":{"type":"Point","coordinates":[10.3414023,44.7986995]},"display_name":"T-Bone Steakhouse, 1, Galleria Pietro Micheli, Parma, PR, EMR, 43121, Italia","category":"eating","type":"restaurant","importance":0.001,"icon":"http://nominatim.openstreetmap.org/images/mapicons/food_restaurant.p.20.png","visiting_time":60.0,"opening_hours":null,"opening_days":null,"rating":0,"photo_url":null,"description":null,"www":null},{"place_id":"3807198","geometry":{"type":"Point","coordinates":[10.327301,44.8669615]},"display_name":"Trattoria Le Viole, Strada Chiesa di Castelnuovo, Parma, PR, EMR, 43100, Italia","category":"eating","type":"restaurant","importance":0.001,"icon":"http://nominatim.openstreetmap.org/images/mapicons/food_restaurant.p.20.png","visiting_time":60.0,"opening_hours":null,"opening_days":null,"rating":0,"photo_url":null,"description":null,"www":null},{"place_id":"23154535","geometry":{"type":"Point","coordinates":[10.3457894,44.7831923]},"display_name":"Ristorante Pizzeria Zeffiro, Via Sandro Pertini, Parma, PR, EMR, 43121, Italia","category":"eating","type":"restaurant","importance":0.001,"icon":"http://nominatim.openstreetmap.org/images/mapicons/food_restaurant.p.20.png","visiting_time":60.0,"opening_hours":null,"opening_days":null,"rating":0,"photo_url":null,"description":null,"www":null},{"place_id":"17436316","geometry":{"type":"Point","coordinates":[10.3173983,44.7782418]},"display_name":"Via Monsignor Antonio Schiavi, Parma, PR, EMR, 43121, Italia","category":"eating","type":"restaurant","importance":0.001,"icon":"http://nominatim.openstreetmap.org/images/mapicons/food_restaurant.p.20.png","visiting_time":60.0,"opening_hours":null,"opening_days":null,"rating":0,"photo_url":null,"description":null,"www":null},{"place_id":"3892914","geometry":{"type":"Point","coordinates":[10.3410764,44.79869]},"display_name":"Rossopomodoro, 36/A, Largo Fausto Bocchi, Parma, PR, EMR, 43121, Italia","category":"eating","type":"restaurant","importance":0.001,"icon":"http://nominatim.openstreetmap.org/images/mapicons/food_restaurant.p.20.png","visiting_time":60.0,"opening_hours":null,"opening_days":null,"rating":0,"photo_url":null,"description":null,"www":null},{"place_id":"19530352","geometry":{"type":"Point","coordinates":[10.3780226,44.8263053]},"display_name":"Chef Express, Autostrada del Sole, Parma, PR, EMR, 43121, Italia","category":"eating","type":"restaurant","importance":0.001,"icon":"http://nominatim.openstreetmap.org/images/mapicons/food_restaurant.p.20.png","visiting_time":60.0,"opening_hours":null,"opening_days":null,"rating":0,"photo_url":null,"description":null,"www":null},{"place_id":"20625609","geometry":{"type":"Point","coordinates":[10.3373556,44.819437]},"display_name":"Via Sergio Silva, Parma, PR, EMR, 43121, Italia","category":"eating","type":"restaurant","importance":0.001,"icon":"http://nominatim.openstreetmap.org/images/mapicons/food_restaurant.p.20.png","visiting_time":60.0,"opening_hours":null,"opening_days":null,"rating":0,"photo_url":null,"description":null,"www":null},{"place_id":"20052726","geometry":{"type":"Point","coordinates":[10.3302555,44.8092751]},"display_name":"Ristorante Porta San Barnaba, Via Trento, Parma, PR, EMR, 13, Italia","category":"eating","type":"restaurant","importance":0.001,"icon":"http://nominatim.openstreetmap.org/images/mapicons/food_restaurant.p.20.png","visiting_time":60.0,"opening_hours":null,"opening_days":null,"rating":0,"photo_url":null,"description":null,"www":null},{"place_id":"20499427","geometry":{"type":"Point","coordinates":[10.3372135,44.8228967]},"display_name":"L'araldo, Tangenziale Nord, Parma, PR, EMR, 43121, Italia","category":"eating","type":"restaurant","importance":0.001,"icon":"http://nominatim.openstreetmap.org/images/mapicons/food_restaurant.p.20.png","visiting_time":60.0,"opening_hours":null,"opening_days":null,"rating":0,"photo_url":null,"description":null,"www":null},{"place_id":"4807388","geometry":{"type":"Point","coordinates":[10.3059098,44.8531051]},"display_name":"Pizzaria Il Capricio, Via Nabucco, Parma, PR, EMR, 43100, Italia","category":"eating","type":"restaurant","importance":0.001,"icon":"http://nominatim.openstreetmap.org/images/mapicons/food_restaurant.p.20.png","visiting_time":60.0,"opening_hours":null,"opening_days":null,"rating":0,"photo_url":null,"description":null,"www":null},{"place_id":"20252235","geometry":{"type":"Point","coordinates":[10.3312883,44.817109]},"display_name":"Via San Leonardo, Parma, PR, EMR, 43121, Italia","category":"eating","type":"restaurant","importance":0.001,"icon":"http://nominatim.openstreetmap.org/images/mapicons/food_restaurant.p.20.png","visiting_time":60.0,"opening_hours":null,"opening_days":null,"rating":0,"photo_url":null,"description":null,"www":null},{"place_id":"3965059","geometry":{"type":"Point","coordinates":[10.359168,44.791092]},"display_name":"Il Tramezzo, Via Alberto Del Bono, Parma, PR, EMR, 43121, Italia","category":"eating","type":"restaurant","importance":0.001,"icon":"http://nominatim.openstreetmap.org/images/mapicons/food_restaurant.p.20.png","visiting_time":60.0,"opening_hours":null,"opening_days":null,"rating":0,"photo_url":null,"description":null,"www":null},{"place_id":"3705149","geometry":{"type":"Point","coordinates":[10.3555915,44.7983587]},"display_name":"Pizzeria Parigi, Via Parigi, Parma, PR, EMR, 43121, Italia","category":"eating","type":"restaurant","importance":0.001,"icon":"http://nominatim.openstreetmap.org/images/mapicons/food_restaurant.p.20.png","visiting_time":60.0,"opening_hours":null,"opening_days":null,"rating":0,"photo_url":null,"description":null,"www":null},{"place_id":"4023073","geometry":{"type":"Point","coordinates":[10.2998454,44.7747435]},"display_name":"I Tri Siochètt, Strada Farnese-Vigheffio, Parma, PR, EMR, 43121, Italia","category":"eating","type":"restaurant","importance":0.001,"icon":"http://nominatim.openstreetmap.org/images/mapicons/food_restaurant.p.20.png","visiting_time":60.0,"opening_hours":null,"opening_days":null,"rating":0,"photo_url":null,"description":null,"www":null},{"place_id":"46007851","geometry":{"type":"Point","coordinates":[10.3324893,44.8086954]},"display_name":"Da Luca, 24/bis, Viale Antonio Fratti, Parma, PR, EMR, 43121, Italia","category":"eating","type":"restaurant","importance":0.001,"icon":"http://nominatim.openstreetmap.org/images/mapicons/food_restaurant.p.20.png","visiting_time":60.0,"opening_hours":null,"opening_days":null,"rating":0,"photo_url":null,"description":null,"www":null},{"place_id":"40589505","geometry":{"type":"Point","coordinates":[10.3133107,44.7940229]},"display_name":"Pizza Fantasy, 57, Via La Spezia, Parma, PR, EMR, 43121, Italia","category":"eating","type":"restaurant","importance":0.001,"icon":"http://nominatim.openstreetmap.org/images/mapicons/food_restaurant.p.20.png","visiting_time":60.0,"opening_hours":null,"opening_days":null,"rating":0,"photo_url":null,"description":null,"www":null},{"place_id":"4016300","geometry":{"type":"Point","coordinates":[10.3471235,44.7963246]},"display_name":"Le Coccole, Via Emilia Est, Parma, PR, EMR, 43121, Italia","category":"eating","type":"restaurant","importance":0.001,"icon":"http://nominatim.openstreetmap.org/images/mapicons/food_restaurant.p.20.png","visiting_time":60.0,"opening_hours":null,"opening_days":null,"rating":0,"photo_url":null,"description":null,"www":null},{"place_id":"31544601","geometry":{"type":"Point","coordinates":[10.2151417,44.8242217]},"display_name":"I Monelli, 11, Via Emilia, Noceto, PR, EMR, 43015, Italia","category":"eating","type":"restaurant","importance":0.001,"icon":"http://nominatim.openstreetmap.org/images/mapicons/food_restaurant.p.20.png","visiting_time":60.0,"opening_hours":null,"opening_days":null,"rating":0,"photo_url":null,"description":null,"www":null},{"place_id":"18658710","geometry":{"type":"Point","coordinates":[10.2191278,44.7529069]},"display_name":"Via Spezia, Collecchio, PR, EMR, 43044, Italia","category":"eating","type":"restaurant","importance":0.001,"icon":"http://nominatim.openstreetmap.org/images/mapicons/food_restaurant.p.20.png","visiting_time":60.0,"opening_hours":null,"opening_days":null,"rating":0,"photo_url":null,"description":null,"www":null},{"place_id":"19305863","geometry":{"type":"Point","coordinates":[10.2263133,44.7538724]},"display_name":"Il Melograno, Via Giuseppe Saragat, Collecchio, PR, EMR, 43044, Italia","category":"eating","type":"restaurant","importance":0.001,"icon":"http://nominatim.openstreetmap.org/images/mapicons/food_restaurant.p.20.png","visiting_time":60.0,"opening_hours":null,"opening_days":null,"rating":0,"photo_url":null,"description":null,"www":null},{"place_id":"38334694","geometry":{"type":"Point","coordinates":[10.2871899,44.6796766]},"display_name":"trattoria enoteca Officina delle Fate, Strada Provinciale Massese, Langhirano, PR, EMR, 43037, Italia","category":"eating","type":"restaurant","importance":0.001,"icon":"http://nominatim.openstreetmap.org/images/mapicons/food_restaurant.p.20.png","visiting_time":60.0,"opening_hours":null,"opening_days":null,"rating":0,"photo_url":null,"description":null,"www":null},{"place_id":"27928327","geometry":{"type":"Point","coordinates":[10.4119246,44.6803016]},"display_name":"Osteria Pecora Nera, 50, Via Solari, Santa Fenicola, Montechiarugolo, PR, EMR, 43022, Italia","category":"eating","type":"restaurant","importance":0.001,"icon":"http://nominatim.openstreetmap.org/images/mapicons/food_restaurant.p.20.png","visiting_time":60.0,"opening_hours":null,"opening_days":null,"rating":0,"photo_url":null,"description":null,"www":null},{"place_id":"17211250","geometry":{"type":"Point","coordinates":[10.3746221,44.6876718]},"display_name":"Piazzeria Quisimangia, Via Traversetolo, Montechiarugolo, PR, EMR, 43022, Italia","category":"eating","type":"restaurant","importance":0.001,"icon":"http://nominatim.openstreetmap.org/images/mapicons/food_restaurant.p.20.png","visiting_time":60.0,"opening_hours":null,"opening_days":null,"rating":0,"photo_url":null,"description":null,"www":null},{"place_id":"178604563","geometry":{"type":"Point","coordinates":[10.423829414,44.69291975]},"display_name":"Castello di Montechiarugolo, Via Margherita, Santa Fenicola, Montechiarugolo, PR, EMR, 43022, Italia","category":"attractions","type":"castle","importance":0.44622755,"icon":"http://nominatim.openstreetmap.org/images/mapicons/tourist_castle.p.20.png","visiting_time":120.0,"opening_hours":null,"opening_days":null,"rating":0,"photo_url":null,"description":null,"www":null},{"place_id":"178646768","geometry":{"type":"Point","coordinates":[10.237138507,44.68407375]},"display_name":"Castello di Felino, Via Nello Venturini, Felino, PR, EMR, Italia","category":"attractions","type":"castle","importance":0.13958298,"icon":"http://nominatim.openstreetmap.org/images/mapicons/tourist_castle.p.20.png","visiting_time":120.0,"opening_hours":null,"opening_days":null,"rating":0,"photo_url":null,"description":null,"www":null},{"place_id":"83516285","geometry":{"type":"Point","coordinates":[10.306092916,44.85488785]},"display_name":"Strada Chiesa di Baganzola, Parma, PR, EMR, 43100, Italia","category":"attractions","type":"castle","importance":0.001,"icon":"http://nominatim.openstreetmap.org/images/mapicons/tourist_castle.p.20.png","visiting_time":120.0,"opening_hours":null,"opening_days":null,"rating":0,"photo_url":null,"description":null,"www":null},{"place_id":"163237435","geometry":{"type":"Point","coordinates":[10.317347152,44.80666865]},"display_name":"Tempietto d'Arcadia, Viale Centrale, Parma, PR, EMR, 13, Italia","category":"attractions","type":"ruins","importance":0.001,"icon":"http://nominatim.openstreetmap.org/images/mapicons/tourist_ruin.p.20.png","visiting_time":30.0,"opening_hours":null,"opening_days":null,"rating":0,"photo_url":null,"description":null,"www":null},{"place_id":"25048463","geometry":{"type":"Point","coordinates":[10.2375707,44.7054549]},"display_name":"Villa rustica romana, Via Aldo Moro, Felino, PR, EMR, Italia","category":"attractions","type":"ruins","importance":0.001,"icon":"http://nominatim.openstreetmap.org/images/mapicons/tourist_ruin.p.20.png","visiting_time":30.0,"opening_hours":null,"opening_days":null,"rating":0,"photo_url":null,"description":null,"www":null},{"place_id":"56751579","geometry":{"type":"Point","coordinates":[10.3343608,44.8075204]},"display_name":"Bar, Viale Antonio Fratti, Parma, PR, EMR, 43121, Italia","category":"lifestyle","type":"cafe","importance":0.101,"icon":"http://nominatim.openstreetmap.org/images/mapicons/food_cafe.p.20.png","visiting_time":10.0,"opening_hours":null,"opening_days":null,"rating":0,"photo_url":null,"description":null,"www":null},{"place_id":"58158832","geometry":{"type":"Point","coordinates":[10.3322742,44.8025312]},"display_name":"Dubh Linn Irish Pub, 1/b, Borgo del Correggio, Parma, PR, EMR, 43121, Italia","category":"lifestyle","type":"pub","importance":0.101,"icon":"http://nominatim.openstreetmap.org/images/mapicons/food_pub.p.20.png","visiting_time":90.0,"opening_hours":null,"opening_days":null,"rating":0,"photo_url":null,"description":null,"www":null},{"place_id":"60601683","geometry":{"type":"Point","coordinates":[10.3168822,44.803785]},"display_name":"Tapas pub, 67/a, Strada Massimo D'Azeglio, Parma, PR, EMR, 43125, Italia","category":"lifestyle","type":"pub","importance":0.101,"icon":"http://nominatim.openstreetmap.org/images/mapicons/food_pub.p.20.png","visiting_time":90.0,"opening_hours":null,"opening_days":null,"rating":0,"photo_url":null,"description":null,"www":null},{"place_id":"57963698","geometry":{"type":"Point","coordinates":[10.3323916,44.8025627]},"display_name":"Dublin Irish Pub, 8/a, Borgo del Correggio, Parma, PR, EMR, 43121, Italia","category":"lifestyle","type":"pub","importance":0.101,"icon":"http://nominatim.openstreetmap.org/images/mapicons/food_pub.p.20.png","visiting_time":90.0,"opening_hours":null,"opening_days":null,"rating":0,"photo_url":null,"description":null,"www":null},{"place_id":"4413899","geometry":{"type":"Point","coordinates":[10.3673406,44.7409175]},"display_name":"Bandit Bikers' Pub, 6/A, Via dei Vetrai, Parma, PR, EMR, 43123, Italia","category":"lifestyle","type":"pub","importance":0.101,"icon":"http://nominatim.openstreetmap.org/images/mapicons/food_pub.p.20.png","visiting_time":90.0,"opening_hours":null,"opening_days":null,"rating":0,"photo_url":null,"description":null,"www":null},{"place_id":"18456818","geometry":{"type":"Point","coordinates":[10.2187362,44.7527583]},"display_name":"Gulliver pub, Via Spezia, Collecchio, PR, EMR, 43044, Italia","category":"lifestyle","type":"pub","importance":0.101,"icon":"http://nominatim.openstreetmap.org/images/mapicons/food_pub.p.20.png","visiting_time":90.0,"opening_hours":null,"opening_days":null,"rating":0,"photo_url":null,"description":null,"www":null},{"place_id":"180169053","geometry":{"type":"Point","coordinates":[-8.3350726,43.2233149]},"display_name":"Abegondo, Galicia, CAFE, España","category":"lifestyle","type":"postcode","importance":0.2125,"icon":null,"visiting_time":10.0,"opening_hours":null,"opening_days":null,"rating":0,"photo_url":null,"description":null,"www":null},{"place_id":"20244030","geometry":{"type":"Point","coordinates":[10.3218657,44.7988329]},"display_name":"Alberto Rondani, Piazzale Alberto Rondani, Parma, PR, EMR, 43121, Italia","category":"attractions","type":"memorial","importance":0.001,"icon":"http://nominatim.openstreetmap.org/images/mapicons/tourist_monument.p.20.png","visiting_time":10.0,"opening_hours":null,"opening_days":null,"rating":0,"photo_url":null,"description":null,"www":null},{"place_id":"878188","geometry":{"type":"Point","coordinates":[10.3280059,44.8017017]},"display_name":"Monumento a Garibaldi, Piazza Giuseppe Garibaldi, Parma, PR, EMR, 43121, Italia","category":"attractions","type":"memorial","importance":0.001,"icon":"http://nominatim.openstreetmap.org/images/mapicons/tourist_monument.p.20.png","visiting_time":10.0,"opening_hours":null,"opening_days":null,"rating":0,"photo_url":null,"description":null,"www":null},{"place_id":"874752","geometry":{"type":"Point","coordinates":[10.3274676,44.8022004]},"display_name":"Monumento al Parmigianino, Piazza della Steccata, Parma, PR, EMR, 43121, Italia","category":"attractions","type":"memorial","importance":0.001,"icon":"http://nominatim.openstreetmap.org/images/mapicons/tourist_monument.p.20.png","visiting_time":10.0,"opening_hours":null,"opening_days":null,"rating":0,"photo_url":null,"description":null,"www":null},{"place_id":"179696086","geometry":{"type":"Point","coordinates":[10.325970875,44.80518275]},"display_name":"Palazzo della Pilotta, Strada alla Pilotta, Parma, PR, EMR, 13, Italia","category":"attractions","type":"monument","importance":0.23470384,"icon":"http://nominatim.openstreetmap.org/images/mapicons/tourist_monument.p.20.png","visiting_time":10.0,"opening_hours":null,"opening_days":null,"rating":0,"photo_url":null,"description":null,"www":null},{"place_id":"3771825","geometry":{"type":"Point","coordinates":[10.3275067,44.8038862]},"display_name":"Monumento al Partigiano, Piazza della Pace, Parma, PR, EMR, 43121, Italia","category":"attractions","type":"monument","importance":0.20803387,"icon":"http://nominatim.openstreetmap.org/images/mapicons/tourist_monument.p.20.png","visiting_time":10.0,"opening_hours":null,"opening_days":null,"rating":0,"photo_url":null,"description":null,"www":null},{"place_id":"3613930","geometry":{"type":"Point","coordinates":[10.3226478,44.8023809]},"display_name":"Monumento a Filippo Corridoni, Piazza Filippo Corridoni, Parma, PR, EMR, 43121, Italia","category":"attractions","type":"monument","importance":0.101,"icon":"http://nominatim.openstreetmap.org/images/mapicons/tourist_monument.p.20.png","visiting_time":10.0,"opening_hours":null,"opening_days":null,"rating":0,"photo_url":null,"description":null,"www":null},{"place_id":"18836404","geometry":{"type":"Point","coordinates":[10.3272634,44.8050519]},"display_name":"Monumento a Giuseppe Verdi, Piazza della Pilotta, Parma, PR, EMR, 13, Italia","category":"attractions","type":"monument","importance":0.101,"icon":"http://nominatim.openstreetmap.org/images/mapicons/tourist_monument.p.20.png","visiting_time":10.0,"opening_hours":null,"opening_days":null,"rating":0,"photo_url":null,"description":null,"www":null},{"place_id":"18813668","geometry":{"type":"Point","coordinates":[10.3291473,44.8040218]},"display_name":"Monumento ai Caduti di tutte le guerre, Borgo del Parmigianino, Parma, PR, EMR, 43121, Italia","category":"attractions","type":"monument","importance":0.101,"icon":"http://nominatim.openstreetmap.org/images/mapicons/tourist_monument.p.20.png","visiting_time":10.0,"opening_hours":null,"opening_days":null,"rating":0,"photo_url":null,"description":null,"www":null},{"place_id":"874752","geometry":{"type":"Point","coordinates":[10.3274676,44.8022004]},"display_name":"Monumento al Parmigianino, Piazza della Steccata, Parma, PR, EMR, 43121, Italia","category":"attractions","type":"memorial","importance":0.101,"icon":"http://nominatim.openstreetmap.org/images/mapicons/tourist_monument.p.20.png","visiting_time":10.0,"opening_hours":null,"opening_days":null,"rating":0,"photo_url":null,"description":null,"www":null},{"place_id":"878188","geometry":{"type":"Point","coordinates":[10.3280059,44.8017017]},"display_name":"Monumento a Garibaldi, Piazza Giuseppe Garibaldi, Parma, PR, EMR, 43121, Italia","category":"attractions","type":"memorial","importance":0.101,"icon":"http://nominatim.openstreetmap.org/images/mapicons/tourist_monument.p.20.png","visiting_time":10.0,"opening_hours":null,"opening_days":null,"rating":0,"photo_url":null,"description":null,"www":null},{"place_id":"63420155","geometry":{"type":"Point","coordinates":[10.3274648,44.8022391]},"display_name":"Statua del Parmigianino, Piazza della Steccata, Parma, PR, EMR, 43121, Italia","category":"attractions","type":"monument","importance":0.001,"icon":"http://nominatim.openstreetmap.org/images/mapicons/tourist_monument.p.20.png","visiting_time":10.0,"opening_hours":null,"opening_days":null,"rating":0,"photo_url":null,"description":null,"www":null},{"place_id":"6717985","geometry":{"type":"Point","coordinates":[10.3348571,44.7829046]},"display_name":"Casa degli Alpini, Via Rudolf Jacobs, Parma, PR, EMR, 43121, Italia","category":"attractions","type":"monument","importance":0.001,"icon":"http://nominatim.openstreetmap.org/images/mapicons/tourist_monument.p.20.png","visiting_time":10.0,"opening_hours":null,"opening_days":null,"rating":0,"photo_url":null,"description":null,"www":null},{"place_id":"2667811","geometry":{"type":"Point","coordinates":[10.3478775,44.7959434]},"display_name":"Arco di San Lazzaro, Via Emilia Est, Parma, PR, EMR, 43121, Italia","category":"attractions","type":"monument","importance":0.001,"icon":"http://nominatim.openstreetmap.org/images/mapicons/tourist_monument.p.20.png","visiting_time":10.0,"opening_hours":null,"opening_days":null,"rating":0,"photo_url":null,"description":null,"www":null},{"place_id":"54808267","geometry":{"type":"Point","coordinates":[10.3168645,44.7996729]},"display_name":"Piazza Giacomo Matteotti, Parma, PR, EMR, 43121, Italia","category":"attractions","type":"monument","importance":0.001,"icon":"http://nominatim.openstreetmap.org/images/mapicons/tourist_monument.p.20.png","visiting_time":10.0,"opening_hours":null,"opening_days":null,"rating":0,"photo_url":null,"description":null,"www":null},{"place_id":"62018115","geometry":{"type":"Point","coordinates":[10.3280208,44.8016771]},"display_name":"Statua di Giuseppe Garibaldi, Piazza Giuseppe Garibaldi, Parma, PR, EMR, 43121, Italia","category":"attractions","type":"monument","importance":0.001,"icon":"http://nominatim.openstreetmap.org/images/mapicons/tourist_monument.p.20.png","visiting_time":10.0,"opening_hours":null,"opening_days":null,"rating":0,"photo_url":null,"description":null,"www":null},{"place_id":"63211760","geometry":{"type":"Point","coordinates":[10.3287648,44.8011607]},"display_name":"Statua  I dù Brasè, Strada della Repubblica, Parma, PR, EMR, 43121, Italia","category":"attractions","type":"monument","importance":0.001,"icon":"http://nominatim.openstreetmap.org/images/mapicons/tourist_monument.p.20.png","visiting_time":10.0,"opening_hours":null,"opening_days":null,"rating":0,"photo_url":null,"description":null,"www":null},{"place_id":"20244030","geometry":{"type":"Point","coordinates":[10.3218657,44.7988329]},"display_name":"Alberto Rondani, Piazzale Alberto Rondani, Parma, PR, EMR, 43121, Italia","category":"attractions","type":"memorial","importance":0.001,"icon":"http://nominatim.openstreetmap.org/images/mapicons/tourist_monument.p.20.png","visiting_time":10.0,"opening_hours":null,"opening_days":null,"rating":0,"photo_url":null,"description":null,"www":null},{"place_id":"57191668","geometry":{"type":"Point","coordinates":[10.3364696,44.7989461]},"display_name":"Dans le garage, 9/b, Strada Nuova, Parma, PR, EMR, 43121, Italia","category":"attractions","type":"arts_centre","importance":0.001,"icon":"http://nominatim.openstreetmap.org/images/mapicons/tourist_art_gallery2.p.20.png","visiting_time":120.0,"opening_hours":null,"opening_days":null,"rating":0,"photo_url":null,"description":null,"www":null},{"place_id":"17183120","geometry":{"type":"Point","coordinates":[10.3166251,44.7798659]},"display_name":"Centro Giovani Montanara, Via Monsignor Nestore Pelicelli, Parma, PR, EMR, 43121, Italia","category":"attractions","type":"arts_centre","importance":0.001,"icon":"http://nominatim.openstreetmap.org/images/mapicons/tourist_art_gallery2.p.20.png","visiting_time":120.0,"opening_hours":null,"opening_days":null,"rating":0,"photo_url":null,"description":null,"www":null},{"place_id":"110617573","geometry":{"type":"Point","coordinates":[10.2569897,44.8970724]},"display_name":"Circolo Ricreativo Ronco Campo Canneto, Via cremonese, Sissa Trecasali, PR, EMR, 43018, Italia","category":"attractions","type":"arts_centre","importance":0.001,"icon":"http://nominatim.openstreetmap.org/images/mapicons/tourist_art_gallery2.p.20.png","visiting_time":120.0,"opening_hours":null,"opening_days":null,"rating":0,"photo_url":null,"description":null,"www":null},{"place_id":"11474150","geometry":{"type":"Point","coordinates":[10.3496204,44.6671491]},"display_name":"Fondazione Magnani Rocca, Via Pedemontana Est, Traversetolo, PR, EMR, 43029, Italia","category":"attractions","type":"museum","importance":0.23263828,"icon":"http://nominatim.openstreetmap.org/images/mapicons/tourist_museum.p.20.png","visiting_time":120.0,"opening_hours":null,"opening_days":null,"rating":0,"photo_url":null,"description":null,"www":null},{"place_id":"48103108","geometry":{"type":"Point","coordinates":[10.3279724,44.8037072]},"display_name":"Museo Glauco Lombardi, Strada Carlo Pisacane, Parma, PR, EMR, 43121, Italia","category":"attractions","type":"museum","importance":0.21606775,"icon":"http://nominatim.openstreetmap.org/images/mapicons/tourist_museum.p.20.png","visiting_time":120.0,"opening_hours":null,"opening_days":null,"rating":0,"photo_url":null,"description":null,"www":null},{"place_id":"18239871","geometry":{"type":"Point","coordinates":[10.3258889,44.8046192]},"display_name":"Museo Archeologico Nazionale, Piazza della Pilotta, Parma, PR, EMR, 13, Italia","category":"attractions","type":"museum","importance":0.1721728,"icon":"http://nominatim.openstreetmap.org/images/mapicons/tourist_museum.p.20.png","visiting_time":120.0,"opening_hours":null,"opening_days":null,"rating":0,"photo_url":null,"description":null,"www":null},{"place_id":"111628836","geometry":{"type":"Point","coordinates":[10.321260257,44.8051078]},"display_name":"Palazzetto Eucherio Sanvitale, Borgo Santo Spirito, Parma, PR, EMR, 13, Italia","category":"attractions","type":"museum","importance":0.13958298,"icon":"http://nominatim.openstreetmap.org/images/mapicons/tourist_museum.p.20.png","visiting_time":120.0,"opening_hours":null,"opening_days":null,"rating":0,"photo_url":null,"description":null,"www":null},{"place_id":"44433398","geometry":{"type":"Point","coordinates":[10.2368818,44.6838975]},"display_name":"Museo del salame di Felino, Via Nello Venturini, Felino, PR, EMR, Italia","category":"attractions","type":"museum","importance":0.12027225,"icon":"http://nominatim.openstreetmap.org/images/mapicons/tourist_museum.p.20.png","visiting_time":120.0,"opening_hours":null,"opening_days":null,"rating":0,"photo_url":null,"description":null,"www":null},{"place_id":"52433999","geometry":{"type":"Point","coordinates":[10.3261488,44.8043754]},"display_name":"Museo Bodoniano, Piazza della Pilotta, Parma, PR, EMR, 13, Italia","category":"attractions","type":"museum","importance":0.046527658,"icon":"http://nominatim.openstreetmap.org/images/mapicons/tourist_museum.p.20.png","visiting_time":120.0,"opening_hours":null,"opening_days":null,"rating":0,"photo_url":null,"description":null,"www":null},{"place_id":"8729432","geometry":{"type":"Point","coordinates":[10.2973985,44.7610542]},"display_name":"Museo Alice, Via Salvador Edward Luria, Parma, PR, EMR, 43124, Italia","category":"attractions","type":"museum","importance":0.001,"icon":"http://nominatim.openstreetmap.org/images/mapicons/tourist_museum.p.20.png","visiting_time":120.0,"opening_hours":null,"opening_days":null,"rating":0,"photo_url":null,"description":null,"www":null},{"place_id":"44745911","geometry":{"type":"Point","coordinates":[10.3291244,44.8050797]},"display_name":"Castello dei Burattini - Museo Giordano Ferrari, 3/a, Strada Giuseppe Garibaldi, Parma, PR, EMR, 43121, Italia","category":"attractions","type":"museum","importance":0.001,"icon":"http://nominatim.openstreetmap.org/images/mapicons/tourist_museum.p.20.png","visiting_time":120.0,"opening_hours":null,"opening_days":null,"rating":0,"photo_url":null,"description":null,"www":null},{"place_id":"58063591","geometry":{"type":"Point","coordinates":[10.3303189,44.8038067]},"display_name":"Museo Diocesano, 16/a, Vicolo del Vescovado, Parma, PR, EMR, 43121, Italia","category":"attractions","type":"museum","importance":0.001,"icon":"http://nominatim.openstreetmap.org/images/mapicons/tourist_museum.p.20.png","visiting_time":120.0,"opening_hours":null,"opening_days":null,"rating":0,"photo_url":null,"description":null,"www":null},{"place_id":"76441982","geometry":{"type":"Point","coordinates":[10.327809853,44.80456335]},"display_name":"Piazza della Pace, Parma, PR, EMR, 43121, Italia","category":"parks","type":"park","importance":0.15456153,"icon":null,"visiting_time":90.0,"opening_hours":null,"opening_days":null,"rating":0,"photo_url":null,"description":null,"www":null},{"place_id":"78926527","geometry":{"type":"Point","coordinates":[10.328341482,44.7956803]},"display_name":"Orto Botanico, Parma, PR, EMR, 43121, Italia","category":"parks","type":"park","importance":0.15456153,"icon":null,"visiting_time":90.0,"opening_hours":null,"opening_days":null,"rating":0,"photo_url":null,"description":null,"www":null},{"place_id":"120048774","geometry":{"type":"Point","coordinates":[10.368663858,44.78338475]},"display_name":"Parma, PR, EMR, 43121, Italia","category":"parks","type":"park","importance":0.15,"icon":null,"visiting_time":90.0,"opening_hours":null,"opening_days":null,"rating":0,"photo_url":null,"description":null,"www":null},{"place_id":"78773877","geometry":{"type":"Point","coordinates":[10.367173323,44.78564095]},"display_name":"Piazza Caio Giulio Fedro, Parma, PR, EMR, 43121, Italia","category":"parks","type":"park","importance":0.15,"icon":null,"visiting_time":90.0,"opening_hours":null,"opening_days":null,"rating":0,"photo_url":null,"description":null,"www":null},{"place_id":"78290352","geometry":{"type":"Point","coordinates":[10.313622549,44.81139075]},"display_name":"Piazzale Michelangelo Buonarroti, Parma, PR, EMR, 13, Italia","category":"parks","type":"park","importance":0.15,"icon":null,"visiting_time":90.0,"opening_hours":null,"opening_days":null,"rating":0,"photo_url":null,"description":null,"www":null},{"place_id":"76613703","geometry":{"type":"Point","coordinates":[10.333185237,44.8042349]},"display_name":"Piazzale Salvo d'Acquisto, Parma, PR, EMR, 43121, Italia","category":"parks","type":"park","importance":0.15,"icon":null,"visiting_time":90.0,"opening_hours":null,"opening_days":null,"rating":0,"photo_url":null,"description":null,"www":null},{"place_id":"78334824","geometry":{"type":"Point","coordinates":[10.281779326,44.81783545]},"display_name":"Parma, PR, EMR, 13, Italia","category":"parks","type":"park","importance":0.15,"icon":null,"visiting_time":90.0,"opening_hours":null,"opening_days":null,"rating":0,"photo_url":null,"description":null,"www":null},{"place_id":"77434944","geometry":{"type":"Point","coordinates":[10.351452542,44.7972262]},"display_name":"Parco Renzo Martini, Parma, PR, EMR, 43121, Italia","category":"parks","type":"park","importance":0.15,"icon":null,"visiting_time":90.0,"opening_hours":null,"opening_days":null,"rating":0,"photo_url":null,"description":null,"www":null},{"place_id":"77872622","geometry":{"type":"Point","coordinates":[10.304285378,44.80628625]},"display_name":"Piazza Caduti del Lavoro, Parma, PR, EMR, 13, Italia","category":"parks","type":"park","importance":0.15,"icon":null,"visiting_time":90.0,"opening_hours":null,"opening_days":null,"rating":0,"photo_url":null,"description":null,"www":null},{"place_id":"179513619","geometry":{"type":"Point","coordinates":[10.302947528,44.79909565]},"display_name":"Parco di Via E. Colli, Parma, PR, EMR, 13, Italia","category":"parks","type":"park","importance":0.15,"icon":null,"visiting_time":90.0,"opening_hours":null,"opening_days":null,"rating":0,"photo_url":null,"description":null,"www":null},{"place_id":"167106341","geometry":{"type":"Point","coordinates":[10.348983651,44.7546861]},"display_name":"Parma, PR, EMR, Italia","category":"parks","type":"park","importance":0.15,"icon":null,"visiting_time":90.0,"opening_hours":null,"opening_days":null,"rating":0,"photo_url":null,"description":null,"www":null},{"place_id":"77827415","geometry":{"type":"Point","coordinates":[10.339449473,44.791525]},"display_name":"Parco Ferrari, Parma, PR, EMR, 43121, Italia","category":"parks","type":"park","importance":0.15,"icon":null,"visiting_time":90.0,"opening_hours":null,"opening_days":null,"rating":0,"photo_url":null,"description":null,"www":null},{"place_id":"179517188","geometry":{"type":"Point","coordinates":[10.342801688,44.80130215]},"display_name":"Parco Ex Eridania, Parma, PR, EMR, 43121, Italia","category":"parks","type":"park","importance":0.15,"icon":null,"visiting_time":90.0,"opening_hours":null,"opening_days":null,"rating":0,"photo_url":null,"description":null,"www":null},{"place_id":"79531880","geometry":{"type":"Point","coordinates":[10.311031004,44.80810105]},"display_name":"Piazzale Pablo, Parma, PR, EMR, 13, Italia","category":"parks","type":"park","importance":0.15,"icon":null,"visiting_time":90.0,"opening_hours":null,"opening_days":null,"rating":0,"photo_url":null,"description":null,"www":null},{"place_id":"173041516","geometry":{"type":"Point","coordinates":[10.282080572,44.82037685]},"display_name":"Fognano, Parma, PR, EMR, 13, Italia","category":"parks","type":"park","importance":0.15,"icon":null,"visiting_time":90.0,"opening_hours":null,"opening_days":null,"rating":0,"photo_url":null,"description":null,"www":null},{"place_id":"78859917","geometry":{"type":"Point","coordinates":[10.360744053,44.78368555]},"display_name":"Piazza Wolfgang Amadeus Mozart, Parma, PR, EMR, 43121, Italia","category":"parks","type":"park","importance":0.15,"icon":null,"visiting_time":90.0,"opening_hours":null,"opening_days":null,"rating":0,"photo_url":null,"description":null,"www":null},{"place_id":"174880121","geometry":{"type":"Point","coordinates":[10.343533856,44.8231544]},"display_name":"Piazza Carlo Emilio Gadda, Parma, PR, EMR, 43121, Italia","category":"parks","type":"park","importance":0.15,"icon":null,"visiting_time":90.0,"opening_hours":null,"opening_days":null,"rating":0,"photo_url":null,"description":null,"www":null},{"place_id":"179175456","geometry":{"type":"Point","coordinates":[10.274955033,44.72369565]},"display_name":"Parma, PR, EMR, Italia","category":"parks","type":"park","importance":0.15,"icon":null,"visiting_time":90.0,"opening_hours":null,"opening_days":null,"rating":0,"photo_url":null,"description":null,"www":null},{"place_id":"179644470","geometry":{"type":"Point","coordinates":[10.317498456,44.77635615]},"display_name":"Parma, PR, EMR, 43121, Italia","category":"parks","type":"park","importance":0.15,"icon":null,"visiting_time":90.0,"opening_hours":null,"opening_days":null,"rating":0,"photo_url":null,"description":null,"www":null},{"place_id":"162663919","geometry":{"type":"Point","coordinates":[10.310875447,44.80218485]},"display_name":"Parco delle Magnolie, Parma, PR, EMR, 13, Italia","category":"parks","type":"park","importance":0.15,"icon":null,"visiting_time":90.0,"opening_hours":null,"opening_days":null,"rating":0,"photo_url":null,"description":null,"www":null},{"place_id":"79839272","geometry":{"type":"Point","coordinates":[10.305754907,44.71907715]},"display_name":"Parco Caduti Vigatto per la Libertà, Parma, PR, EMR, Italia","category":"parks","type":"park","importance":0.15,"icon":null,"visiting_time":90.0,"opening_hours":null,"opening_days":null,"rating":0,"photo_url":null,"description":null,"www":null},{"place_id":"77069997","geometry":{"type":"Point","coordinates":[10.356861218,44.7904635]},"display_name":"Parco Galeone, Parma, PR, EMR, 43121, Italia","category":"parks","type":"park","importance":0.15,"icon":null,"visiting_time":90.0,"opening_hours":null,"opening_days":null,"rating":0,"photo_url":null,"description":null,"www":null},{"place_id":"79063624","geometry":{"type":"Point","coordinates":[10.352531143,44.7916583]},"display_name":"Piazzale Lubiana, Parma, PR, EMR, 43121, Italia","category":"parks","type":"park","importance":0.15,"icon":null,"visiting_time":90.0,"opening_hours":null,"opening_days":null,"rating":0,"photo_url":null,"description":null,"www":null},{"place_id":"78131315","geometry":{"type":"Point","coordinates":[10.222875337,44.7538788]},"display_name":"Collecchio, PR, EMR, Italia","category":"parks","type":"park","importance":0.15,"icon":null,"visiting_time":90.0,"opening_hours":null,"opening_days":null,"rating":0,"photo_url":null,"description":null,"www":null},{"place_id":"77839250","geometry":{"type":"Point","coordinates":[10.353843193,44.6966652]},"display_name":"Montechiarugolo, PR, EMR, Italia","category":"parks","type":"park","importance":0.15,"icon":null,"visiting_time":90.0,"opening_hours":null,"opening_days":null,"rating":0,"photo_url":null,"description":null,"www":null},{"place_id":"173246626","geometry":{"type":"Point","coordinates":[10.215468261,44.82588125]},"display_name":"Fontevivo, PR, EMR, Italia","category":"parks","type":"park","importance":0.15,"icon":null,"visiting_time":90.0,"opening_hours":null,"opening_days":null,"rating":0,"photo_url":null,"description":null,"www":null},{"place_id":"98118187","geometry":{"type":"Point","coordinates":[10.35387278,44.8892788]},"display_name":"Parco Gombia, Torrile, PR, EMR, Italia","category":"parks","type":"park","importance":0.15,"icon":null,"visiting_time":90.0,"opening_hours":null,"opening_days":null,"rating":0,"photo_url":null,"description":null,"www":null},{"place_id":"140965736","geometry":{"type":"Point","coordinates":[10.392461157,44.82901775]},"display_name":"Sorbolo, PR, EMR, Italia","category":"parks","type":"park","importance":0.15,"icon":null,"visiting_time":90.0,"opening_hours":null,"opening_days":null,"rating":0,"photo_url":null,"description":null,"www":null},{"place_id":"116315413","geometry":{"type":"Point","coordinates":[10.227599451,44.71228995]},"display_name":"La Costa, Sala Baganza, PR, EMR, Italia","category":"parks","type":"park","importance":0.15,"icon":null,"visiting_time":90.0,"opening_hours":null,"opening_days":null,"rating":0,"photo_url":null,"description":null,"www":null},{"place_id":"179069048","geometry":{"type":"Point","coordinates":[10.229219023,44.7122653]},"display_name":"Giardino Rocca San Vitale, La Costa, Sala Baganza, PR, EMR, Italia","category":"parks","type":"park","importance":0.15,"icon":null,"visiting_time":90.0,"opening_hours":null,"opening_days":null,"rating":0,"photo_url":null,"description":null,"www":null},{"place_id":"74771218","geometry":{"type":"Point","coordinates":[10.327671841,44.8025365]},"display_name":"Basilica di Santa Maria della Steccata, Piazza della Steccata, Parma, PR, EMR, 43121, Italia","category":"attractions","type":"place_of_worship","importance":0.21047075,"icon":"http://nominatim.openstreetmap.org/images/mapicons/place_of_worship_unknown3.p.20.png","visiting_time":30.0,"opening_hours":null,"opening_days":null,"rating":0,"photo_url":null,"description":null,"www":null},{"place_id":"113657625","geometry":{"type":"Point","coordinates":[10.330891978,44.7989922]},"display_name":"Chiesa di San Quintino (Parma), Borgo del Canale, Parma, PR, EMR, 43121, Italia","category":"attractions","type":"place_of_worship","importance":0.1721728,"icon":"http://nominatim.openstreetmap.org/images/mapicons/place_of_worship_unknown3.p.20.png","visiting_time":30.0,"opening_hours":null,"opening_days":null,"rating":0,"photo_url":null,"description":null,"www":null},{"place_id":"113284351","geometry":{"type":"Point","coordinates":[10.333691014,44.8005359]},"display_name":"Chiesa di Sant'Antonio Abate, 54, Strada Repubblica, Parma, PR, EMR, 43121, Italia","category":"attractions","type":"place_of_worship","importance":0.1721728,"icon":"http://nominatim.openstreetmap.org/images/mapicons/place_of_worship_unknown3.p.20.png","visiting_time":30.0,"opening_hours":null,"opening_days":null,"rating":0,"photo_url":null,"description":null,"www":null},{"place_id":"140436731","geometry":{"type":"Point","coordinates":[10.319016866,44.80001555]},"display_name":"Chiesa di San Giuseppe, Borgo Paglia, Parma, PR, EMR, 43121, Italia","category":"attractions","type":"place_of_worship","importance":0.14748919,"icon":"http://nominatim.openstreetmap.org/images/mapicons/place_of_worship_unknown3.p.20.png","visiting_time":30.0,"opening_hours":null,"opening_days":null,"rating":0,"photo_url":null,"description":null,"www":null},{"place_id":"30730022","geometry":{"type":"Point","coordinates":[10.3359489,44.8000351]},"display_name":"San Sepolcro, 76, Strada Repubblica, Parma, PR, EMR, 43121, Italia","category":"attractions","type":"place_of_worship","importance":0.14748919,"icon":"http://nominatim.openstreetmap.org/images/mapicons/place_of_worship_unknown3.p.20.png","visiting_time":30.0,"opening_hours":null,"opening_days":null,"rating":0,"photo_url":null,"description":null,"www":null},{"place_id":"112378291","geometry":{"type":"Point","coordinates":[10.328514125,44.8060431]},"display_name":"Chiesa di Santa Teresa del Bambin Gesù, Strada Giuseppe Garibaldi, Parma, PR, EMR, 43121, Italia","category":"attractions","type":"place_of_worship","importance":0.14748919,"icon":"http://nominatim.openstreetmap.org/images/mapicons/place_of_worship_unknown3.p.20.png","visiting_time":30.0,"opening_hours":null,"opening_days":null,"rating":0,"photo_url":null,"description":null,"www":null},{"place_id":"74814652","geometry":{"type":"Point","coordinates":[10.332523442,44.8028454]},"display_name":"San Giovanni, Borgo del Correggio, Parma, PR, EMR, 43121, Italia","category":"attractions","type":"place_of_worship","importance":0.13958298,"icon":"http://nominatim.openstreetmap.org/images/mapicons/place_of_worship_unknown3.p.20.png","visiting_time":30.0,"opening_hours":null,"opening_days":null,"rating":0,"photo_url":null,"description":null,"www":null},{"place_id":"112222812","geometry":{"type":"Point","coordinates":[10.321620063,44.79928225]},"display_name":"Chiesa di Santa Caterina, Vicolo Santa Caterina, Parma, PR, EMR, 43121, Italia","category":"attractions","type":"place_of_worship","importance":0.13958298,"icon":"http://nominatim.openstreetmap.org/images/mapicons/place_of_worship_unknown3.p.20.png","visiting_time":30.0,"opening_hours":null,"opening_days":null,"rating":0,"photo_url":null,"description":null,"www":null},{"place_id":"113876781","geometry":{"type":"Point","coordinates":[10.333797044,44.8046221]},"display_name":"Oratorio Immacolata Concezione, Strada del Prato, Parma, PR, EMR, 43121, Italia","category":"attractions","type":"place_of_worship","importance":0.13958298,"icon":"http://nominatim.openstreetmap.org/images/mapicons/place_of_worship_unknown3.p.20.png","visiting_time":30.0,"opening_hours":null,"opening_days":null,"rating":0,"photo_url":null,"description":null,"www":null},{"place_id":"141145062","geometry":{"type":"Point","coordinates":[10.319341897,44.79779715]},"display_name":"Chiesa di Ognissanti, Borgo San Domenico, Parma, PR, EMR, 43121, Italia","category":"attractions","type":"place_of_worship","importance":0.13061965,"icon":"http://nominatim.openstreetmap.org/images/mapicons/place_of_worship_unknown3.p.20.png","visiting_time":30.0,"opening_hours":null,"opening_days":null,"rating":0,"photo_url":null,"description":null,"www":null},{"place_id":"111200593","geometry":{"type":"Point","coordinates":[10.337636732,44.7992265]},"display_name":"Chiesa di San Michele, 99, Strada Repubblica, Parma, PR, EMR, 43121, Italia","category":"attractions","type":"place_of_worship","importance":0.13061965,"icon":"http://nominatim.openstreetmap.org/images/mapicons/place_of_worship_unknown3.p.20.png","visiting_time":30.0,"opening_hours":null,"opening_days":null,"rating":0,"photo_url":null,"description":null,"www":null},{"place_id":"113969096","geometry":{"type":"Point","coordinates":[10.322913362,44.80321645]},"display_name":"Chiesa di Santa Maria delle Grazie, Borgo delle Grazie, Parma, PR, EMR, 13, Italia","category":"attractions","type":"place_of_worship","importance":0.13061965,"icon":"http://nominatim.openstreetmap.org/images/mapicons/place_of_worship_unknown3.p.20.png","visiting_time":30.0,"opening_hours":null,"opening_days":null,"rating":0,"photo_url":null,"description":null,"www":null},{"place_id":"76132966","geometry":{"type":"Point","coordinates":[10.32721618,44.80136575]},"display_name":"Chiesa di San Pietro, Piazza Giuseppe Garibaldi, Parma, PR, EMR, 43121, Italia","category":"attractions","type":"place_of_worship","importance":0.13061965,"icon":"http://nominatim.openstreetmap.org/images/mapicons/place_of_worship_unknown3.p.20.png","visiting_time":30.0,"opening_hours":null,"opening_days":null,"rating":0,"photo_url":null,"description":null,"www":null},{"place_id":"111807587","geometry":{"type":"Point","coordinates":[10.324248744,44.80097185]},"display_name":"Oratorio di San Quirino, Vicolo San Quinto, Parma, PR, EMR, 43121, Italia","category":"attractions","type":"place_of_worship","importance":0.12027225,"icon":"http://nominatim.openstreetmap.org/images/mapicons/place_of_worship_unknown3.p.20.png","visiting_time":30.0,"opening_hours":null,"opening_days":null,"rating":0,"photo_url":null,"description":null,"www":null},{"place_id":"112792866","geometry":{"type":"Point","coordinates":[10.320288686,44.80318875]},"display_name":"Chiesa di San Giacomo, Piazzale San Giacomo, Parma, PR, EMR, 13, Italia","category":"attractions","type":"place_of_worship","importance":0.10803387,"icon":"http://nominatim.openstreetmap.org/images/mapicons/place_of_worship_unknown3.p.20.png","visiting_time":30.0,"opening_hours":null,"opening_days":null,"rating":0,"photo_url":null,"description":null,"www":null},{"place_id":"110743944","geometry":{"type":"Point","coordinates":[10.336557645,44.8031129]},"display_name":"San Benedetto (Salesiani), Piazzale San Benedetto, Parma, PR, EMR, 43121, Italia","category":"attractions","type":"place_of_worship","importance":0.10803387,"icon":"http://nominatim.openstreetmap.org/images/mapicons/place_of_worship_unknown3.p.20.png","visiting_time":30.0,"opening_hours":null,"opening_days":null,"rating":0,"photo_url":null,"description":null,"www":null},{"place_id":"110767228","geometry":{"type":"Point","coordinates":[10.332504617,44.79926385]},"display_name":"Chiesa di Santi Maria Maddalena e Nettario, Borgo della Posta, Parma, PR, EMR, 43121, Italia","category":"attractions","type":"place_of_worship","importance":0.10803387,"icon":"http://nominatim.openstreetmap.org/images/mapicons/place_of_worship_unknown3.p.20.png","visiting_time":30.0,"opening_hours":null,"opening_days":null,"rating":0,"photo_url":null,"description":null,"www":null},{"place_id":"112730019","geometry":{"type":"Point","coordinates":[10.332834679,44.8045083]},"display_name":"Chiesa di Santa Elisabetta, Strada Sant'Anna, Parma, PR, EMR, 43121, Italia","category":"attractions","type":"place_of_worship","importance":0.10803387,"icon":"http://nominatim.openstreetmap.org/images/mapicons/place_of_worship_unknown3.p.20.png","visiting_time":30.0,"opening_hours":null,"opening_days":null,"rating":0,"photo_url":null,"description":null,"www":null},{"place_id":"113435930","geometry":{"type":"Point","coordinates":[10.327553788,44.7989263]},