[{"place_id":"19075359","geometry":{"type":"Point","coordinates":[9.7277025,45.0366546]},"display_name":"F-104 ASA, Strada dell'Anselma, Giarona, Piacenza, PC, EMR, 29010, Italia","category":"attractions","type":"attraction","importance":0.001,"icon":"http://nominatim.openstreetmap.org/images/mapicons/poi_point_of_interest.p.20.png","visiting_time":30.0,"opening_hours":null,"opening_days":null,"rating":0,"photo_url":null,"description":null,"www":null},{"place_id":"53016558","geometry":{"type":"Point","coordinates":[9.6871136,45.0477573]},"display_name":"Pizzeria del Sole, Corso Vittorio Emanuele II, Infrangibile, Piacenza, PC, EMR, 29121, Italia","category":"eating","type":"fast_food","importance":0.001,"icon":"http://nominatim.openstreetmap.org/images/mapicons/food_fastfood.p.20.png","visiting_time":30.0,"opening_hours":null,"opening_days":null,"rating":0,"photo_url":null,"description":null,"www":null},{"place_id":"55173198","geometry":{"type":"Point","coordinates":[9.6870983,45.0475451]},"display_name":"Corso Vittorio Emanuele II, Infrangibile, Piacenza, PC, EMR, 29121, Italia","category":"eating","type":"fast_food","importance":0.001,"icon":"http://nominatim.openstreetmap.org/images/mapicons/food_fastfood.p.20.png","visiting_time":30.0,"opening_hours":null,"opening_days":null,"rating":0,"photo_url":null,"description":null,"www":null},{"place_id":"172938433","geometry":{"type":"Point","coordinates":[9.703017305,45.05479905]},"display_name":"Burger King, 25, Viale Sant'Ambrogio, Baia del Re, Piacenza, PC, EMR, 29121, Italia","category":"eating","type":"fast_food","importance":0.001,"icon":"http://nominatim.openstreetmap.org/images/mapicons/food_fastfood.p.20.png","visiting_time":30.0,"opening_hours":null,"opening_days":null,"rating":0,"photo_url":null,"description":null,"www":null},{"place_id":"54291417","geometry":{"type":"Point","coordinates":[9.6993155,45.0510631]},"display_name":"Kebab, Via Roma, Baia del Re, Piacenza, PC, EMR, 29121, Italia","category":"eating","type":"fast_food","importance":0.001,"icon":"http://nominatim.openstreetmap.org/images/mapicons/food_fastfood.p.20.png","visiting_time":30.0,"opening_hours":null,"opening_days":null,"rating":0,"photo_url":null,"description":null,"www":null},{"place_id":"53786393","geometry":{"type":"Point","coordinates":[9.6830225,45.0449807]},"display_name":"PiadaMondo, Via Vittorio Veneto, Infrangibile, Piacenza, PC, EMR, 29121, Italia","category":"eating","type":"fast_food","importance":0.001,"icon":"http://nominatim.openstreetmap.org/images/mapicons/food_fastfood.p.20.png","visiting_time":30.0,"opening_hours":null,"opening_days":null,"rating":0,"photo_url":null,"description":null,"www":null},{"place_id":"111810302","geometry":{"type":"Point","coordinates":[9.6560398,45.0544709]},"display_name":"Mac Donald, Via Emilia Pavese, San Antonio a Trebbia, Piacenza, PC, EMR, 29122, Italia","category":"eating","type":"fast_food","importance":0.001,"icon":"http://nominatim.openstreetmap.org/images/mapicons/food_fastfood.p.20.png","visiting_time":30.0,"opening_hours":null,"opening_days":null,"rating":0,"photo_url":null,"description":null,"www":null},{"place_id":"20093449","geometry":{"type":"Point","coordinates":[9.7322076,45.0457722]},"display_name":"Picc cucina, Via Maestri del Lavoro, Motorizzazione civile, Capitolo, Piacenza, PC, EMR, 29122, Italia","category":"eating","type":"fast_food","importance":0.001,"icon":"http://nominatim.openstreetmap.org/images/mapicons/food_fastfood.p.20.png","visiting_time":30.0,"opening_hours":null,"opening_days":null,"rating":0,"photo_url":null,"description":null,"www":null},{"place_id":"19948914","geometry":{"type":"Point","coordinates":[9.6609589,45.0533862]},"display_name":"Via Atleti Azzurri d'Italia, Veggioletta, Piacenza, PC, EMR, 29010, Italia","category":"eating","type":"fast_food","importance":0.001,"icon":"http://nominatim.openstreetmap.org/images/mapicons/food_fastfood.p.20.png","visiting_time":30.0,"opening_hours":null,"opening_days":null,"rating":0,"photo_url":null,"description":null,"www":null},{"place_id":"12511768","geometry":{"type":"Point","coordinates":[9.6876128,45.0425243]},"display_name":"Viale Dante Alighieri, Baia del Re, Piacenza, PC, EMR, 29121, Italia","category":"eating","type":"fast_food","importance":0.001,"icon":"http://nominatim.openstreetmap.org/images/mapicons/food_fastfood.p.20.png","visiting_time":30.0,"opening_hours":null,"opening_days":null,"rating":0,"photo_url":null,"description":null,"www":null},{"place_id":"52334628","geometry":{"type":"Point","coordinates":[9.6926115,45.0450849]},"display_name":"La Tana Dei Polli, 90, Via 4 novembre, Baia del Re, Piacenza, PC, EMR, 29122, Italia","category":"eating","type":"fast_food","importance":0.001,"icon":"http://nominatim.openstreetmap.org/images/mapicons/food_fastfood.p.20.png","visiting_time":30.0,"opening_hours":null,"opening_days":null,"rating":0,"photo_url":null,"description":null,"www":null},{"place_id":"45618808","geometry":{"type":"Point","coordinates":[9.6826836,45.1088493]},"display_name":"Via Roma, Cascina Le Quaglie, Guardamiglio, LO, LOM, 26862, Italia","category":"eating","type":"fast_food","importance":0.001,"icon":"http://nominatim.openstreetmap.org/images/mapicons/food_fastfood.p.20.png","visiting_time":30.0,"opening_hours":null,"opening_days":null,"rating":0,"photo_url":null,"description":null,"www":null},{"place_id":"53998965","geometry":{"type":"Point","coordinates":[9.671778,45.0378551]},"display_name":"Tangenziale Sud, Besurica, Piacenza, PC, EMR, 29100, Italia","category":"eating","type":"restaurant","importance":0.001,"icon":"http://nominatim.openstreetmap.org/images/mapicons/food_restaurant.p.20.png","visiting_time":60.0,"opening_hours":null,"opening_days":null,"rating":0,"photo_url":null,"description":null,"www":null},{"place_id":"52733516","geometry":{"type":"Point","coordinates":[9.6874104,45.0461681]},"display_name":"Da Chrisitian, 115, Via 4 novembre, Baia del Re, Piacenza, PC, EMR, 29121, Italia","category":"eating","type":"restaurant","importance":0.001,"icon":"http://nominatim.openstreetmap.org/images/mapicons/food_restaurant.p.20.png","visiting_time":60.0,"opening_hours":null,"opening_days":null,"rating":0,"photo_url":null,"description":null,"www":null},{"place_id":"19574888","geometry":{"type":"Point","coordinates":[9.774786,45.0585223]},"display_name":"Autostrada dei Vini, Le Mose, Piacenza, PC, EMR, 29010, Italia","category":"eating","type":"restaurant","importance":0.001,"icon":"http://nominatim.openstreetmap.org/images/mapicons/food_restaurant.p.20.png","visiting_time":60.0,"opening_hours":null,"opening_days":null,"rating":0,"photo_url":null,"description":null,"www":null},{"place_id":"17773362","geometry":{"type":"Point","coordinates":[9.7190509,45.0388403]},"display_name":"CityWok, Via Daria Menicanti, Capitolo, Piacenza, PC, EMR, 29122, Italia","category":"eating","type":"restaurant","importance":0.001,"icon":"http://nominatim.openstreetmap.org/images/mapicons/food_restaurant.p.20.png","visiting_time":60.0,"opening_hours":null,"opening_days":null,"rating":0,"photo_url":null,"description":null,"www":null},{"place_id":"54735467","geometry":{"type":"Point","coordinates":[9.6969943,45.0505085]},"display_name":"Da Pasquale, Piazza Duomo, Baia del Re, Piacenza, PC, EMR, 29121, Italia","category":"eating","type":"restaurant","importance":0.001,"icon":"http://nominatim.openstreetmap.org/images/mapicons/food_restaurant.p.20.png","visiting_time":60.0,"opening_hours":null,"opening_days":null,"rating":0,"photo_url":null,"description":null,"www":null},{"place_id":"20100041","geometry":{"type":"Point","coordinates":[9.653071,45.0549949]},"display_name":"Kikkosan, Via Emilia Pavese, San Antonio a Trebbia, Piacenza, PC, EMR, 29010, Italia","category":"eating","type":"restaurant","importance":0.001,"icon":"http://nominatim.openstreetmap.org/images/mapicons/food_restaurant.p.20.png","visiting_time":60.0,"opening_hours":null,"opening_days":null,"rating":0,"photo_url":null,"description":null,"www":null},{"place_id":"20228296","geometry":{"type":"Point","coordinates":[9.7562445,45.079747]},"display_name":"Strada di Mortizza, Ca' Buzzone Stanga, La Baracca, Piacenza, PC, EMR, 26849, Italia","category":"eating","type":"restaurant","importance":0.001,"icon":"http://nominatim.openstreetmap.org/images/mapicons/food_restaurant.p.20.png","visiting_time":60.0,"opening_hours":null,"opening_days":null,"rating":0,"photo_url":null,"description":null,"www":null},{"place_id":"57251285","geometry":{"type":"Point","coordinates":[9.7872355,45.0474348]},"display_name":"I Dossi, Via Anna Solenghi, Le Mose, Piacenza, PC, EMR, Italia","category":"eating","type":"restaurant","importance":0.001,"icon":"http://nominatim.openstreetmap.org/images/mapicons/food_restaurant.p.20.png","visiting_time":60.0,"opening_hours":null,"opening_days":null,"rating":0,"photo_url":null,"description":null,"www":null},{"place_id":"54543499","geometry":{"type":"Point","coordinates":[9.7031605,45.0433682]},"display_name":"Mamma Mia, Via Cesare Calciati, Baia del Re, Piacenza, PC, EMR, 29122, Italia","category":"eating","type":"restaurant","importance":0.001,"icon":"http://nominatim.openstreetmap.org/images/mapicons/food_restaurant.p.20.png","visiting_time":60.0,"opening_hours":null,"opening_days":null,"rating":0,"photo_url":null,"description":null,"www":null},{"place_id":"91626054","geometry":{"type":"Point","coordinates":[9.712072853,45.034197]},"display_name":"Old Wild West, Parcheggio LIDL, Baia del Re, Piacenza, PC, EMR, 29122, Italia","category":"eating","type":"restaurant","importance":0.001,"icon":"http://nominatim.openstreetmap.org/images/mapicons/food_restaurant.p.20.png","visiting_time":60.0,"opening_hours":null,"opening_days":null,"rating":0,"photo_url":null,"description":null,"www":null},{"place_id":"113256058","geometry":{"type":"Point","coordinates":[9.674441789,45.0474809]},"display_name":"Via Antonio Emmanueli, Infrangibile, Piacenza, PC, EMR, 29100, Italia","category":"eating","type":"restaurant","importance":0.001,"icon":"http://nominatim.openstreetmap.org/images/mapicons/food_restaurant.p.20.png","visiting_time":60.0,"opening_hours":null,"opening_days":null,"rating":0,"photo_url":null,"description":null,"www":null},{"place_id":"20406063","geometry":{"type":"Point","coordinates":[9.7172719,45.0405521]},"display_name":"Via Emilia Parmense, Capitolo, Piacenza, PC, EMR, 29122, Italia","category":"eating","type":"restaurant","importance":0.001,"icon":"http://nominatim.openstreetmap.org/images/mapicons/food_restaurant.p.20.png","visiting_time":60.0,"opening_hours":null,"opening_days":null,"rating":0,"photo_url":null,"description":null,"www":null},{"place_id":"19861518","geometry":{"type":"Point","coordinates":[9.7872314,45.0474415]},"display_name":"Osteria del Barbarossa, Via Anna Solenghi, Le Mose, Piacenza, PC, EMR, Italia","category":"eating","type":"restaurant","importance":0.001,"icon":"http://nominatim.openstreetmap.org/images/mapicons/food_restaurant.p.20.png","visiting_time":60.0,"opening_hours":null,"opening_days":null,"rating":0,"photo_url":null,"description":null,"www":null},{"place_id":"60799818","geometry":{"type":"Point","coordinates":[9.6923188,45.0527258]},"display_name":"Piazza dei Cavalli, Baia del Re, Piacenza, PC, EMR, 29121, Italia","category":"eating","type":"restaurant","importance":0.001,"icon":"http://nominatim.openstreetmap.org/images/mapicons/food_restaurant.p.20.png","visiting_time":60.0,"opening_hours":null,"opening_days":null,"rating":0,"photo_url":null,"description":null,"www":null},{"place_id":"160743623","geometry":{"type":"Point","coordinates":[9.687333082,45.04679235]},"display_name":"Old Faxhall, Viale passeggio pubblico, Baia del Re, Piacenza, PC, EMR, 29121, Italia","category":"eating","type":"restaurant","importance":0.001,"icon":"http://nominatim.openstreetmap.org/images/mapicons/food_restaurant.p.20.png","visiting_time":60.0,"opening_hours":null,"opening_days":null,"rating":0,"photo_url":null,"description":null,"www":null},{"place_id":"20381966","geometry":{"type":"Point","coordinates":[9.7830136,45.0263908]},"display_name":"Antica Osteria, Via Ferdinando di Borbone, Montale, Piacenza, PC, EMR, 29010, Italia","category":"eating","type":"restaurant","importance":0.001,"icon":"http://nominatim.openstreetmap.org/images/mapicons/food_restaurant.p.20.png","visiting_time":60.0,"opening_hours":null,"opening_days":null,"rating":0,"photo_url":null,"description":null,"www":null},{"place_id":"54473646","geometry":{"type":"Point","coordinates":[9.7235222,45.037301]},"display_name":"Pizzeria Il Grillo, Via Emilia Parmense, Giarona, Piacenza, PC, EMR, 29122, Italia","category":"eating","type":"restaurant","importance":0.001,"icon":"http://nominatim.openstreetmap.org/images/mapicons/food_restaurant.p.20.png","visiting_time":60.0,"opening_hours":null,"opening_days":null,"rating":0,"photo_url":null,"description":null,"www":null},{"place_id":"19913983","geometry":{"type":"Point","coordinates":[9.6573666,45.0544348]},"display_name":"Strada della Viggioletta, Veggioletta, Piacenza, PC, EMR, 29010, Italia","category":"eating","type":"restaurant","importance":0.001,"icon":"http://nominatim.openstreetmap.org/images/mapicons/food_restaurant.p.20.png","visiting_time":60.0,"opening_hours":null,"opening_days":null,"rating":0,"photo_url":null,"description":null,"www":null},{"place_id":"41962687","geometry":{"type":"Point","coordinates":[9.6562023,45.0524038]},"display_name":"Pizzeria Dai Marchesi, 14, Via Donnino Bentelli, Veggioletta, Piacenza, PC, EMR, 29121, Italia","category":"eating","type":"restaurant","importance":0.001,"icon":"http://nominatim.openstreetmap.org/images/mapicons/food_restaurant.p.20.png","visiting_time":60.0,"opening_hours":null,"opening_days":null,"rating":0,"photo_url":null,"description":null,"www":null},{"place_id":"19014436","geometry":{"type":"Point","coordinates":[9.7239994,45.0367035]},"display_name":"University Kebab, Via Emilia Parmense, Giarona, Piacenza, PC, EMR, 29122, Italia","category":"eating","type":"restaurant","importance":0.001,"icon":"http://nominatim.openstreetmap.org/images/mapicons/food_restaurant.p.20.png","visiting_time":60.0,"opening_hours":null,"opening_days":null,"rating":0,"photo_url":null,"description":null,"www":null},{"place_id":"54206646","geometry":{"type":"Point","coordinates":[9.6890984,45.0491504]},"display_name":"FEN CUCINA, 179, Corso Vittorio Emanuele II, Infrangibile, Piacenza, PC, EMR, 29121, Italia","category":"eating","type":"restaurant","importance":0.001,"icon":"http://nominatim.openstreetmap.org/images/mapicons/food_restaurant.p.20.png","visiting_time":60.0,"opening_hours":null,"opening_days":null,"rating":0,"photo_url":null,"description":null,"www":null},{"place_id":"53207901","geometry":{"type":"Point","coordinates":[9.6841976,45.0389744]},"display_name":"IMO, Via Giuseppe Manfredi, Infrangibile, Piacenza, PC, EMR, 29121, Italia","category":"eating","type":"restaurant","importance":0.001,"icon":"http://nominatim.openstreetmap.org/images/mapicons/food_restaurant.p.20.png","visiting_time":60.0,"opening_hours":null,"opening_days":null,"rating":0,"photo_url":null,"description":null,"www":null},{"place_id":"52351798","geometry":{"type":"Point","coordinates":[9.7255783,45.0360741]},"display_name":"La Chiesetta, Via Emilia Parmense, Giarona, Piacenza, PC, EMR, 29122, Italia","category":"eating","type":"restaurant","importance":0.001,"icon":"http://nominatim.openstreetmap.org/images/mapicons/food_restaurant.p.20.png","visiting_time":60.0,"opening_hours":null,"opening_days":null,"rating":0,"photo_url":null,"description":null,"www":null},{"place_id":"20122172","geometry":{"type":"Point","coordinates":[9.7548834,45.0399457]},"display_name":"Via Caorsana, Le Mose, Piacenza, PC, EMR, 29010, Italia","category":"eating","type":"restaurant","importance":0.001,"icon":"http://nominatim.openstreetmap.org/images/mapicons/food_restaurant.p.20.png","visiting_time":60.0,"opening_hours":null,"opening_days":null,"rating":0,"photo_url":null,"description":null,"www":null},{"place_id":"60155880","geometry":{"type":"Point","coordinates":[9.724395,45.0144619]},"display_name":"SP6 - Strada Farnesiana, Giarona, Piacenza, PC, EMR, 29010, Italia","category":"eating","type":"restaurant","importance":0.001,"icon":"http://nominatim.openstreetmap.org/images/mapicons/food_restaurant.p.20.png","visiting_time":60.0,"opening_hours":null,"opening_days":null,"rating":0,"photo_url":null,"description":null,"www":null},{"place_id":"53864998","geometry":{"type":"Point","coordinates":[9.6728317,45.0544668]},"display_name":"Bella Napoli 2, Via Emilia Pavese, Infrangibile, Piacenza, PC, EMR, 29121, Italia","category":"eating","type":"restaurant","importance":0.001,"icon":"http://nominatim.openstreetmap.org/images/mapicons/food_restaurant.p.20.png","visiting_time":60.0,"opening_hours":null,"opening_days":null,"rating":0,"photo_url":null,"description":null,"www":null},{"place_id":"53150370","geometry":{"type":"Point","coordinates":[9.6980035,45.0516126]},"display_name":"Movida, Via Francesco Daveri, Baia del Re, Piacenza, PC, EMR, 29121, Italia","category":"eating","type":"restaurant","importance":0.001,"icon":"http://nominatim.openstreetmap.org/images/mapicons/food_restaurant.p.20.png","visiting_time":60.0,"opening_hours":null,"opening_days":null,"rating":0,"photo_url":null,"description":null,"www":null},{"place_id":"53533416","geometry":{"type":"Point","coordinates":[9.6719706,45.0083937]},"display_name":"Strada Statale di Val Trebbia, Besurica, Piacenza, PC, EMR, 29100, Italia","category":"eating","type":"restaurant","importance":0.001,"icon":"http://nominatim.openstreetmap.org/images/mapicons/food_restaurant.p.20.png","visiting_time":60.0,"opening_hours":null,"opening_days":null,"rating":0,"photo_url":null,"description":null,"www":null},{"place_id":"20421088","geometry":{"type":"Point","coordinates":[9.7704412,45.0383843]},"display_name":"croce grossa, Strada Provinciale 10R Padana Inferiore, Le Mose, Piacenza, PC, EMR, 29010, Italia","category":"eating","type":"restaurant","importance":0.001,"icon":"http://nominatim.openstreetmap.org/images/mapicons/food_restaurant.p.20.png","visiting_time":60.0,"opening_hours":null,"opening_days":null,"rating":0,"photo_url":null,"description":null,"www":null},{"place_id":"20442268","geometry":{"type":"Point","coordinates":[9.659852,45.0549442]},"display_name":"Roadhouse Grill, 65, Via Emilia Pavese, Veggioletta, Piacenza, PC, EMR, 29121, Italia","category":"eating","type":"restaurant","importance":0.001,"icon":"http://nominatim.openstreetmap.org/images/mapicons/food_restaurant.p.20.png","visiting_time":60.0,"opening_hours":null,"opening_days":null,"rating":0,"photo_url":null,"description":null,"www":null},{"place_id":"41740720","geometry":{"type":"Point","coordinates":[9.6599942,45.0541297]},"display_name":"Ristorante Asia, 7, Via Atleti Azzurri d'Italia, Veggioletta, Piacenza, PC, EMR, 29121, Italia","category":"eating","type":"restaurant","importance":0.001,"icon":"http://nominatim.openstreetmap.org/images/mapicons/food_restaurant.p.20.png","visiting_time":60.0,"opening_hours":null,"opening_days":null,"rating":0,"photo_url":null,"description":null,"www":null},{"place_id":"52619695","geometry":{"type":"Point","coordinates":[9.6980791,45.051666]},"display_name":"Tosello, Via Francesco Daveri, Baia del Re, Piacenza, PC, EMR, 29121, Italia","category":"eating","type":"restaurant","importance":0.001,"icon":"http://nominatim.openstreetmap.org/images/mapicons/food_restaurant.p.20.png","visiting_time":60.0,"opening_hours":null,"opening_days":null,"rating":0,"photo_url":null,"description":null,"www":null},{"place_id":"57249326","geometry":{"type":"Point","coordinates":[9.687992,45.0483555]},"display_name":"SoSushi, Corso Vittorio Emanuele II, Infrangibile, Piacenza, PC, EMR, 29121, Italia","category":"eating","type":"restaurant","importance":0.001,"icon":"http://nominatim.openstreetmap.org/images/mapicons/food_restaurant.p.20.png","visiting_time":60.0,"opening_hours":null,"opening_days":null,"rating":0,"photo_url":null,"description":null,"www":null},{"place_id":"53484282","geometry":{"type":"Point","coordinates":[9.6871743,45.047609]},"display_name":"Corso Vittorio Emanuele II, Infrangibile, Piacenza, PC, EMR, 29121, Italia","category":"eating","type":"restaurant","importance":0.001,"icon":"http://nominatim.openstreetmap.org/images/mapicons/food_restaurant.p.20.png","visiting_time":60.0,"opening_hours":null,"opening_days":null,"rating":0,"photo_url":null,"description":null,"www":null},{"place_id":"52624233","geometry":{"type":"Point","coordinates":[9.6953111,45.0518017]},"display_name":"Carducci, Via Giosuè Carducci, Baia del Re, Piacenza, PC, EMR, 29121, Italia","category":"eating","type":"restaurant","importance":0.001,"icon":"http://nominatim.openstreetmap.org/images/mapicons/food_restaurant.p.20.png","visiting_time":60.0,"opening_hours":null,"opening_days":null,"rating":0,"photo_url":null,"description":null,"www":null},{"place_id":"54035130","geometry":{"type":"Point","coordinates":[9.6881385,45.0482881]},"display_name":"Pizzeria MareChiaro, Corso Vittorio Emanuele II, Infrangibile, Piacenza, PC, EMR, 29121, Italia","category":"eating","type":"restaurant","importance":0.001,"icon":"http://nominatim.openstreetmap.org/images/mapicons/food_restaurant.p.20.png","visiting_time":60.0,"opening_hours":null,"opening_days":null,"rating":0,"photo_url":null,"description":null,"www":null},{"place_id":"53529165","geometry":{"type":"Point","coordinates":[9.6688683,45.0543537]},"display_name":"Bella Napoli, Via Emilia Pavese, Infrangibile, Piacenza, PC, EMR, 29121, Italia","category":"eating","type":"restaurant","importance":0.001,"icon":"http://nominatim.openstreetmap.org/images/mapicons/food_restaurant.p.20.png","visiting_time":60.0,"opening_hours":null,"opening_days":null,"rating":0,"photo_url":null,"description":null,"www":null},{"place_id":"53655545","geometry":{"type":"Point","coordinates":[9.6936392,45.0531493]},"display_name":"Osvaldo, Galleria Borsa, Baia del Re, Piacenza, PC, EMR, 29121, Italia","category":"eating","type":"restaurant","importance":0.001,"icon":"http://nominatim.openstreetmap.org/images/mapicons/food_restaurant.p.20.png","visiting_time":60.0,"opening_hours":null,"opening_days":null,"rating":0,"photo_url":null,"description":null,"www":null},{"place_id":"54291417","geometry":{"type":"Point","coordinates":[9.6993155,45.0510631]},"display_name":"Kebab, Via Roma, Baia del Re, Piacenza, PC, EMR, 29121, Italia","category":"eating","type":"fast_food","importance":0.001,"icon":"http://nominatim.openstreetmap.org/images/mapicons/food_fastfood.p.20.png","visiting_time":60.0,"opening_hours":null,"opening_days":null,"rating":0,"photo_url":null,"description":null,"www":null},{"place_id":"111810302","geometry":{"type":"Point","coordinates":[9.6560398,45.0544709]},"display_name":"Mac Donald, Via Emilia Pavese, San Antonio a Trebbia, Piacenza, PC, EMR, 29122, Italia","category":"eating","type":"fast_food","importance":0.001,"icon":"http://nominatim.openstreetmap.org/images/mapicons/food_fastfood.p.20.png","visiting_time":60.0,"opening_hours":null,"opening_days":null,"rating":0,"photo_url":null,"description":null,"www":null},{"place_id":"20093449","geometry":{"type":"Point","coordinates":[9.7322076,45.0457722]},"display_name":"Picc cucina, Via Maestri del Lavoro, Motorizzazione civile, Capitolo, Piacenza, PC, EMR, 29122, Italia","category":"eating","type":"fast_food","importance":0.001,"icon":"http://nominatim.openstreetmap.org/images/mapicons/food_fastfood.p.20.png","visiting_time":60.0,"opening_hours":null,"opening_days":null,"rating":0,"photo_url":null,"description":null,"www":null},{"place_id":"52334628","geometry":{"type":"Point","coordinates":[9.6926115,45.0450849]},"display_name":"La Tana Dei Polli, 90, Via 4 novembre, Baia del Re, Piacenza, PC, EMR, 29122, Italia","category":"eating","type":"fast_food","importance":0.001,"icon":"http://nominatim.openstreetmap.org/images/mapicons/food_fastfood.p.20.png","visiting_time":60.0,"opening_hours":null,"opening_days":null,"rating":0,"photo_url":null,"description":null,"www":null},{"place_id":"172938433","geometry":{"type":"Point","coordinates":[9.703017305,45.05479905]},"display_name":"Burger King, 25, Viale Sant'Ambrogio, Baia del Re, Piacenza, PC, EMR, 29121, Italia","category":"eating","type":"fast_food","importance":0.001,"icon":"http://nominatim.openstreetmap.org/images/mapicons/food_fastfood.p.20.png","visiting_time":60.0,"opening_hours":null,"opening_days":null,"rating":0,"photo_url":null,"description":null,"www":null},{"place_id":"12511768","geometry":{"type":"Point","coordinates":[9.6876128,45.0425243]},"display_name":"Viale Dante Alighieri, Baia del Re, Piacenza, PC, EMR, 29121, Italia","category":"eating","type":"fast_food","importance":0.001,"icon":"http://nominatim.openstreetmap.org/images/mapicons/food_fastfood.p.20.png","visiting_time":60.0,"opening_hours":null,"opening_days":null,"rating":0,"photo_url":null,"description":null,"www":null},{"place_id":"53786393","geometry":{"type":"Point","coordinates":[9.6830225,45.0449807]},"display_name":"PiadaMondo, Via Vittorio Veneto, Infrangibile, Piacenza, PC, EMR, 29121, Italia","category":"eating","type":"fast_food","importance":0.001,"icon":"http://nominatim.openstreetmap.org/images/mapicons/food_fastfood.p.20.png","visiting_time":60.0,"opening_hours":null,"opening_days":null,"rating":0,"photo_url":null,"description":null,"www":null},{"place_id":"19948914","geometry":{"type":"Point","coordinates":[9.6609589,45.0533862]},"display_name":"Via Atleti Azzurri d'Italia, Veggioletta, Piacenza, PC, EMR, 29010, Italia","category":"eating","type":"fast_food","importance":0.001,"icon":"http://nominatim.openstreetmap.org/images/mapicons/food_fastfood.p.20.png","visiting_time":60.0,"opening_hours":null,"opening_days":null,"rating":0,"photo_url":null,"description":null,"www":null},{"place_id":"55173198","geometry":{"type":"Point","coordinates":[9.6870983,45.0475451]},"display_name":"Corso Vittorio Emanuele II, Infrangibile, Piacenza, PC, EMR, 29121, Italia","category":"eating","type":"fast_food","importance":0.001,"icon":"http://nominatim.openstreetmap.org/images/mapicons/food_fastfood.p.20.png","visiting_time":60.0,"opening_hours":null,"opening_days":null,"rating":0,"photo_url":null,"description":null,"www":null},{"place_id":"53016558","geometry":{"type":"Point","coordinates":[9.6871136,45.0477573]},"display_name":"Pizzeria del Sole, Corso Vittorio Emanuele II, Infrangibile, Piacenza, PC, EMR, 29121, Italia","category":"eating","type":"fast_food","importance":0.001,"icon":"http://nominatim.openstreetmap.org/images/mapicons/food_fastfood.p.20.png","visiting_time":60.0,"opening_hours":null,"opening_days":null,"rating":0,"photo_url":null,"description":null,"www":null},{"place_id":"52072824","geometry":{"type":"Point","coordinates":[9.6799318,45.109765]},"display_name":"taverna del gallo, Via Alessandro Manzoni, Cascina Le Quaglie, Guardamiglio, LO, LOM, 26862, Italia","category":"eating","type":"restaurant","importance":0.001,"icon":"http://nominatim.openstreetmap.org/images/mapicons/food_restaurant.p.20.png","visiting_time":60.0,"opening_hours":null,"opening_days":null,"rating":0,"photo_url":null,"description":null,"www":null},{"place_id":"45618808","geometry":{"type":"Point","coordinates":[9.6826836,45.1088493]},"display_name":"Via Roma, Cascina Le Quaglie, Guardamiglio, LO, LOM, 26862, Italia","category":"eating","type":"fast_food","importance":0.001,"icon":"http://nominatim.openstreetmap.org/images/mapicons/food_fastfood.p.20.png","visiting_time":60.0,"opening_hours":null,"opening_days":null,"rating":0,"photo_url":null,"description":null,"www":null},{"place_id":"53998965","geometry":{"type":"Point","coordinates":[9.671778,45.0378551]},"display_name":"Tangenziale Sud, Besurica, Piacenza, PC, EMR, 29100, Italia","category":"eating","type":"restaurant","importance":0.001,"icon":"http://nominatim.openstreetmap.org/images/mapicons/food_restaurant.p.20.png","visiting_time":60.0,"opening_hours":null,"opening_days":null,"rating":0,"photo_url":null,"description":null,"www":null},{"place_id":"19574888","geometry":{"type":"Point","coordinates":[9.774786,45.0585223]},"display_name":"Autostrada dei Vini, Le Mose, Piacenza, PC, EMR, 29010, Italia","category":"eating","type":"restaurant","importance":0.001,"icon":"http://nominatim.openstreetmap.org/images/mapicons/food_restaurant.p.20.png","visiting_time":60.0,"opening_hours":null,"opening_days":null,"rating":0,"photo_url":null,"description":null,"www":null},{"place_id":"52733516","geometry":{"type":"Point","coordinates":[9.6874104,45.0461681]},"display_name":"Da Chrisitian, 115, Via 4 novembre, Baia del Re, Piacenza, PC, EMR, 29121, Italia","category":"eating","type":"restaurant","importance":0.001,"icon":"http://nominatim.openstreetmap.org/images/mapicons/food_restaurant.p.20.png","visiting_time":60.0,"opening_hours":null,"opening_days":null,"rating":0,"photo_url":null,"description":null,"www":null},{"place_id":"20442268","geometry":{"type":"Point","coordinates":[9.659852,45.0549442]},"display_name":"Roadhouse Grill, 65, Via Emilia Pavese, Veggioletta, Piacenza, PC, EMR, 29121, Italia","category":"eating","type":"restaurant","importance":0.001,"icon":"http://nominatim.openstreetmap.org/images/mapicons/food_restaurant.p.20.png","visiting_time":60.0,"opening_hours":null,"opening_days":null,"rating":0,"photo_url":null,"description":null,"www":null},{"place_id":"54735467","geometry":{"type":"Point","coordinates":[9.6969943,45.0505085]},"display_name":"Da Pasquale, Piazza Duomo, Baia del Re, Piacenza, PC, EMR, 29121, Italia","category":"eating","type":"restaurant","importance":0.001,"icon":"http://nominatim.openstreetmap.org/images/mapicons/food_restaurant.p.20.png","visiting_time":60.0,"opening_hours":null,"opening_days":null,"rating":0,"photo_url":null,"description":null,"www":null},{"place_id":"57251285","geometry":{"type":"Point","coordinates":[9.7872355,45.0474348]},"display_name":"I Dossi, Via Anna Solenghi, Le Mose, Piacenza, PC, EMR, Italia","category":"eating","type":"restaurant","importance":0.001,"icon":"http://nominatim.openstreetmap.org/images/mapicons/food_restaurant.p.20.png","visiting_time":60.0,"opening_hours":null,"opening_days":null,"rating":0,"photo_url":null,"description":null,"www":null},{"place_id":"20100041","geometry":{"type":"Point","coordinates":[9.653071,45.0549949]},"display_name":"Kikkosan, Via Emilia Pavese, San Antonio a Trebbia, Piacenza, PC, EMR, 29010, Italia","category":"eating","type":"restaurant","importance":0.001,"icon":"http://nominatim.openstreetmap.org/images/mapicons/food_restaurant.p.20.png","visiting_time":60.0,"opening_hours":null,"opening_days":null,"rating":0,"photo_url":null,"description":null,"www":null},{"place_id":"17773362","geometry":{"type":"Point","coordinates":[9.7190509,45.0388403]},"display_name":"CityWok, Via Daria Menicanti, Capitolo, Piacenza, PC, EMR, 29122, Italia","category":"eating","type":"restaurant","importance":0.001,"icon":"http://nominatim.openstreetmap.org/images/mapicons/food_restaurant.p.20.png","visiting_time":60.0,"opening_hours":null,"opening_days":null,"rating":0,"photo_url":null,"description":null,"www":null},{"place_id":"20406063","geometry":{"type":"Point","coordinates":[9.7172719,45.0405521]},"display_name":"Via Emilia Parmense, Capitolo, Piacenza, PC, EMR, 29122, Italia","category":"eating","type":"restaurant","importance":0.001,"icon":"http://nominatim.openstreetmap.org/images/mapicons/food_restaurant.p.20.png","visiting_time":60.0,"opening_hours":null,"opening_days":null,"rating":0,"photo_url":null,"description":null,"www":null},{"place_id":"113256058","geometry":{"type":"Point","coordinates":[9.674441789,45.0474809]},"display_name":"Via Antonio Emmanueli, Infrangibile, Piacenza, PC, EMR, 29100, Italia","category":"eating","type":"restaurant","importance":0.001,"icon":"http://nominatim.openstreetmap.org/images/mapicons/food_restaurant.p.20.png","visiting_time":60.0,"opening_hours":null,"opening_days":null,"rating":0,"photo_url":null,"description":null,"www":null},{"place_id":"20381966","geometry":{"type":"Point","coordinates":[9.7830136,45.0263908]},"display_name":"Antica Osteria, Via Ferdinando di Borbone, Montale, Piacenza, PC, EMR, 29010, Italia","category":"eating","type":"restaurant","importance":0.001,"icon":"http://nominatim.openstreetmap.org/images/mapicons/food_restaurant.p.20.png","visiting_time":60.0,"opening_hours":null,"opening_days":null,"rating":0,"photo_url":null,"description":null,"www":null},{"place_id":"19861518","geometry":{"type":"Point","coordinates":[9.7872314,45.0474415]},"display_name":"Osteria del Barbarossa, Via Anna Solenghi, Le Mose, Piacenza, PC, EMR, Italia","category":"eating","type":"restaurant","importance":0.001,"icon":"http://nominatim.openstreetmap.org/images/mapicons/food_restaurant.p.20.png","visiting_time":60.0,"opening_hours":null,"opening_days":null,"rating":0,"photo_url":null,"description":null,"www":null},{"place_id":"19913983","geometry":{"type":"Point","coordinates":[9.6573666,45.0544348]},"display_name":"Strada della Viggioletta, Veggioletta, Piacenza, PC, EMR, 29010, Italia","category":"eating","type":"restaurant","importance":0.001,"icon":"http://nominatim.openstreetmap.org/images/mapicons/food_restaurant.p.20.png","visiting_time":60.0,"opening_hours":null,"opening_days":null,"rating":0,"photo_url":null,"description":null,"www":null},{"place_id":"52619695","geometry":{"type":"Point","coordinates":[9.6980791,45.051666]},"display_name":"Tosello, Via Francesco Daveri, Baia del Re, Piacenza, PC, EMR, 29121, Italia","category":"eating","type":"restaurant","importance":0.001,"icon":"http://nominatim.openstreetmap.org/images/mapicons/food_restaurant.p.20.png","visiting_time":60.0,"opening_hours":null,"opening_days":null,"rating":0,"photo_url":null,"description":null,"www":null},{"place_id":"53529165","geometry":{"type":"Point","coordinates":[9.6688683,45.0543537]},"display_name":"Bella Napoli, Via Emilia Pavese, Infrangibile, Piacenza, PC, EMR, 29121, Italia","category":"eating","type":"restaurant","importance":0.001,"icon":"http://nominatim.openstreetmap.org/images/mapicons/food_restaurant.p.20.png","visiting_time":60.0,"opening_hours":null,"opening_days":null,"rating":0,"photo_url":null,"description":null,"www":null},{"place_id":"54206646","geometry":{"type":"Point","coordinates":[9.6890984,45.0491504]},"display_name":"FEN CUCINA, 179, Corso Vittorio Emanuele II, Infrangibile, Piacenza, PC, EMR, 29121, Italia","category":"eating","type":"restaurant","importance":0.001,"icon":"http://nominatim.openstreetmap.org/images/mapicons/food_restaurant.p.20.png","visiting_time":60.0,"opening_hours":null,"opening_days":null,"rating":0,"photo_url":null,"description":null,"www":null},{"place_id":"53655545","geometry":{"type":"Point","coordinates":[9.6936392,45.0531493]},"display_name":"Osvaldo, Galleria Borsa, Baia del Re, Piacenza, PC, EMR, 29121, Italia","category":"eating","type":"restaurant","importance":0.001,"icon":"http://nominatim.openstreetmap.org/images/mapicons/food_restaurant.p.20.png","visiting_time":60.0,"opening_hours":null,"opening_days":null,"rating":0,"photo_url":null,"description":null,"www":null},{"place_id":"91626054","geometry":{"type":"Point","coordinates":[9.712072853,45.034197]},"display_name":"Old Wild West, Parcheggio LIDL, Baia del Re, Piacenza, PC, EMR, 29122, Italia","category":"eating","type":"restaurant","importance":0.001,"icon":"http://nominatim.openstreetmap.org/images/mapicons/food_restaurant.p.20.png","visiting_time":60.0,"opening_hours":null,"opening_days":null,"rating":0,"photo_url":null,"description":null,"www":null},{"place_id":"52351798","geometry":{"type":"Point","coordinates":[9.7255783,45.0360741]},"display_name":"La Chiesetta, Via Emilia Parmense, Giarona, Piacenza, PC, EMR, 29122, Italia","category":"eating","type":"restaurant","importance":0.001,"icon":"http://nominatim.openstreetmap.org/images/mapicons/food_restaurant.p.20.png","visiting_time":60.0,"opening_hours":null,"opening_days":null,"rating":0,"photo_url":null,"description":null,"www":null},{"place_id":"60155880","geometry":{"type":"Point","coordinates":[9.724395,45.0144619]},"display_name":"SP6 - Strada Farnesiana, Giarona, Piacenza, PC, EMR, 29010, Italia","category":"eating","type":"restaurant","importance":0.001,"icon":"http://nominatim.openstreetmap.org/images/mapicons/food_restaurant.p.20.png","visiting_time":60.0,"opening_hours":null,"opening_days":null,"rating":0,"photo_url":null,"description":null,"www":null},{"place_id":"20122172","geometry":{"type":"Point","coordinates":[9.7548834,45.0399457]},"display_name":"Via Caorsana, Le Mose, Piacenza, PC, EMR, 29010, Italia","category":"eating","type":"restaurant","importance":0.001,"icon":"http://nominatim.openstreetmap.org/images/mapicons/food_restaurant.p.20.png","visiting_time":60.0,"opening_hours":null,"opening_days":null,"rating":0,"photo_url":null,"description":null,"www":null},{"place_id":"54543499","geometry":{"type":"Point","coordinates":[9.7031605,45.0433682]},"display_name":"Mamma Mia, Via Cesare Calciati, Baia del Re, Piacenza, PC, EMR, 29122, Italia","category":"eating","type":"restaurant","importance":0.001,"icon":"http://nominatim.openstreetmap.org/images/mapicons/food_restaurant.p.20.png","visiting_time":60.0,"opening_hours":null,"opening_days":null,"rating":0,"photo_url":null,"description":null,"www":null},{"place_id":"54473646","geometry":{"type":"Point","coordinates":[9.7235222,45.037301]},"display_name":"Pizzeria Il Grillo, Via Emilia Parmense, Giarona, Piacenza, PC, EMR, 29122, Italia","category":"eating","type":"restaurant","importance":0.001,"icon":"http://nominatim.openstreetmap.org/images/mapicons/food_restaurant.p.20.png","visiting_time":60.0,"opening_hours":null,"opening_days":null,"rating":0,"photo_url":null,"description":null,"www":null},{"place_id":"57249326","geometry":{"type":"Point","coordinates":[9.687992,45.0483555]},"display_name":"SoSushi, Corso Vittorio Emanuele II, Infrangibile, Piacenza, PC, EMR, 29121, Italia","category":"eating","type":"restaurant","importance":0.001,"icon":"http://nominatim.openstreetmap.org/images/mapicons/food_restaurant.p.20.png","visiting_time":60.0,"opening_hours":null,"opening_days":null,"rating":0,"photo_url":null,"description":null,"www":null},{"place_id":"53150370","geometry":{"type":"Point","coordinates":[9.6980035,45.0516126]},"display_name":"Movida, Via Francesco Daveri, Baia del Re, Piacenza, PC, EMR, 29121, Italia","category":"eating","type":"restaurant","importance":0.001,"icon":"http://nominatim.openstreetmap.org/images/mapicons/food_restaurant.p.20.png","visiting_time":60.0,"opening_hours":null,"opening_days":null,"rating":0,"photo_url":null,"description":null,"www":null},{"place_id":"53864998","geometry":{"type":"Point","coordinates":[9.6728317,45.0544668]},"display_name":"Bella Napoli 2, Via Emilia Pavese, Infrangibile, Piacenza, PC, EMR, 29121, Italia","category":"eating","type":"restaurant","importance":0.001,"icon":"http://nominatim.openstreetmap.org/images/mapicons/food_restaurant.p.20.png","visiting_time":60.0,"opening_hours":null,"opening_days":null,"rating":0,"photo_url":null,"description":null,"www":null},{"place_id":"19014436","geometry":{"type":"Point","coordinates":[9.7239994,45.0367035]},"display_name":"University Kebab, Via Emilia Parmense, Giarona, Piacenza, PC, EMR, 29122, Italia","category":"eating","type":"restaurant","importance":0.001,"icon":"http://nominatim.openstreetmap.org/images/mapicons/food_restaurant.p.20.png","visiting_time":60.0,"opening_hours":null,"opening_days":null,"rating":0,"photo_url":null,"description":null,"www":null},{"place_id":"41962687","geometry":{"type":"Point","coordinates":[9.6562023,45.0524038]},"display_name":"Pizzeria Dai Marchesi, 14, Via Donnino Bentelli, Veggioletta, Piacenza, PC, EMR, 29121, Italia","category":"eating","type":"restaurant","importance":0.001,"icon":"http://nominatim.openstreetmap.org/images/mapicons/food_restaurant.p.20.png","visiting_time":60.0,"opening_hours":null,"opening_days":null,"rating":0,"photo_url":null,"description":null,"www":null},{"place_id":"54035130","geometry":{"type":"Point","coordinates":[9.6881385,45.0482881]},"display_name":"Pizzeria MareChiaro, Corso Vittorio Emanuele II, Infrangibile, Piacenza, PC, EMR, 29121, Italia","category":"eating","type":"restaurant","importance":0.001,"icon":"http://nominatim.openstreetmap.org/images/mapicons/food_restaurant.p.20.png","visiting_time":60.0,"opening_hours":null,"opening_days":null,"rating":0,"photo_url":null,"description":null,"www":null},{"place_id":"160743623","geometry":{"type":"Point","coordinates":[9.687333082,45.04679235]},"display_name":"Old Faxhall, Viale passeggio pubblico, Baia del Re, Piacenza, PC, EMR, 29121, Italia","category":"eating","type":"restaurant","importance":0.001,"icon":"http://nominatim.openstreetmap.org/images/mapicons/food_restaurant.p.20.png","visiting_time":60.0,"opening_hours":null,"opening_days":null,"rating":0,"photo_url":null,"description":null,"www":null},{"place_id":"52624233","geometry":{"type":"Point","coordinates":[9.6953111,45.0518017]},"display_name":"Carducci, Via Giosuè Carducci, Baia del Re, Piacenza, PC, EMR, 29121, Italia","category":"eating","type":"restaurant","importance":0.001,"icon":"http://nominatim.openstreetmap.org/images/mapicons/food_restaurant.p.20.png","visiting_time":60.0,"opening_hours":null,"opening_days":null,"rating":0,"photo_url":null,"description":null,"www":null},{"place_id":"53533416","geometry":{"type":"Point","coordinates":[9.6719706,45.0083937]},"display_name":"Strada Statale di Val Trebbia, Besurica, Piacenza, PC, EMR, 29100, Italia","category":"eating","type":"restaurant","importance":0.001,"icon":"http://nominatim.openstreetmap.org/images/mapicons/food_restaurant.p.20.png","visiting_time":60.0,"opening_hours":null,"opening_days":null,"rating":0,"photo_url":null,"description":null,"www":null},{"place_id":"20228296","geometry":{"type":"Point","coordinates":[9.7562445,45.079747]},"display_name":"Strada di Mortizza, Ca' Buzzone Stanga, La Baracca, Piacenza, PC, EMR, 26849, Italia","category":"eating","type":"restaurant","importance":0.001,"icon":"http://nominatim.openstreetmap.org/images/mapicons/food_restaurant.p.20.png","visiting_time":60.0,"opening_hours":null,"opening_days":null,"rating":0,"photo_url":null,"description":null,"www":null},{"place_id":"60799818","geometry":{"type":"Point","coordinates":[9.6923188,45.0527258]},"display_name":"Piazza dei Cavalli, Baia del Re, Piacenza, PC, EMR, 29121, Italia","category":"eating","type":"restaurant","importance":0.001,"icon":"http://nominatim.openstreetmap.org/images/mapicons/food_restaurant.p.20.png","visiting_time":60.0,"opening_hours":null,"opening_days":null,"rating":0,"photo_url":null,"description":null,"www":null},{"place_id":"20421088","geometry":{"type":"Point","coordinates":[9.7704412,45.0383843]},"display_name":"croce grossa, Strada Provinciale 10R Padana Inferiore, Le Mose, Piacenza, PC, EMR, 29010, Italia","category":"eating","type":"restaurant","importance":0.001,"icon":"http://nominatim.openstreetmap.org/images/mapicons/food_restaurant.p.20.png","visiting_time":60.0,"opening_hours":null,"opening_days":null,"rating":0,"photo_url":null,"description":null,"www":null},{"place_id":"53484282","geometry":{"type":"Point","coordinates":[9.6871743,45.047609]},"display_name":"Corso Vittorio Emanuele II, Infrangibile, Piacenza, PC, EMR, 29121, Italia","category":"eating","type":"restaurant","importance":0.001,"icon":"http://nominatim.openstreetmap.org/images/mapicons/food_restaurant.p.20.png","visiting_time":60.0,"opening_hours":null,"opening_days":null,"rating":0,"photo_url":null,"description":null,"www":null},{"place_id":"41740720","geometry":{"type":"Point","coordinates":[9.6599942,45.0541297]},"display_name":"Ristorante Asia, 7, Via Atleti Azzurri d'Italia, Veggioletta, Piacenza, PC, EMR, 29121, Italia","category":"eating","type":"restaurant","importance":0.001,"icon":"http://nominatim.openstreetmap.org/images/mapicons/food_restaurant.p.20.png","visiting_time":60.0,"opening_hours":null,"opening_days":null,"rating":0,"photo_url":null,"description":null,"www":null},{"place_id":"53207901","geometry":{"type":"Point","coordinates":[9.6841976,45.0389744]},"display_name":"IMO, Via Giuseppe Manfredi, Infrangibile, Piacenza, PC, EMR, 29121, Italia","category":"eating","type":"restaurant","importance":0.001,"icon":"http://nominatim.openstreetmap.org/images/mapicons/food_restaurant.p.20.png","visiting_time":60.0,"opening_hours":null,"opening_days":null,"rating":0,"photo_url":null,"description":null,"www":null},{"place_id":"52072824","geometry":{"type":"Point","coordinates":[9.6799318,45.109765]},"display_name":"taverna del gallo, Via Alessandro Manzoni, Cascina Le Quaglie, Guardamiglio, LO, LOM, 26862, Italia","category":"eating","type":"restaurant","importance":0.001,"icon":"http://nominatim.openstreetmap.org/images/mapicons/food_restaurant.p.20.png","visiting_time":60.0,"opening_hours":null,"opening_days":null,"rating":0,"photo_url":null,"description":null,"www":null},{"place_id":"57801395","geometry":{"type":"Point","coordinates":[9.788969,44.9925955]},"display_name":"Pizzeria Capri, Via Alessandro Colombi, Pontenure, PC, EMR, Italia","category":"eating","type":"restaurant","importance":0.001,"icon":"http://nominatim.openstreetmap.org/images/mapicons/food_restaurant.p.20.png","visiting_time":60.0,"opening_hours":null,"opening_days":null,"rating":0,"photo_url":null,"description":null,"www":null},{"place_id":"110061479","geometry":{"type":"Point","coordinates":[9.79060048,45.001955]},"display_name":"L'Angolo, Via della Stazione, Pontenure, PC, EMR, Italia","category":"eating","type":"restaurant","importance":0.001,"icon":"http://nominatim.openstreetmap.org/images/mapicons/food_restaurant.p.20.png","visiting_time":60.0,"opening_hours":null,"opening_days":null,"rating":0,"photo_url":null,"description":null,"www":null},{"place_id":"59264039","geometry":{"type":"Point","coordinates":[9.7887136,44.9998034]},"display_name":"Pizzeria Positano, Piazza tre Martiri, Pontenure, PC, EMR, Italia","category":"eating","type":"restaurant","importance":0.001,"icon":"http://nominatim.openstreetmap.org/images/mapicons/food_restaurant.p.20.png","visiting_time":60.0,"opening_hours":null,"opening_days":null,"rating":0,"photo_url":null,"description":null,"www":null},{"place_id":"41140484","geometry":{"type":"Point","coordinates":[9.6049984,45.0432259]},"display_name":"La Noce, SP7; SP11, Borghesa Nuova, Rottofreno, PC, EMR, 29010, Italia","category":"eating","type":"restaurant","importance":0.001,"icon":"http://nominatim.openstreetmap.org/images/mapicons/food_restaurant.p.20.png","visiting_time":60.0,"opening_hours":null,"opening_days":null,"rating":0,"photo_url":null,"description":null,"www":null},{"place_id":"61009839","geometry":{"type":"Point","coordinates":[9.6660223,44.9964774]},"display_name":"Astra 2, Strada Statale di Val Trebbia, Gossolengo, PC, EMR, 29027, Italia","category":"eating","type":"restaurant","importance":0.001,"icon":"http://nominatim.openstreetmap.org/images/mapicons/food_restaurant.p.20.png","visiting_time":60.0,"opening_hours":null,"opening_days":null,"rating":0,"photo_url":null,"description":null,"www":null},{"place_id":"20183555","geometry":{"type":"Point","coordinates":[9.6140613,44.9998626]},"display_name":"La Vecchia Pergola, Via Giacomo Matteotti, Gossolengo, PC, EMR, 29010, Italia","category":"eating","type":"restaurant","importance":0.001,"icon":"http://nominatim.openstreetmap.org/images/mapicons/food_restaurant.p.20.png","visiting_time":60.0,"opening_hours":null,"opening_days":null,"rating":0,"photo_url":null,"description":null,"www":null},{"place_id":"61000112","geometry":{"type":"Point","coordinates":[9.6650674,44.995837]},"display_name":"MondoPizza, Via Terracini, Gossolengo, PC, EMR, 29027, Italia","category":"eating","type":"restaurant","importance":0.001,"icon":"http://nominatim.openstreetmap.org/images/mapicons/food_restaurant.p.20.png","visiting_time":60.0,"opening_hours":null,"opening_days":null,"rating":0,"photo_url":null,"description":null,"www":null},{"place_id":"18424953","geometry":{"type":"Point","coordinates":[9.6987012,45.0792074]},"display_name":"La Conchiglia, Via Emilia, Maruffi, San Rocco al Porto, LO, LOM, 26865, Italia","category":"eating","type":"restaurant","importance":0.001,"icon":"http://nominatim.openstreetmap.org/images/mapicons/food_restaurant.p.20.png","visiting_time":60.0,"opening_hours":null,"opening_days":null,"rating":0,"photo_url":null,"description":null,"www":null},{"place_id":"54299788","geometry":{"type":"Point","coordinates":[9.7252215,45.0917102]},"display_name":"Trattoria dell'angelo, Via Giovanni XXIII, Cascina Casino, San Rocco al Porto, LO, LOM, 26865, Italia","category":"eating","type":"restaurant","importance":0.001,"icon":"http://nominatim.openstreetmap.org/images/mapicons/food_restaurant.p.20.png","visiting_time":60.0,"opening_hours":null,"opening_days":null,"rating":0,"photo_url":null,"description":null,"www":null},{"place_id":"180062094","geometry":{"type":"Point","coordinates":[9.613773027,45.0036641]},"display_name":"Via Guglielmo Marconi, Gossolengo, PC, EMR, 29010, Italia","category":"attractions","type":"castle","importance":0.001,"icon":"http://nominatim.openstreetmap.org/images/mapicons/tourist_castle.p.20.png","visiting_time":120.0,"opening_hours":null,"opening_days":null,"rating":0,"photo_url":null,"description":null,"www":null},{"place_id":"111813883","geometry":{"type":"Point","coordinates":[9.688721708,45.0476994]},"display_name":"Stradone Farnese, Infrangibile, Piacenza, PC, EMR, 29121, Italia","category":"attractions","type":"ruins","importance":0.001,"icon":"http://nominatim.openstreetmap.org/images/mapicons/tourist_ruin.p.20.png","visiting_time":30.0,"opening_hours":null,"opening_days":null,"rating":0,"photo_url":null,"description":null,"www":null},{"place_id":"54132282","geometry":{"type":"Point","coordinates":[9.6842577,45.0362098]},"display_name":"American Bar, Via Giuseppe Manfredi, Baia del Re, Piacenza, PC, EMR, 29100, Italia","category":"lifestyle","type":"pub","importance":0.101,"icon":"http://nominatim.openstreetmap.org/images/mapicons/food_pub.p.20.png","visiting_time":10.0,"opening_hours":null,"opening_days":null,"rating":0,"photo_url":null,"description":null,"www":null},{"place_id":"53829647","geometry":{"type":"Point","coordinates":[9.6724508,45.0450457]},"display_name":"Bar Museum Tavern Pub, 68, Via Pietro Cella, Infrangibile, Piacenza, PC, EMR, 29121, Italia","category":"lifestyle","type":"pub","importance":0.101,"icon":"http://nominatim.openstreetmap.org/images/mapicons/food_pub.p.20.png","visiting_time":10.0,"opening_hours":null,"opening_days":null,"rating":0,"photo_url":null,"description":null,"www":null},{"place_id":"53655553","geometry":{"type":"Point","coordinates":[9.6927297,45.051807]},"display_name":"Barino, Corso Vittorio Emanuele II, Baia del Re, Piacenza, PC, EMR, 29121, Italia","category":"lifestyle","type":"pub","importance":0.101,"icon":"http://nominatim.openstreetmap.org/images/mapicons/food_pub.p.20.png","visiting_time":10.0,"opening_hours":null,"opening_days":null,"rating":0,"photo_url":null,"description":null,"www":null},{"place_id":"53281685","geometry":{"type":"Point","coordinates":[9.6922927,45.0519775]},"display_name":"Vicolo Bartolomeo Perestrello, Baia del Re, Piacenza, PC, EMR, 29121, Italia","category":"lifestyle","type":"pub","importance":0.101,"icon":"http://nominatim.openstreetmap.org/images/mapicons/food_pub.p.20.png","visiting_time":10.0,"opening_hours":null,"opening_days":null,"rating":0,"photo_url":null,"description":null,"www":null},{"place_id":"40600442","geometry":{"type":"Point","coordinates":[9.6715204,45.0456728]},"display_name":"Bar Junior, 65, Via Pietro Cella, Infrangibile, Piacenza, PC, EMR, 29121, Italia","category":"lifestyle","type":"bar","importance":0.101,"icon":"http://nominatim.openstreetmap.org/images/mapicons/food_bar.p.20.png","visiting_time":10.0,"opening_hours":null,"opening_days":null,"rating":0,"photo_url":null,"description":null,"www":null},{"place_id":"53718808","geometry":{"type":"Point","coordinates":[9.6875288,45.0478648]},"display_name":"Bar Simona, 212, Corso Vittorio Emanuele II, Infrangibile, Piacenza, PC, EMR, 29121, Italia","category":"lifestyle","type":"bar","importance":0.101,"icon":"http://nominatim.openstreetmap.org/images/mapicons/food_bar.p.20.png","visiting_time":10.0,"opening_hours":null,"opening_days":null,"rating":0,"photo_url":null,"description":null,"www":null},{"place_id":"54622488","geometry":{"type":"Point","coordinates":[9.6937158,45.0524047]},"display_name":"Dado Bar, Piazza dei Cavalli, Baia del Re, Piacenza, PC, EMR, 29121, Italia","category":"lifestyle","type":"bar","importance":0.101,"icon":"http://nominatim.openstreetmap.org/images/mapicons/food_bar.p.20.png","visiting_time":10.0,"opening_hours":null,"opening_days":null,"rating":0,"photo_url":null,"description":null,"www":null},{"place_id":"154799785","geometry":{"type":"Point","coordinates":[9.70936775,45.0477849]},"display_name":"Baracchino, Via dei Pisoni, Baia del Re, Piacenza, PC, EMR, 29122, Italia","category":"lifestyle","type":"bar","importance":0.101,"icon":"http://nominatim.openstreetmap.org/images/mapicons/food_bar.p.20.png","visiting_time":10.0,"opening_hours":null,"opening_days":null,"rating":0,"photo_url":null,"description":null,"www":null},{"place_id":"53154729","geometry":{"type":"Point","coordinates":[9.6879774,45.0465263]},"display_name":"Old Faxhall, Viale passeggio pubblico, Baia del Re, Piacenza, PC, EMR, 29121, Italia","category":"lifestyle","type":"pub","importance":0.001,"icon":"http://nominatim.openstreetmap.org/images/mapicons/food_pub.p.20.png","visiting_time":10.0,"opening_hours":null,"opening_days":null,"rating":0,"photo_url":null,"description":null,"www":null},{"place_id":"57176855","geometry":{"type":"Point","coordinates":[9.7213092,45.0329327]},"display_name":"Taverna HerGardellen, 33, Via Divisione Partigiana Piacenza, Giarona, Piacenza, PC, EMR, 29122, Italia","category":"lifestyle","type":"pub","importance":0.001,"icon":"http://nominatim.openstreetmap.org/images/mapicons/food_pub.p.20.png","visiting_time":10.0,"opening_hours":null,"opening_days":null,"rating":0,"photo_url":null,"description":null,"www":null},{"place_id":"53447532","geometry":{"type":"Point","coordinates":[9.6931771,45.051504]},"display_name":"Living Art, Via San Donnino, Baia del Re, Piacenza, PC, EMR, 29121, Italia","category":"lifestyle","type":"pub","importance":0.001,"icon":"http://nominatim.openstreetmap.org/images/mapicons/food_pub.p.20.png","visiting_time":10.0,"opening_hours":null,"opening_days":null,"rating":0,"photo_url":null,"description":null,"www":null},{"place_id":"54123375","geometry":{"type":"Point","coordinates":[9.6923712,45.0375939]},"display_name":"Birreria Schnauzer, 16, Via Morazzone, Baia del Re, Piacenza, PC, EMR, 29122, Italia","category":"lifestyle","type":"pub","importance":0.001,"icon":"http://nominatim.openstreetmap.org/images/mapicons/food_pub.p.20.png","visiting_time":10.0,"opening_hours":null,"opening_days":null,"rating":0,"photo_url":null,"description":null,"www":null},{"place_id":"52442210","geometry":{"type":"Point","coordinates":[9.687192,45.0391194]},"display_name":"Birreria Christiania, Via Giovanni Raineri, Baia del Re, Piacenza, PC, EMR, 29122, Italia","category":"lifestyle","type":"pub","importance":0.001,"icon":"http://nominatim.openstreetmap.org/images/mapicons/food_pub.p.20.png","visiting_time":10.0,"opening_hours":null,"opening_days":null,"rating":0,"photo_url":null,"description":null,"www":null},{"place_id":"160145632","geometry":{"type":"Point","coordinates":[9.687248884,45.04504545]},"display_name":"Skiatos, 23, Via Aurelio Nicolodi, Infrangibile, Piacenza, PC, EMR, 29122, Italia","category":"lifestyle","type":"pub","importance":0.001,"icon":"http://nominatim.openstreetmap.org/images/mapicons/food_pub.p.20.png","visiting_time":10.0,"opening_hours":null,"opening_days":null,"rating":0,"photo_url":null,"description":null,"www":null},{"place_id":"53656607","geometry":{"type":"Point","coordinates":[9.6762219,45.0539167]},"display_name":"Blue Factory, Via Francesco Appiani, Infrangibile, Piacenza, PC, EMR, 29100, Italia","category":"lifestyle","type":"pub","importance":0.001,"icon":"http://nominatim.openstreetmap.org/images/mapicons/food_pub.p.20.png","visiting_time":10.0,"opening_hours":null,"opening_days":null,"rating":0,"photo_url":null,"description":null,"www":null},{"place_id":"53449674","geometry":{"type":"Point","coordinates":[9.6917637,45.0491967]},"display_name":"Irish Pub, Via San Siro, Baia del Re, Piacenza, PC, EMR, 29121, Italia","category":"lifestyle","type":"pub","importance":0.001,"icon":"http://nominatim.openstreetmap.org/images/mapicons/food_pub.p.20.png","visiting_time":10.0,"opening_hours":null,"opening_days":null,"rating":0,"photo_url":null,"description":null,"www":null},{"place_id":"53963144","geometry":{"type":"Point","coordinates":[9.6883855,45.0454213]},"display_name":"Via 4 novembre, Baia del Re, Piacenza, PC, EMR, 29121, Italia","category":"lifestyle","type":"pub","importance":0.001,"icon":"http://nominatim.openstreetmap.org/images/mapicons/food_pub.p.20.png","visiting_time":10.0,"opening_hours":null,"opening_days":null,"rating":0,"photo_url":null,"description":null,"www":null},{"place_id":"54290900","geometry":{"type":"Point","coordinates":[9.6840941,45.0377776]},"display_name":"Movida, Via Giuseppe Manfredi, Infrangibile, Piacenza, PC, EMR, 29122, Italia","category":"lifestyle","type":"pub","importance":0.001,"icon":"http://nominatim.openstreetmap.org/images/mapicons/food_pub.p.20.png","visiting_time":10.0,"opening_hours":null,"opening_days":null,"rating":0,"photo_url":null,"description":null,"www":null},{"place_id":"53656628","geometry":{"type":"Point","coordinates":[9.6801409,45.0537689]},"display_name":"La Scimmia Pazza, Viale Malta, Infrangibile, Piacenza, PC, EMR, 29121, Italia","category":"lifestyle","type":"pub","importance":0.001,"icon":"http://nominatim.openstreetmap.org/images/mapicons/food_pub.p.20.png","visiting_time":10.0,"opening_hours":null,"opening_days":null,"rating":0,"photo_url":null,"description":null,"www":null},{"place_id":"53655542","geometry":{"type":"Point","coordinates":[9.6939432,45.0524983]},"display_name":"Caffè Italia, Via XX Settembre, Baia del Re, Piacenza, PC, EMR, 29121, Italia","category":"lifestyle","type":"bar","importance":0.001,"icon":"http://nominatim.openstreetmap.org/images/mapicons/food_bar.p.20.png","visiting_time":10.0,"opening_hours":null,"opening_days":null,"rating":0,"photo_url":null,"description":null,"www":null},{"place_id":"52723539","geometry":{"type":"Point","coordinates":[9.6913458,45.0507866]},"display_name":"Corso Vittorio Emanuele II, Baia del Re, Piacenza, PC, EMR, 29121, Italia","category":"lifestyle","type":"bar","importance":0.001,"icon":"http://nominatim.openstreetmap.org/images/mapicons/food_bar.p.20.png","visiting_time":10.0,"opening_hours":null,"opening_days":null,"rating":0,"photo_url":null,"description":null,"www":null},{"place_id":"52466361","geometry":{"type":"Point","coordinates":[9.6886176,45.0487686]},"display_name":"Corso Vittorio Emanuele II, Infrangibile, Piacenza, PC, EMR, 29121, Italia","category":"lifestyle","type":"bar","importance":0.001,"icon":"http://nominatim.openstreetmap.org/images/mapicons/food_bar.p.20.png","visiting_time":10.0,"opening_hours":null,"opening_days":null,"rating":0,"photo_url":null,"description":null,"www":null},{"place_id":"20082007","geometry":{"type":"Point","coordinates":[9.6465032,45.0548875]},"display_name":"Via Antonio Carini, San Antonio a Trebbia, Piacenza, PC, EMR, 29010, Italia","category":"lifestyle","type":"bar","importance":0.001,"icon":"http://nominatim.openstreetmap.org/images/mapicons/food_bar.p.20.png","visiting_time":10.0,"opening_hours":null,"opening_days":null,"rating":0,"photo_url":null,"description":null,"www":null},{"place_id":"54719429","geometry":{"type":"Point","coordinates":[9.6871073,45.039002]},"display_name":"Cafè Blanco, 14, Via Rodolfo Boselli, Baia del Re, Piacenza, PC, EMR, 29122, Italia","category":"lifestyle","type":"bar","importance":0.001,"icon":"http://nominatim.openstreetmap.org/images/mapicons/food_bar.p.20.png","visiting_time":10.0,"opening_hours":null,"opening_days":null,"rating":0,"photo_url":null,"description":null,"www":null},{"place_id":"54472437","geometry":{"type":"Point","coordinates":[9.7034186,45.0457997]},"display_name":"Piazzale della Libertà, Baia del Re, Piacenza, PC, EMR, 29122, Italia","category":"lifestyle","type":"bar","importance":0.001,"icon":"http://nominatim.openstreetmap.org/images/mapicons/food_bar.p.20.png","visiting_time":10.0,"opening_hours":null,"opening_days":null,"rating":0,"photo_url":null,"description":null,"www":null},{"place_id":"135189094","geometry":{"type":"Point","coordinates":[9.6528744,45.060649]},"display_name":"Chef Express, Trebbia Sud, San Antonio a Trebbia, Piacenza, PC, EMR, 29010, Italia","category":"lifestyle","type":"bar","importance":0.001,"icon":"http://nominatim.openstreetmap.org/images/mapicons/food_bar.p.20.png","visiting_time":10.0,"opening_hours":null,"opening_days":null,"rating":0,"photo_url":null,"description":null,"www":null},{"place_id":"54734474","geometry":{"type":"Point","coordinates":[9.6962705,45.0509995]},"display_name":"Via 20 settembre, Baia del Re, Piacenza, PC, EMR, 29121, Italia","category":"lifestyle","type":"bar","importance":0.001,"icon":"http://nominatim.openstreetmap.org/images/mapicons/food_bar.p.20.png","visiting_time":10.0,"opening_hours":null,"opening_days":null,"rating":0,"photo_url":null,"description":null,"www":null},{"place_id":"160380930","geometry":{"type":"Point","coordinates":[9.678543602,45.0444389]},"display_name":"Via Giovanni Campesio, Infrangibile, Piacenza, PC, EMR, 29100, Italia","category":"lifestyle","type":"bar","importance":0.001,"icon":"http://nominatim.openstreetmap.org/images/mapicons/food_bar.p.20.png","visiting_time":10.0,"opening_hours":null,"opening_days":null,"rating":0,"photo_url":null,"description":null,"www":null},{"place_id":"53971176","geometry":{"type":"Point","coordinates":[9.68674,45.050075]},"display_name":"Via Venturini, Infrangibile, Piacenza, PC, EMR, 29121, Italia","category":"lifestyle","type":"bar","importance":0.001,"icon":"http://nominatim.openstreetmap.org/images/mapicons/food_bar.p.20.png","visiting_time":10.0,"opening_hours":null,"opening_days":null,"rating":0,"photo_url":null,"description":null,"www":null},{"place_id":"53081155","geometry":{"type":"Point","coordinates":[9.7308221,45.0256011]},"display_name":"Tangenziale di Piacenza, Giarona, Piacenza, PC, EMR, 29010, Italia","category":"lifestyle","type":"bar","importance":0.001,"icon":"http://nominatim.openstreetmap.org/images/mapicons/food_bar.p.20.png","visiting_time":10.0,"opening_hours":null,"opening_days":null,"rating":0,"photo_url":null,"description":null,"www":null},{"place_id":"54744697","geometry":{"type":"Point","coordinates":[9.7319414,45.0325379]},"display_name":"Via Emilia Parmense, Giarona, Piacenza, PC, EMR, 29010, Italia","category":"lifestyle","type":"bar","importance":0.001,"icon":"http://nominatim.openstreetmap.org/images/mapicons/food_bar.p.20.png","visiting_time":10.0,"opening_hours":null,"opening_days":null,"rating":0,"photo_url":null,"description":null,"www":null},{"place_id":"92977497","geometry":{"type":"Point","coordinates":[9.70116535,45.05714025]},"display_name":"Golosia, Viale Sant'Ambrogio, Baia del Re, Piacenza, PC, EMR, 29121, Italia","category":"lifestyle","type":"bar","importance":0.001,"icon":"http://nominatim.openstreetmap.org/images/mapicons/food_bar.p.20.png","visiting_time":10.0,"opening_hours":null,"opening_days":null,"rating":0,"photo_url":null,"description":null,"www":null},{"place_id":"53479792","geometry":{"type":"Point","coordinates":[9.6920258,45.0524817]},"display_name":"Via Gerolamo Illica, Baia del Re, Piacenza, PC, EMR, 29121, Italia","category":"lifestyle","type":"bar","importance":0.001,"icon":"http://nominatim.openstreetmap.org/images/mapicons/food_bar.p.20.png","visiting_time":10.0,"opening_hours":null,"opening_days":null,"rating":0,"photo_url":null,"description":null,"www":null},{"place_id":"161195479","geometry":{"type":"Point","coordinates":[9.690219845,45.04562685]},"display_name":"Viale passeggio pubblico, Baia del Re, Piacenza, PC, EMR, 29122, Italia","category":"lifestyle","type":"bar","importance":0.001,"icon":"http://nominatim.openstreetmap.org/images/mapicons/food_bar.p.20.png","visiting_time":10.0,"opening_hours":null,"opening_days":null,"rating":0,"photo_url":null,"description":null,"www":null},{"place_id":"53370980","geometry":{"type":"Point","coordinates":[9.6876069,45.0412854]},"display_name":"Via Giovanni Raineri, Baia del Re, Piacenza, PC, EMR, 29121, Italia","category":"lifestyle","type":"bar","importance":0.001,"icon":"http://nominatim.openstreetmap.org/images/mapicons/food_bar.p.20.png","visiting_time":10.0,"opening_hours":null,"opening_days":null,"rating":0,"photo_url":null,"description":null,"www":null},{"place_id":"61414460","geometry":{"type":"Point","coordinates":[9.6921443,45.0526733]},"display_name":"Via Calzolai, Baia del Re, Piacenza, PC, EMR, 29121, Italia","category":"lifestyle","type":"bar","importance":0.001,"icon":"http://nominatim.openstreetmap.org/images/mapicons/food_bar.p.20.png","visiting_time":10.0,"opening_hours":null,"opening_days":null,"rating":0,"photo_url":null,"description":null,"www":null},{"place_id":"54066249","geometry":{"type":"Point","coordinates":[9.6916392,45.0509542]},"display_name":"Galetti, Corso Vittorio Emanuele II, Baia del Re, Piacenza, PC, EMR, 29121, Italia","category":"lifestyle","type":"bar","importance":0.001,"icon":"http://nominatim.openstreetmap.org/images/mapicons/food_bar.p.20.png","visiting_time":10.0,"opening_hours":null,"opening_days":null,"rating":0,"photo_url":null,"description":null,"www":null},{"place_id":"53541156","geometry":{"type":"Point","coordinates":[9.6875875,45.0457644]},"display_name":"Cheope, Via 4 novembre, Baia del Re, Piacenza, PC, EMR, 29121, Italia","category":"lifestyle","type":"bar","importance":0.001,"icon":"http://nominatim.openstreetmap.org/images/mapicons/food_bar.p.20.png","visiting_time":10.0,"opening_hours":null,"opening_days":null,"rating":0,"photo_url":null,"description":null,"www":null},{"place_id":"112478270","geometry":{"type":"Point","coordinates":[9.68292845,45.03264065]},"display_name":"Via Giuseppe Manfredi, Baia del Re, Piacenza, PC, EMR, 29100, Italia","category":"lifestyle","type":"bar","importance":0.001,"icon":"http://nominatim.openstreetmap.org/images/mapicons/food_bar.p.20.png","visiting_time":10.0,"opening_hours":null,"opening_days":null,"rating":0,"photo_url":null,"description":null,"www":null},{"place_id":"54735856","geometry":{"type":"Point","coordinates":[9.7021882,45.0479272]},"display_name":"Via Gianbattista Scalabrini, Baia del Re, Piacenza, PC, EMR, 29122, Italia","category":"lifestyle","type":"bar","importance":0.001,"icon":"http://nominatim.openstreetmap.org/images/mapicons/food_bar.p.20.png","visiting_time":10.0,"opening_hours":null,"opening_days":null,"rating":0,"photo_url":null,"description":null,"www":null},{"place_id":"53370995","geometry":{"type":"Point","coordinates":[9.6869098,45.0422526]},"display_name":"Viale Dante Alighieri, Baia del Re, Piacenza, PC, EMR, 29121, Italia","category":"lifestyle","type":"bar","importance":0.001,"icon":"http://nominatim.openstreetmap.org/images/mapicons/food_bar.p.20.png","visiting_time":10.0,"opening_hours":null,"opening_days":null,"rating":0,"photo_url":null,"description":null,"www":null},{"place_id":"54445811","geometry":{"type":"Point","coordinates":[9.7025588,45.0461459]},"display_name":"Stradone Farnese, Baia del Re, Piacenza, PC, EMR, 29121, Italia","category":"lifestyle","type":"bar","importance":0.001,"icon":"http://nominatim.openstreetmap.org/images/mapicons/food_bar.p.20.png","visiting_time":10.0,"opening_hours":null,"opening_days":null,"rating":0,"photo_url":null,"description":null,"www":null},{"place_id":"112016579","geometry":{"type":"Point","coordinates":[9.687082493,45.0358823]},"display_name":"Via Emilio Ottolenghi, Baia del Re, Piacenza, PC, EMR, 29100, Italia","category":"lifestyle","type":"bar","importance":0.001,"icon":"http://nominatim.openstreetmap.org/images/mapicons/food_bar.p.20.png","visiting_time":10.0,"opening_hours":null,"opening_days":null,"rating":0,"photo_url":null,"description":null,"www":null},{"place_id":"54532343","geometry":{"type":"Point","coordinates":[9.6975067,45.0511416]},"display_name":"Piazza Duomo, Baia del Re, Piacenza, PC, EMR, 29121, Italia","category":"lifestyle","type":"bar","importance":0.001,"icon":"http://nominatim.openstreetmap.org/images/mapicons/food_bar.p.20.png","visiting_time":10.0,"opening_hours":null,"opening_days":null,"rating":0,"photo_url":null,"description":null,"www":null},{"place_id":"17799574","geometry":{"type":"Point","coordinates":[9.718904,45.0389764]},"display_name":"Linos Coffee, Via Daria Menicanti, Capitolo, Piacenza, PC, EMR, 29122, Italia","category":"lifestyle","type":"bar","importance":0.001,"icon":"http://nominatim.openstreetmap.org/images/mapicons/food_bar.p.20.png","visiting_time":10.0,"opening_hours":null,"opening_days":null,"rating":0,"photo_url":null,"description":null,"www":null},{"place_id":"53512008","geometry":{"type":"Point","coordinates":[9.689632,45.0494752]},"display_name":"Tobia, Corso Vittorio Emanuele II, Baia del Re, Piacenza, PC, EMR, 29121, Italia","category":"lifestyle","type":"bar","importance":0.001,"icon":"http://nominatim.openstreetmap.org/images/mapicons/food_bar.p.20.png","visiting_time":10.0,"opening_hours":null,"opening_days":null,"rating":0,"photo_url":null,"description":null,"www":null},{"place_id":"53981475","geometry":{"type":"Point","coordinates":[9.6871239,45.0473319]},"display_name":"Viale passeggio pubblico, Baia del Re, Piacenza, PC, EMR, 29121, Italia","category":"lifestyle","type":"bar","importance":0.001,"icon":"http://nominatim.openstreetmap.org/images/mapicons/food_bar.p.20.png","visiting_time":10.0,"opening_hours":null,"opening_days":null,"rating":0,"photo_url":null,"description":null,"www":null},{"place_id":"52466538","geometry":{"type":"Point","coordinates":[9.6799352,45.0425014]},"display_name":"Via Vittorio Veneto, Infrangibile, Piacenza, PC, EMR, 29100, Italia","category":"lifestyle","type":"bar","importance":0.001,"icon":"http://nominatim.openstreetmap.org/images/mapicons/food_bar.p.20.png","visiting_time":10.0,"opening_hours":null,"opening_days":null,"rating":0,"photo_url":null,"description":null,"www":null},{"place_id":"53281681","geometry":{"type":"Point","coordinates":[9.6933419,45.0514405]},"display_name":"Centrale, Via San Donnino, Baia del Re, Piacenza, PC, EMR, 29121, Italia","category":"lifestyle","type":"bar","importance":0.001,"icon":"http://nominatim.openstreetmap.org/images/mapicons/food_bar.p.20.png","visiting_time":10.0,"opening_hours":null,"opening_days":null,"rating":0,"photo_url":null,"description":null,"www":null},{"place_id":"53525633","geometry":{"type":"Point","coordinates":[9.6739696,45.0478122]},"display_name":"Madison, Via Antonio Emmanueli, Infrangibile, Piacenza, PC, EMR, 29100, Italia","category":"lifestyle","type":"bar","importance":0.001,"icon":"http://nominatim.openstreetmap.org/images/mapicons/food_bar.p.20.png","visiting_time":10.0,"opening_hours":null,"opening_days":null,"rating":0,"photo_url":null,"description":null,"www":null},{"place_id":"53829647","geometry":{"type":"Point","coordinates":[9.6724508,45.0450457]},"display_name":"Bar Museum Tavern Pub, 68, Via Pietro Cella, Infrangibile, Piacenza, PC, EMR, 29121, Italia","category":"lifestyle","type":"pub","importance":0.101,"icon":"http://nominatim.openstreetmap.org/images/mapicons/food_pub.p.20.png","visiting_time":90.0,"opening_hours":null,"opening_days":null,"rating":0,"photo_url":null,"description":null,"www":null},{"place_id":"53449674","geometry":{"type":"Point","coordinates":[9.6917637,45.0491967]},"display_name":"Irish Pub, Via San Siro, Baia del Re, Piacenza, PC, EMR, 29121, Italia","category":"lifestyle","type":"pub","importance":0.101,"icon":"http://nominatim.openstreetmap.org/images/mapicons/food_pub.p.20.png","visiting_time":90.0,"opening_hours":null,"opening_days":null,"rating":0,"photo_url":null,"description":null,"www":null},{"place_id":"180169053","geometry":{"type":"Point","coordinates":[-8.3350726,43.2233149]},"display_name":"Abegondo, Galicia, CAFE, España","category":"lifestyle","type":"postcode","importance":0.2125,"icon":null,"visiting_time":10.0,"opening_hours":null,"opening_days":null,"rating":0,"photo_url":null,"description":null,"www":null},{"place_id":"19916177","geometry":{"type":"Point","coordinates":[9.6458914,45.0546487]},"display_name":"Via Emilia Pavese, San Antonio a Trebbia, Piacenza, PC, EMR, 29010, Italia","category":"lifestyle","type":"nightclub","importance":0.001,"icon":null,"visiting_time":120.0,"opening_hours":null,"opening_days":null,"rating":0,"photo_url":null,"description":null,"www":null},{"place_id":"162482901","geometry":{"type":"Point","coordinates":[9.671045746,45.00815855]},"display_name":"Village, Strada Statale di Val Trebbia, Besurica, Piacenza, PC, EMR, 29100, Italia","category":"lifestyle","type":"nightclub","importance":0.001,"icon":null,"visiting_time":120.0,"opening_hours":null,"opening_days":null,"rating":0,"photo_url":null,"description":null,"www":null},{"place_id":"159440418","geometry":{"type":"Point","coordinates":[9.652796777,45.0630734]},"display_name":"Paradise, 87, Strada dell'aguzzafame, Portina, San Antonio a Trebbia, Piacenza, PC, EMR, 29121, Italia","category":"lifestyle","type":"nightclub","importance":0.001,"icon":null,"visiting_time":120.0,"opening_hours":null,"opening_days":null,"rating":0,"photo_url":null,"description":null,"www":null},{"place_id":"167880295","geometry":{"type":"Point","coordinates":[9.697951254,45.05008215]},"display_name":"Duomo, Viale Vescovado, Baia del Re, Piacenza, PC, EMR, 29121, Italia","category":"attractions","type":"monument","importance":0.21332757,"icon":"http://nominatim.openstreetmap.org/images/mapicons/tourist_monument.p.20.png","visiting_time":10.0,"opening_hours":null,"opening_days":null,"rating":0,"photo_url":null,"description":null,"www":null},{"place_id":"161527620","geometry":{"type":"Point","coordinates":[9.69976643,45.057381]},"display_name":"Monumento ai Pontieri, Piazzale Milano, Baia del Re, Piacenza, PC, EMR, 29121, Italia","category":"attractions","type":"monument","importance":0.101,"icon":"http://nominatim.openstreetmap.org/images/mapicons/tourist_monument.p.20.png","visiting_time":10.0,"opening_hours":null,"opening_days":null,"rating":0,"photo_url":null,"description":null,"www":null},{"place_id":"145607386","geometry":{"type":"Point","coordinates":[9.704774951,45.05148375]},"display_name":"Piazzale Guglielmo Marconi, Baia del Re, Piacenza, PC, EMR, 29122, Italia","category":"attractions","type":"monument","importance":0.001,"icon":"http://nominatim.openstreetmap.org/images/mapicons/tourist_monument.p.20.png","visiting_time":10.0,"opening_hours":null,"opening_days":null,"rating":0,"photo_url":null,"description":null,"www":null},{"place_id":"53533428","geometry":{"type":"Point","coordinates":[9.7058549,45.0472664]},"display_name":"Lupa Romana, Piazzale Roma, Baia del Re, Piacenza, PC, EMR, 29122, Italia","category":"attractions","type":"monument","importance":0.001,"icon":"http://nominatim.openstreetmap.org/images/mapicons/tourist_monument.p.20.png","visiting_time":10.0,"opening_hours":null,"opening_days":null,"rating":0,"photo_url":null,"description":null,"www":null},{"place_id":"57186427","geometry":{"type":"Point","coordinates":[9.6929157,45.047456]},"display_name":"Ex Chiesa di Sant'Agostino, Stradone Farnese, Baia del Re, Piacenza, PC, EMR, 29121, Italia","category":"attractions","type":"monument","importance":0.001,"icon":"http://nominatim.openstreetmap.org/images/mapicons/tourist_monument.p.20.png","visiting_time":10.0,"opening_hours":null,"opening_days":null,"rating":0,"photo_url":null,"description":null,"www":null},{"place_id":"162492366","geometry":{"type":"Point","coordinates":[9.688488788,45.04840535]},"display_name":"Dolmen ai Caduti, Stradone Farnese, Infrangibile, Piacenza, PC, EMR, 29121, Italia","category":"attractions","type":"monument","importance":0.001,"icon":"http://nominatim.openstreetmap.org/images/mapicons/tourist_monument.p.20.png","visiting_time":10.0,"opening_hours":null,"opening_days":null,"rating":0,"photo_url":null,"description":null,"www":null},{"place_id":"160216104","geometry":{"type":"Point","coordinates":[9.697377362,45.05079875]},"display_name":"Piazza Duomo, Baia del Re, Piacenza, PC, EMR, 29121, Italia","category":"attractions","type":"monument","importance":0.001,"icon":"http://nominatim.openstreetmap.org/images/mapicons/tourist_monument.p.20.png","visiting_time":10.0,"opening_hours":null,"opening_days":null,"rating":0,"photo_url":null,"description":null,"www":null},{"place_id":"60152374","geometry":{"type":"Point","coordinates":[9.68596,45.0446147]},"display_name":"Via Rinaldo Ancillotti, Infrangibile, Piacenza, PC, EMR, 29121, Italia","category":"attractions","type":"monument","importance":0.001,"icon":"http://nominatim.openstreetmap.org/images/mapicons/tourist_monument.p.20.png","visiting_time":10.0,"opening_hours":null,"opening_days":null,"rating":0,"photo_url":null,"description":null,"www":null},{"place_id":"61727179","geometry":{"type":"Point","coordinates":[9.7052239,45.0531723]},"display_name":"Viale Sant'Ambrogio, Baia del Re, Piacenza, PC, EMR, 29122, Italia","category":"attractions","type":"monument","importance":0.001,"icon":"http://nominatim.openstreetmap.org/images/mapicons/tourist_monument.p.20.png","visiting_time":10.0,"opening_hours":null,"opening_days":null,"rating":0,"photo_url":null,"description":null,"www":null},{"place_id":"52454708","geometry":{"type":"Point","coordinates":[9.6895342,45.0517667]},"display_name":"Via Del Tempio, Infrangibile, Piacenza, PC, EMR, 29121, Italia","category":"attractions","type":"monument","importance":0.001,"icon":"http://nominatim.openstreetmap.org/images/mapicons/tourist_monument.p.20.png","visiting_time":10.0,"opening_hours":null,"opening_days":null,"rating":0,"photo_url":null,"description":null,"www":null},{"place_id":"164909327","geometry":{"type":"Point","coordinates":[9.682611727,45.032978]},"display_name":"Via Piero Gobetti, Besurica, Piacenza, PC, EMR, 29100, Italia","category":"attractions","type":"monument","importance":0.001,"icon":"http://nominatim.openstreetmap.org/images/mapicons/tourist_monument.p.20.png","visiting_time":10.0,"opening_hours":null,"opening_days":null,"rating":0,"photo_url":null,"description":null,"www":null},{"place_id":"24064295","geometry":{"type":"Point","coordinates":[9.6927875,45.0527861]},"display_name":"Statua Equestre, Piazza dei Cavalli, Baia del Re, Piacenza, PC, EMR, 29121, Italia","category":"attractions","type":"monument","importance":0.001,"icon":"http://nominatim.openstreetmap.org/images/mapicons/tourist_monument.p.20.png","visiting_time":10.0,"opening_hours":null,"opening_days":null,"rating":0,"photo_url":null,"description":null,"www":null},{"place_id":"163351043","geometry":{"type":"Point","coordinates":[9.686663219,45.04733705]},"display_name":"Statua di Sant'Antonino, Piazzale Genova, Infrangibile, Piacenza, PC, EMR, 29121, Italia","category":"attractions","type":"monument","importance":0.001,"icon":"http://nominatim.openstreetmap.org/images/mapicons/tourist_monument.p.20.png","visiting_time":10.0,"opening_hours":null,"opening_days":null,"rating":0,"photo_url":null,"description":null,"www":null},{"place_id":"91483258","geometry":{"type":"Point","coordinates":[9.692540711,45.05226725]},"display_name":"Gotico, Piazza dei Cavalli, Baia del Re, Piacenza, PC, EMR, 29121, Italia","category":"attractions","type":"monument","importance":0.001,"icon":"http://nominatim.openstreetmap.org/images/mapicons/tourist_monument.p.20.png","visiting_time":10.0,"opening_hours":null,"opening_days":null,"rating":0,"photo_url":null,"description":null,"www":null},{"place_id":"54754279","geometry":{"type":"Point","coordinates":[9.68591,45.0470687]},"display_name":"Piazzale Genova, Infrangibile, Piacenza, PC, EMR, 29121, Italia","category":"attractions","type":"monument","importance":0.001,"icon":"http://nominatim.openstreetmap.org/images/mapicons/tourist_monument.p.20.png","visiting_time":10.0,"opening_hours":null,"opening_days":null,"rating":0,"photo_url":null,"description":null,"www":null},{"place_id":"54620815","geometry":{"type":"Point","coordinates":[9.6936358,45.0524311]},"display_name":"Piazza dei Cavalli, Baia del Re, Piacenza, PC, EMR, 29121, Italia","category":"attractions","type":"monument","importance":0.001,"icon":"http://nominatim.openstreetmap.org/images/mapicons/tourist_monument.p.20.png","visiting_time":10.0,"opening_hours":null,"opening_days":null,"rating":0,"photo_url":null,"description":null,"www":null},{"place_id":"91927181","geometry":{"type":"Point","coordinates":[9.692780803,45.0571885]},"display_name":"San Sisto, Via Enrico Morselli, Baia del Re, Piacenza, PC, EMR, 29121, Italia","category":"attractions","type":"monument","importance":0.001,"icon":"http://nominatim.openstreetmap.org/images/mapicons/tourist_monument.p.20.png","visiting_time":10.0,"opening_hours":null,"opening_days":null,"rating":0,"photo_url":null,"description":null,"www":null},{"place_id":"163356614","geometry":{"type":"Point","coordinates":[9.690206975,45.04377035]},"display_name":"Via Giovanni Negri, Baia del Re, Piacenza, PC, EMR, 29121, Italia","category":"attractions","type":"monument","importance":0.001,"icon":"http://nominatim.openstreetmap.org/images/mapicons/tourist_monument.p.20.png","visiting_time":10.0,"opening_hours":null,"opening_days":null,"rating":0,"photo_url":null,"description":null,"www":null},{"place_id":"54652893","geometry":{"type":"Point","coordinates":[9.788234,44.9991253]},"display_name":"Piazza Re Amato, Pontenure, PC, EMR, Italia","category":"attractions","type":"monument","importance":0.001,"icon":"http://nominatim.openstreetmap.org/images/mapicons/tourist_monument.p.20.png","visiting_time":10.0,"opening_hours":null,"opening_days":null,"rating":0,"photo_url":null,"description":null,"www":null},{"place_id":"112479256","geometry":{"type":"Point","coordinates":[9.7132376,45.0419781]},"display_name":"Spazio 4, Via Alessandro Manzoni, Baia del Re, Piacenza, PC, EMR, 29122, Italia","category":"attractions","type":"arts_centre","importance":0.001,"icon":"http://nominatim.openstreetmap.org/images/mapicons/tourist_art_gallery2.p.20.png","visiting_time":120.0,"opening_hours":null,"opening_days":null,"rating":0,"photo_url":null,"description":null,"www":null},{"place_id":"53829647","geometry":{"type":"Point","coordinates":[9.6724508,45.0450457]},"display_name":"Bar Museum Tavern Pub, 68, Via Pietro Cella, Infrangibile, Piacenza, PC, EMR, 29121, Italia","category":"attractions","type":"pub","importance":0.101,"icon":"http://nominatim.openstreetmap.org/images/mapicons/food_pub.p.20.png","visiting_time":120.0,"opening_hours":null,"opening_days":null,"rating":0,"photo_url":null,"description":null,"www":null},{"place_id":"160047774","geometry":{"type":"Point","coordinates":[9.691598704,45.04683575]},"display_name":"Parco Privato, Baia del Re, Piacenza, PC, EMR, Italia","category":"parks","type":"park","importance":0.15,"icon":null,"visiting_time":90.0,"opening_hours":null,"opening_days":null,"rating":0,"photo_url":null,"description":null,"www":null},{"place_id":"91996002","geometry":{"type":"Point","coordinates":[9.681994196,45.0329722]},"display_name":"Parco della Pace, Besurica, Piacenza, PC, EMR, Italia","category":"parks","type":"park","importance":0.15,"icon":null,"visiting_time":90.0,"opening_hours":null,"opening_days":null,"rating":0,"photo_url":null,"description":null,"www":null},{"place_id":"161507656","geometry":{"type":"Point","coordinates":[9.725135175,45.0340921]},"display_name":"Parco Collegio Alberoni, Giarona, Piacenza, PC, EMR, Italia","category":"parks","type":"park","importance":0.15,"icon":null,"visiting_time":90.0,"opening_hours":null,"opening_days":null,"rating":0,"photo_url":null,"description":null,"www":null},{"place_id":"176879639","geometry":{"type":"Point","coordinates":[9.694593369,45.05521155]},"display_name":"Baia del Re, Piacenza, PC, EMR, Italia","category":"parks","type":"park","importance":0.15,"icon":null,"visiting_time":90.0,"opening_hours":null,"opening_days":null,"rating":0,"photo_url":null,"description":null,"www":null},{"place_id":"84905791","geometry":{"type":"Point","coordinates":[9.69707134,45.044588]},"display_name":"Le mura, Baia del Re, Piacenza, PC, EMR, Italia","category":"parks","type":"park","importance":0.15,"icon":null,"visiting_time":90.0,"opening_hours":null,"opening_days":null,"rating":0,"photo_url":null,"description":null,"www":null},{"place_id":"174084428","geometry":{"type":"Point","coordinates":[9.739910072,44.99601585]},"display_name":"Montale, Piacenza, PC, EMR, Italia","category":"parks","type":"park","importance":0.15,"icon":null,"visiting_time":90.0,"opening_hours":null,"opening_days":null,"rating":0,"photo_url":null,"description":null,"www":null},{"place_id":"128116198","geometry":{"type":"Point","coordinates":[9.666916007,45.05906765]},"display_name":"Borgotrebbia, Piacenza, PC, EMR, Italia","category":"parks","type":"park","importance":0.15,"icon":null,"visiting_time":90.0,"opening_hours":null,"opening_days":null,"rating":0,"photo_url":null,"description":null,"www":null},{"place_id":"180045415","geometry":{"type":"Point","coordinates":[9.688506737,45.0464577]},"display_name":"Baia del Re, Piacenza, PC, EMR, Italia","category":"parks","type":"park","importance":0.15,"icon":null,"visiting_time":90.0,"opening_hours":null,"opening_days":null,"rating":0,"photo_url":null,"description":null,"www":null},{"place_id":"155810295","geometry":{"type":"Point","coordinates":[9.671005992,45.050422]},"display_name":"Infrangibile, Piacenza, PC, EMR, Italia","category":"parks","type":"park","importance":0.15,"icon":null,"visiting_time":90.0,"opening_hours":null,"opening_days":null,"rating":0,"photo_url":null,"description":null,"www":null},{"place_id":"92659170","geometry":{"type":"Point","coordinates":[9.668467512,45.0379363]},"display_name":"Parco di Montecucco, Besurica, Piacenza, PC, EMR, Italia","category":"parks","type":"park","importance":0.15,"icon":null,"visiting_time":90.0,"opening_hours":null,"opening_days":null,"rating":0,"photo_url":null,"description":null,"www":null},{"place_id":"163247045","geometry":{"type":"Point","coordinates":[9.723098151,45.0338627]},"display_name":"Giarona, Piacenza, PC, EMR, Italia","category":"parks","type":"park","importance":0.15,"icon":null,"visiting_time":90.0,"opening_hours":null,"opening_days":null,"rating":0,"photo_url":null,"description":null,"www":null},{"place_id":"179981984","geometry":{"type":"Point","coordinates":[9.678078681,45.0444955]},"display_name":"Infrangibile, Piacenza, PC, EMR, Italia","category":"parks","type":"park","importance":0.15,"icon":null,"visiting_time":90.0,"opening_hours":null,"opening_days":null,"rating":0,"photo_url":null,"description":null,"www":null},{"place_id":"179981952","geometry":{"type":"Point","coordinates":[9.690890714,45.0469876]},"display_name":"Giardino Pubblico, Baia del Re, Piacenza, PC, EMR, Italia","category":"parks","type":"park","importance":0.15,"icon":null,"visiting_time":90.0,"opening_hours":null,"opening_days":null,"rating":0,"photo_url":null,"description":null,"www":null},{"place_id":"114673573","geometry":{"type":"Point","coordinates":[9.70541425,45.0396646]},"display_name":"Parco Baia del Re, Baia del Re, Piacenza, PC, EMR, Italia","category":"parks","type":"park","importance":0.15,"icon":null,"visiting_time":90.0,"opening_hours":null,"opening_days":null,"rating":0,"photo_url":null,"description":null,"www":null},{"place_id":"165230304","geometry":{"type":"Point","coordinates":[9.677069722,45.01251095]},"display_name":"Parco Privato, Besurica, Piacenza, PC, EMR, Italia","category":"parks","type":"park","importance":0.15,"icon":null,"visiting_time":90.0,"opening_hours":null,"opening_days":null,"rating":0,"photo_url":null,"description":null,"www":null},{"place_id":"176880434","geometry":{"type":"Point","coordinates":[9.665287281,44.99889655]},"display_name":"Besurica, Piacenza, PC, EMR, Italia","category":"parks","type":"park","importance":0.15,"icon":null,"visiting_time":90.0,"opening_hours":null,"opening_days":null,"rating":0,"photo_url":null,"description":null,"www":null},{"place_id":"179952796","geometry":{"type":"Point","coordinates":[9.692439017,45.04824255]},"display_name":"Parchetto Scuola  Giornadani, Baia del Re, Piacenza, PC, EMR, Italia","category":"parks","type":"park","importance":0.15,"icon":null,"visiting_time":90.0,"opening_hours":null,"opening_days":null,"rating":0,"photo_url":null,"description":null,"www":null},{"place_id":"180031480","geometry":{"type":"Point","coordinates":[9.692351957,45.0483033]},"display_name":"Giardini della Memoria, Baia del Re, Piacenza, PC, EMR, Italia","category":"parks","type":"park","importance":0.15,"icon":null,"visiting_time":90.0,"opening_hours":null,"opening_days":null,"rating":0,"photo_url":null,"description":null,"www":null},{"place_id":"113183261","geometry":{"type":"Point","coordinates":[9.690400722,45.04259115]},"display_name":"Giardini Viale Dante, Baia del Re, Piacenza, PC, EMR, Italia","category":"parks","type":"park","importance":0.15,"icon":null,"visiting_time":90.0,"opening_hours":null,"opening_days":null,"rating":0,"photo_url":null,"description":null,"www":null},{"place_id":"127607588","geometry":{"type":"Point","coordinates":[9.722163362,45.03278465]},"display_name":"Parco Spinoni, Giarona, Piacenza, PC, EMR, Italia","category":"parks","type":"park","importance":0.15,"icon":null,"visiting_time":90.0,"opening_hours":null,"opening_days":null,"rating":0,"photo_url":null,"description":null,"www":null},{"place_id":"160318187","geometry":{"type":"Point","coordinates":[9.788022415,44.9988308]},"display_name":"Pontenure, PC, EMR, Italia","category":"parks","type":"park","importance":0.15,"icon":null,"visiting_time":90.0,"opening_hours":null,"opening_days":null,"rating":0,"photo_url":null,"description":null,"www":null},{"place_id":"120946360","geometry":{"type":"Point","coordinates":[9.609911732,45.0573591]},"display_name":"Rottofreno, PC, EMR, 29010, Italia","category":"parks","type":"park","importance":0.15,"icon":null,"visiting_time":90.0,"opening_hours":null,"opening_days":null,"rating":0,"photo_url":null,"description":null,"www":null},{"place_id":"140738548","geometry":{"type":"Point","coordinates":[9.609606662,45.05405075]},"display_name":"Piazza Togliatti, Rottofreno, PC, EMR, 29010, Italia","category":"parks","type":"park","importance":0.15,"icon":null,"visiting_time":90.0,"opening_hours":null,"opening_days":null,"rating":0,"photo_url":null,"description":null,"www":null},{"place_id":"122140504","geometry":{"type":"Point","coordinates":[9.606644442,45.0506222]},"display_name":"Borghesa Nuova, Rottofreno, PC, EMR, 29010, Italia","category":"parks","type":"park","importance":0.15,"icon":null,"visiting_time":90.0,"opening_hours":null,"opening_days":null,"rating":0,"photo_url":null,"description":null,"www":null},{"place_id":"101457692","geometry":{"type":"Point","coordinates":[9.61946805,45.0030342]},"display_name":"Gossolengo, PC, EMR, Italia","category":"parks","type":"park","importance":0.15,"icon":null,"visiting_time":90.0,"opening_hours":null,"opening_days":null,"rating":0,"photo_url":null,"description":null,"www":null},{"place_id":"167880282","geometry":{"type":"Point","coordinates":[9.697951254,45.05008215]},"display_name":"Duomo, Viale Vescovado, Baia del Re, Piacenza, PC, EMR, 29121, Italia","category":"attractions","type":"place_of_worship","importance":0.21332757,"icon":"http://nominatim.openstreetmap.org/images/mapicons/place_of_worship_unknown3.p.20.png","visiting_time":30.0,"opening_hours":null,"opening_days":null,"rating":0,"photo_url":null,"description":null,"www":null},{"place_id":"170235475","geometry":{"type":"Point","coordinates":[9.69484859,45.04938235]},"display_name":"Basilica di Sant'Antonino, Piazza Sant'Antonino, Baia del Re, Piacenza, PC, EMR, 29121, Italia","category":"attractions","type":"place_of_worship","importance":0.13061965,"icon":"http://nominatim.openstreetmap.org/images/mapicons/place_of_worship_unknown3.p.20.png","visiting_time":30.0,"opening_hours":null,"opening_days":null,"rating":0,"photo_url":null,"description":null,"www":null},{"place_id":"108368767","geometry":{"type":"Point","coordinates":[9.612625637,45.05576505]},"display_name":"Chiesa di San Nicola di Bari, Via Emilia Pavese, Rottofreno, PC, EMR, 29010, Italia","category":"attractions","type":"place_of_worship","importance":0.101,"icon":"http://nominatim.openstreetmap.org/images/mapicons/place_of_worship_unknown3.p.20.png","visiting_time":30.0,"opening_hours":null,"opening_days":null,"rating":0,"photo_url":null,"description":null,"www":null},{"place_id":"113968778","geometry":{"type":"Point","coordinates":[9.701619074,45.05040345]},"display_name":"Basilica di San Savino, Via Giulio Alberoni, Baia del Re, Piacenza, PC, EMR, 29122, Italia","category":"attractions","type":"place_of_worship","importance":0.073744595,"icon":"http://nominatim.openstreetmap.org/images/mapicons/place_of_worship_unknown3.p.20.png","visiting_time":30.0,"opening_hours":null,"opening_days":null,"rating":0,"photo_url":null,"description":null,"www":null},{"place_id":"173599599","geometry":{"type":"Point","coordinates":[9.680137495,45.0564822]},"display_name":"Basilica di Santa Maria di Campagna, Via Campagna, Borgotrebbia, Piacenza, PC, EMR, 29121, Italia","category":"attractions","type":"place_of_worship","importance":0.046527658,"icon":"http://nominatim.openstreetmap.org/images/mapicons/place_of_worship_unknown3.p.20.png","visiting_time":30.0,"opening_hours":null,"opening_days":null,"rating":0,"photo_url":null,"description":null,"www":null},{"place_id":"112026842","geometry":{"type":"Point","coordinates":[9.672956034,45.0523925]},"display_name":"Sacra Famiglia, Via Casteggio, Infrangibile, Piacenza, PC, EMR, 29100, Italia","category":"attractions","type":"place_of_worship","importance":0.001,"icon":"http://nominatim.openstreetmap.org/images/mapicons/place_of_worship_unknown3.p.20.png","visiting_time":30.0,"opening_hours":null,"opening_days":null,"rating":0,"photo_url":null,"description":null,"www":null},{"place_id":"112698167","geometry":{"type":"Point","coordinates":[9.700324533,45.04742795]},"display_name":"Via Francesco Torta, Baia del Re, Piacenza, PC, EMR, 29122, Italia","category":"attractions","type":"place_of_worship","importance":0.001,"icon":"http://nominatim.openstreetmap.org/images/mapicons/place_of_worship_unknown3.p.20.png","visiting_time":30.0,"opening_hours":null,"opening_days":null,"rating":0,"photo_url":null,"description":null,"www":null},{"place_id":"112024036","geometry":{"type":"Point","coordinates":[9.688309632,45.05088205]},"display_name":"San Theresa, Via Nova, Infrangibile, Piacenza, PC, EMR, 29121, Italia","category":"attractions","type":"place_of_worship","importance":0.001,"icon":"http://nominatim.openstreetmap.org/images/mapicons/place_of_worship_unknown3.p.20.png","visiting_time":30.0,"opening_hours":null,"opening_days":null,"rating":0,"photo_url":null,"description":null,"www":null},{"place_id":"179659968","geometry":{"type":"Point","coordinates":[9.68760911,45.0346371]},"display_name":"San Giuseppe Operaio, Via Giulio Arata, Baia del Re, Piacenza, PC, EMR, 29122, Italia","category":"attractions","type":"place_of_worship","importance":0.001,"icon":"http://nominatim.openstreetmap.org/images/mapicons/place_of_worship_unknown3.p.20.png","visiting_time":30.0,"opening_hours":null,"opening_days":null,"rating":0,"photo_url":null,"description":null,"www":null},{"place_id":"113968799","geometry":{"type":"Point","coordinates":[9.706497729,45.04965315]},"display_name":"Chiesa di Santa Maria in Torricella, Via La Primogenita, Baia del Re, Piacenza, PC, EMR, 29122, Italia","category":"attractions","type":"place_of_worship","importance":0.001,"icon":"http://nominatim.openstreetmap.org/images/mapicons/place_of_worship_unknown3.p.20.png","visiting_time":30.0,"opening_hours":null,"opening_days":null,"rating":0,"photo_url":null,"description":null,"www":null},{"place_id":"112141458","geometry":{"type":"Point","coordinates":[9.782433496,45.02534275]},"display_name":"Via A.G. Chiappini, Le Mose, Piacenza, PC, EMR, Italia","category":"attractions","type":"place_of_worship","importance":0.001,"icon":"http://nominatim.openstreetmap.org/images/mapicons/place_of_worship_unknown3.p.20.png","visiting_time":30.0,"opening_hours":null,"opening_days":null,"rating":0,"photo_url":null,"description":null,"www":null},{"place_id":"111810540","geometry":{"type":"Point","coordinates":[9.691386573,45.05559775]},"display_name":"Sant'Eufemia, Via Vincenzo Boselli Bonini, Infrangibile, Piacenza, PC, EMR, 29121, Italia","category":"attractions","type":"place_of_worship","importance":0.001,"icon":"http://nominatim.openstreetmap.org/images/mapicons/place_of_worship_unknown3.p.20.png","visiting_time":30.0,"opening_hours":null,"opening_days":null,"rating":0,"photo_url":null,"description":null,"www":null},{"place_id":"112478423","geometry":{"type":"Point","coordinates":[9.684370621,45.0418793]},"display_name":"Via Giuseppe Nasalli Rocca, Infrangibile, Piacenza, PC, EMR, 29100, Italia","category":"attractions","type":"place_of_worship","importance":0.001,"icon":"http://nominatim.openstreetmap.org/images/mapicons/place_of_worship_unknown3.p.20.png","visiting_time":30.0,"opening_hours":null,"opening_days":null,"rating":0,"photo_url":null,"description":null,"www":null},{"place_id":"113137980","geometry":{"type":"Point","coordinates":[9.722787814,45.03388225]},"display_name":"Via Angelo Spinazzi, Giarona, Piacenza, PC, EMR, 29122, Italia","category":"attractions","type":"place_of_worship","importance":0.001,"icon":"http://nominatim.openstreetmap.org/images/mapicons/place_of_worship_unknown3.p.20.png","visiting_time":30.0,"opening_hours":null,"opening_days":null,"rating":0,"photo_url":null,"description":null,"www":null},{"place_id":"112024053","geometry":{"type":"Point","coordinates":[9.648633524,45.05487045]},"display_name":"Via Emilia Pavese, San Antonio a Trebbia, Piacenza, PC, EMR, 29010, Italia","category":"attractions","type":"place_of_worship","importance":0.001,"icon":"http://nominatim.openstreetmap.org/images/mapicons/place_of_worship_unknown3.p.20.png","visiting_time":30.0,"opening_hours":null,"opening_days":null,"rating":0,"photo_url":null,"description":null,"www":null},{"place_id":"112469967","geometry":{"type":"Point","coordinates":[9.756059221,45.073952]},"display_name":"Strada di Mortizza, Ca' Buzzone Stanga, La Baracca, Piacenza, PC, EMR, 26849, Italia","category":"attractions","type":"place_of_worship","importance":0.001,"icon":"http://nominatim.openstreetmap.org/images/mapicons/place_of_worship_unknown3.p.20.png","visiting_time":30.0,"opening_hours":null,"opening_days":null,"rating":0,"photo_url":null,"description":null,"www":null},{"place_id":"111805152","geometry":{"type":"Point","coordinates":[9.702227199,45.0477452]},