[{"place_id":"5316","geometry":{"type":"Point","coordinates":[10.773612931,44.23172874]},"display_name":"\"Complesso di edifici denominato \"\"Il Forte\"\"\",from:MIBACT","category":"attractions","type":"Palazzo","importance":0.9,"icon":"","visiting_time":0.0,"opening_hours":"ok","opening_days":"ok","rating":0,"photo_url":null,"description":null,"www":"\"http://vincoliinrete.beniculturali.it/VincoliInRete/vir/bene/dettagliobene184679,http://vincoliinrete.beniculturali.it/VincoliInRete/vir/bene/dettagliobene279678\""},{"place_id":"18480","geometry":{"type":"Point","coordinates":[10.689285433,44.24896426]},"display_name":"Chiesa parrocchiale di San Geminiano Vescovo e pertinenze,from:MIBACT","category":"attractions","type":"Chiesa","importance":0.4,"icon":"","visiting_time":0.0,"opening_hours":"ok","opening_days":"ok","rating":0,"photo_url":null,"description":null,"www":null},{"place_id":"5166","geometry":{"type":"Point","coordinates":[10.762019279,44.279431864]},"display_name":"Chiesa Parrocchiale di Sant'Andrea,from:MIBACT","category":"attractions","type":"Chiesa","importance":0.7,"icon":"","visiting_time":0.0,"opening_hours":"ok","opening_days":"ok","rating":0,"photo_url":null,"description":null,"www":"http://vincoliinrete.beniculturali.it/VincoliInRete/vir/bene/dettagliobene140923"},{"place_id":"5319","geometry":{"type":"Point","coordinates":[10.791839806,44.257151115]},"display_name":"Chiesa Parrocchiale di San Giorgio,from:MIBACT","category":"attractions","type":"Chiesa","importance":0.4,"icon":"","visiting_time":0.0,"opening_hours":"ok","opening_days":"ok","rating":0,"photo_url":null,"description":null,"www":"http://vincoliinrete.beniculturali.it/VincoliInRete/vir/bene/dettagliobene132230"},{"place_id":"5165","geometry":{"type":"Point","coordinates":[10.716683765,44.249819497]},"display_name":"Casa segnata col numero 25/a  lungo la strada che conduce alla Chiesa,from:MIBACT","category":"attractions","type":"Casa","importance":0.7,"icon":"","visiting_time":0.0,"opening_hours":"ok","opening_days":"ok","rating":0,"photo_url":null,"description":null,"www":"http://vincoliinrete.beniculturali.it/VincoliInRete/vir/bene/dettagliobene330252"},{"place_id":"5163","geometry":{"type":"Point","coordinates":[10.7161255,44.250781301]},"display_name":"Chiesa Parrocchiale di Montecreto,from:MIBACT","category":"attractions","type":"Chiesa","importance":0.7,"icon":"","visiting_time":0.0,"opening_hours":"ok","opening_days":"ok","rating":0,"photo_url":null,"description":null,"www":"\"http://vincoliinrete.beniculturali.it/VincoliInRete/vir/bene/dettagliobene273313,http://vincoliinrete.beniculturali.it/VincoliInRete/vir/bene/dettagliobene216945\""},{"place_id":"5317","geometry":{"type":"Point","coordinates":[10.756327004,44.249832941]},"display_name":"Ex Chiesa di S. Biagio,from:MIBACT","category":"attractions","type":"Oratorio","importance":0.7,"icon":"","visiting_time":0.0,"opening_hours":"ok","opening_days":"ok","rating":0,"photo_url":null,"description":null,"www":"http://vincoliinrete.beniculturali.it/VincoliInRete/vir/bene/dettagliobene140776"}]