[{"place_id":"78","geometry":{"type":"Point","coordinates":[11.489984393,44.623093062]},"display_name":"Torre d'ingresso al Borgo,from:MIBACT","category":"attractions","type":"Torre","importance":0.7,"icon":"","visiting_time":0.0,"opening_hours":"ok","opening_days":"ok","rating":0,"photo_url":null,"description":null,"www":"http://vincoliinrete.beniculturali.it/VincoliInRete/vir/bene/dettagliobene273327"},{"place_id":"29","geometry":{"type":"Point","coordinates":[11.566100331,44.588262074]},"display_name":"Campanile della chiesa parrocchiale di S. Michele di Mezzolara nel comune di Budrio,from:MIBACT","category":"attractions","type":"Campanile","importance":0.7,"icon":"","visiting_time":0.0,"opening_hours":"ok","opening_days":"ok","rating":0,"photo_url":null,"description":null,"www":null},{"place_id":"184","geometry":{"type":"Point","coordinates":[11.507204239,44.601505859]},"display_name":"Chiesa di San Giovanni Battista in Triario e pertinenze,from:MIBACT","category":"attractions","type":"Chiesa","importance":0.7,"icon":"","visiting_time":0.0,"opening_hours":"ok","opening_days":"ok","rating":0,"photo_url":null,"description":null,"www":"http://vincoliinrete.beniculturali.it/VincoliInRete/vir/bene/dettagliobene230249"},{"place_id":"76","geometry":{"type":"Point","coordinates":[11.491922642,44.625404986]},"display_name":"Chiesa di S.Giovanni Battista e pertinenze,from:MIBACT","category":"attractions","type":"Chiesa","importance":0.7,"icon":"","visiting_time":0.0,"opening_hours":"ok","opening_days":"ok","rating":0,"photo_url":null,"description":null,"www":"\"http://vincoliinrete.beniculturali.it/VincoliInRete/vir/bene/dettagliobene141374,http://vincoliinrete.beniculturali.it/VincoliInRete/vir/bene/dettagliobene492752\""},{"place_id":"218","geometry":{"type":"Point","coordinates":[11.533618291,44.645964309]},"display_name":"\"Chiesa di S.Maria con campanile, Oratorio di San Giuseppe e canonica vecchia\",from:MIBACT","category":"attractions","type":"Chiesa","importance":0.7,"icon":"","visiting_time":0.0,"opening_hours":"ok","opening_days":"ok","rating":0,"photo_url":null,"description":null,"www":"\"http://vincoliinrete.beniculturali.it/VincoliInRete/vir/bene/dettagliobene132737,http://vincoliinrete.beniculturali.it/VincoliInRete/vir/bene/dettagliobene155619,http://vincoliinrete.beniculturali.it/VincoliInRete/vir/bene/dettagliobene141387\""},{"place_id":"322","geometry":{"type":"Point","coordinates":[11.471153757,44.599823774]},"display_name":"Chiesa di S. Margherita e pertinenze,from:MIBACT","category":"attractions","type":"Chiesa","importance":0.7,"icon":"","visiting_time":0.0,"opening_hours":"ok","opening_days":"ok","rating":0,"photo_url":null,"description":null,"www":"http://vincoliinrete.beniculturali.it/VincoliInRete/vir/bene/dettagliobene140026"},{"place_id":"18549","geometry":{"type":"Point","coordinates":[11.566080889,44.588345003]},"display_name":"Chiesa di San Michele Arcangelo di Mezzolara,from:MIBACT","category":"attractions","type":"Chiesa","importance":0.7,"icon":"","visiting_time":0.0,"opening_hours":"ok","opening_days":"ok","rating":0,"photo_url":null,"description":null,"www":null},{"place_id":"387","geometry":{"type":"Point","coordinates":[11.523150023,44.610945816]},"display_name":"Chiesa di San Martino in Soverzano,from:MIBACT","category":"attractions","type":"Chiesa","importance":0.7,"icon":"","visiting_time":0.0,"opening_hours":"ok","opening_days":"ok","rating":0,"photo_url":null,"description":null,"www":null},{"place_id":"4036","geometry":{"type":"Point","coordinates":[11.565367536,44.588936532]},"display_name":"Casa adibita a Caserma dei Carabinieri,from:MIBACT","category":"attractions","type":"Palazzo","importance":0.7,"icon":"","visiting_time":0.0,"opening_hours":"ok","opening_days":"ok","rating":0,"photo_url":null,"description":null,"www":"http://vincoliinrete.beniculturali.it/VincoliInRete/vir/bene/dettagliobene278549"},{"place_id":"77","geometry":{"type":"Point","coordinates":[11.489795558,44.623621573]},"display_name":"Rocca di Minerbio,from:MIBACT","category":"attractions","type":"Rocca","importance":0.7,"icon":"","visiting_time":0.0,"opening_hours":"ok","opening_days":"ok","rating":0,"photo_url":null,"description":null,"www":"\"http://vincoliinrete.beniculturali.it/VincoliInRete/vir/bene/dettagliobene269315,http://vincoliinrete.beniculturali.it/VincoliInRete/vir/bene/dettagliobene279704\""},{"place_id":"152","geometry":{"type":"Point","coordinates":[11.523007067,44.612201092]},"display_name":"Castello dei Manzoli,from:MIBACT","category":"attractions","type":"Rocca","importance":0.7,"icon":"","visiting_time":0.0,"opening_hours":"ok","opening_days":"ok","rating":0,"photo_url":null,"description":null,"www":"http://vincoliinrete.beniculturali.it/VincoliInRete/vir/bene/dettagliobene206841"}]