[{"place_id":"15664","geometry":{"type":"Point","coordinates":[11.083239385,44.505273179]},"display_name":"Oratorio della Beata Vergine del Suffragio,from:MIBACT","category":"attractions","type":"Oratorio","importance":0.7,"icon":"","visiting_time":0.0,"opening_hours":"ok","opening_days":"ok","rating":0,"photo_url":null,"description":null,"www":null},{"place_id":"18543","geometry":{"type":"Point","coordinates":[11.108383855,44.439121181]},"display_name":"Chiesa dei Santi Senesio e Teopompo di Zappolino,from:MIBACT","category":"attractions","type":"Chiesa","importance":0.4,"icon":"","visiting_time":0.0,"opening_hours":"ok","opening_days":"ok","rating":0,"photo_url":null,"description":null,"www":null},{"place_id":"1688","geometry":{"type":"Point","coordinates":[11.069603503,44.545923219]},"display_name":"Chiesa di San Giacomo Apostolo e del Sacro Cuore di Gesù e pertinenze,from:MIBACT","category":"attractions","type":"Chiesa","importance":0.7,"icon":"","visiting_time":0.0,"opening_hours":"ok","opening_days":"ok","rating":0,"photo_url":null,"description":null,"www":"http://vincoliinrete.beniculturali.it/VincoliInRete/vir/bene/dettagliobene140886"},{"place_id":"4051","geometry":{"type":"Point","coordinates":[11.122245882,44.472356887]},"display_name":"Chiesa parrocchiale di S. Paolo a Oliveto,from:MIBACT","category":"attractions","type":"Chiesa","importance":0.7,"icon":"","visiting_time":0.0,"opening_hours":"ok","opening_days":"ok","rating":0,"photo_url":null,"description":null,"www":"\"http://vincoliinrete.beniculturali.it/VincoliInRete/vir/bene/dettagliobene578244,http://vincoliinrete.beniculturali.it/VincoliInRete/vir/bene/dettagliobene141173\""},{"place_id":"6092","geometry":{"type":"Point","coordinates":[11.057348786,44.437060147]},"display_name":"Complesso parrocchiale di S. Apollinare,from:MIBACT","category":"attractions","type":"Chiesa","importance":0.7,"icon":"","visiting_time":0.0,"opening_hours":"ok","opening_days":"ok","rating":0,"photo_url":null,"description":null,"www":"\"http://vincoliinrete.beniculturali.it/VincoliInRete/vir/bene/dettagliobene139870,http://vincoliinrete.beniculturali.it/VincoliInRete/vir/bene/dettagliobene598701\""},{"place_id":"6169","geometry":{"type":"Point","coordinates":[11.135910451,44.527363288]},"display_name":"Palazzo Aldrovandi,from:MIBACT","category":"attractions","type":"Villa","importance":0.7,"icon":"","visiting_time":0.0,"opening_hours":"ok","opening_days":"ok","rating":0,"photo_url":null,"description":null,"www":"http://vincoliinrete.beniculturali.it/VincoliInRete/vir/bene/dettagliobene346402"},{"place_id":"15673","geometry":{"type":"Point","coordinates":[11.031428427,44.437844654]},"display_name":"Chiesa di San Pietro di Serravalle,from:MIBACT","category":"attractions","type":"Chiesa","importance":0.7,"icon":"","visiting_time":0.0,"opening_hours":"ok","opening_days":"ok","rating":0,"photo_url":null,"description":null,"www":"http://vincoliinrete.beniculturali.it/VincoliInRete/vir/bene/dettagliobene140032"},{"place_id":"19636","geometry":{"type":"Point","coordinates":[11.090978659,44.468382152]},"display_name":"Oratorio dei Santi Rocco e Sebastiano,from:MIBACT","category":"attractions","type":"Oratorio","importance":0.7,"icon":"","visiting_time":0.0,"opening_hours":"ok","opening_days":"ok","rating":0,"photo_url":null,"description":null,"www":"http://vincoliinrete.beniculturali.it/VincoliInRete/vir/bene/dettagliobene227567"},{"place_id":"5258","geometry":{"type":"Point","coordinates":[11.034935238,44.56182742]},"display_name":"\"Torre civica detta \"\"Torre dell'Orologio\"\"\",from:MIBACT","category":"attractions","type":"Torre","importance":0.7,"icon":"","visiting_time":0.0,"opening_hours":"ok","opening_days":"ok","rating":0,"photo_url":null,"description":null,"www":"http://vincoliinrete.beniculturali.it/VincoliInRete/vir/bene/dettagliobene273306"},{"place_id":"5253","geometry":{"type":"Point","coordinates":[11.035527911,44.560718494]},"display_name":"Villa Boschetti,from:MIBACT","category":"attractions","type":"Villa","importance":0.7,"icon":"","visiting_time":0.0,"opening_hours":"ok","opening_days":"ok","rating":0,"photo_url":null,"description":null,"www":"http://vincoliinrete.beniculturali.it/VincoliInRete/vir/bene/dettagliobene266100"},{"place_id":"4047","geometry":{"type":"Point","coordinates":[11.122918729,44.472002484]},"display_name":"Casa degli Ebrei detta Cà Grande,from:MIBACT","category":"attractions","type":"Casa","importance":0.7,"icon":"","visiting_time":0.0,"opening_hours":"ok","opening_days":"ok","rating":0,"photo_url":null,"description":null,"www":"http://vincoliinrete.beniculturali.it/VincoliInRete/vir/bene/dettagliobene578232"},{"place_id":"6346","geometry":{"type":"Point","coordinates":[11.12449226,44.407008877]},"display_name":"Ex Chiesa Abbaziale ed ex Monastero dei Santi Fabiano e Sebastiano con pertinenze,from:MIBACT","category":"attractions","type":"Chiesa","importance":0.7,"icon":"","visiting_time":0.0,"opening_hours":"ok","opening_days":"ok","rating":0,"photo_url":null,"description":null,"www":"\"http://vincoliinrete.beniculturali.it/VincoliInRete/vir/bene/dettagliobene578226,http://vincoliinrete.beniculturali.it/VincoliInRete/vir/bene/dettagliobene139869\""},{"place_id":"6168","geometry":{"type":"Point","coordinates":[11.128798441,44.514868918]},"display_name":"Palazzo Grassi ora Garagnani,from:MIBACT","category":"attractions","type":"Palazzo","importance":0.7,"icon":"","visiting_time":0.0,"opening_hours":"ok","opening_days":"ok","rating":0,"photo_url":null,"description":null,"www":"http://vincoliinrete.beniculturali.it/VincoliInRete/vir/bene/dettagliobene599181"},{"place_id":"6090","geometry":{"type":"Point","coordinates":[11.032047918,44.437784735]},"display_name":"Castello Ranuzzi,from:MIBACT","category":"attractions","type":"Torre","importance":0.4,"icon":"","visiting_time":0.0,"opening_hours":"ok","opening_days":"ok","rating":0,"photo_url":null,"description":null,"www":"http://vincoliinrete.beniculturali.it/VincoliInRete/vir/bene/dettagliobene195968"},{"place_id":"5388","geometry":{"type":"Point","coordinates":[11.083189612,44.503488664]},"display_name":"Chiesa di Santo Stefano e pertinenze,from:MIBACT","category":"attractions","type":"Chiesa","importance":0.7,"icon":"","visiting_time":0.0,"opening_hours":"ok","opening_days":"ok","rating":0,"photo_url":null,"description":null,"www":"\"http://vincoliinrete.beniculturali.it/VincoliInRete/vir/bene/dettagliobene598368,http://vincoliinrete.beniculturali.it/VincoliInRete/vir/bene/dettagliobene141308\""},{"place_id":"19732","geometry":{"type":"Point","coordinates":[11.11781918,44.508773228]},"display_name":"Oratorio di San Francesco - Villa Pedrazzi,from:MIBACT","category":"attractions","type":"Chiesa","importance":0.7,"icon":"","visiting_time":0.0,"opening_hours":"ok","opening_days":"ok","rating":0,"photo_url":null,"description":null,"www":null},{"place_id":"16686","geometry":{"type":"Point","coordinates":[11.125513859,44.50555153]},"display_name":"Chiesa di S. Savino,from:MIBACT","category":"attractions","type":"Chiesa","importance":0.7,"icon":"","visiting_time":0.0,"opening_hours":"ok","opening_days":"ok","rating":0,"photo_url":null,"description":null,"www":null},{"place_id":"1732","geometry":{"type":"Point","coordinates":[11.010084896,44.476288229]},"display_name":"Castello Boncompagni Ludovisi e area di pertinenza,from:MIBACT","category":"attractions","type":"Rocca","importance":1.0,"icon":"","visiting_time":0.0,"opening_hours":"ok","opening_days":"ok","rating":0,"photo_url":null,"description":null,"www":"\"http://vincoliinrete.beniculturali.it/VincoliInRete/vir/bene/dettagliobene273273,http://vincoliinrete.beniculturali.it/VincoliInRete/vir/bene/dettagliobene279664,http://vincoliinrete.beniculturali.it/VincoliInRete/vir/bene/dettagliobene273262,http://vincoliinrete.beniculturali.it/VincoliInRete/vir/bene/dettagliobene162161,http://vincoliinrete.beniculturali.it/VincoliInRete/vir/bene/dettagliobene273255,http://vincoliinrete.beniculturali.it/VincoliInRete/vir/bene/dettagliobene323446,http://vincoliinrete.beniculturali.it/VincoliInRete/vir/bene/dettagliobene273257\""},{"place_id":"6345","geometry":{"type":"Point","coordinates":[11.107605187,44.410626568]},"display_name":"\"Castello di Mongiorgio, Chiesa di San Sigismondo e pertinenze\",from:MIBACT","category":"attractions","type":"Rocca","importance":0.7,"icon":"","visiting_time":0.0,"opening_hours":"ok","opening_days":"ok","rating":0,"photo_url":null,"description":null,"www":"\"http://vincoliinrete.beniculturali.it/VincoliInRete/vir/bene/dettagliobene414430,http://vincoliinrete.beniculturali.it/VincoliInRete/vir/bene/dettagliobene578203\""},{"place_id":"19630","geometry":{"type":"Point","coordinates":[11.164240495,44.411216603]},"display_name":"Chiesa di San Giovanni Battista,from:MIBACT","category":"attractions","type":"Chiesa","importance":0.7,"icon":"","visiting_time":0.0,"opening_hours":"ok","opening_days":"ok","rating":0,"photo_url":null,"description":null,"www":"\"http://vincoliinrete.beniculturali.it/VincoliInRete/vir/bene/dettagliobene2813415,http://vincoliinrete.beniculturali.it/VincoliInRete/vir/bene/dettagliobene2813385\""},{"place_id":"4050","geometry":{"type":"Point","coordinates":[11.092263314,44.469396216]},"display_name":"Chiesa e chiostro di Monteveglio,from:MIBACT","category":"attractions","type":"Chiesa","importance":0.7,"icon":"","visiting_time":0.0,"opening_hours":"ok","opening_days":"ok","rating":0,"photo_url":null,"description":null,"www":"\"http://vincoliinrete.beniculturali.it/VincoliInRete/vir/bene/dettagliobene578241,http://vincoliinrete.beniculturali.it/VincoliInRete/vir/bene/dettagliobene212955\""},{"place_id":"6089","geometry":{"type":"Point","coordinates":[11.031354128,44.437707057]},"display_name":"Casa comunale con torre,from:MIBACT","category":"attractions","type":"Torre","importance":0.4,"icon":"","visiting_time":0.0,"opening_hours":"ok","opening_days":"ok","rating":0,"photo_url":null,"description":null,"www":null},{"place_id":"4049","geometry":{"type":"Point","coordinates":[11.09058583,44.46785336]},"display_name":"Castello,from:MIBACT","category":"attractions","type":"Torre","importance":0.7,"icon":"","visiting_time":0.0,"opening_hours":"ok","opening_days":"ok","rating":0,"photo_url":null,"description":null,"www":"http://vincoliinrete.beniculturali.it/VincoliInRete/vir/bene/dettagliobene578228"},{"place_id":"5382","geometry":{"type":"Point","coordinates":[11.083325685,44.503838209]},"display_name":"\"Il Castello (Rocca, Torre dell'Orologio, mura di cinta, ecc.)\",from:MIBACT","category":"attractions","type":"Rocca","importance":0.7,"icon":"","visiting_time":0.0,"opening_hours":"ok","opening_days":"ok","rating":0,"photo_url":null,"description":null,"www":"http://vincoliinrete.beniculturali.it/VincoliInRete/vir/bene/dettagliobene598364"},{"place_id":"5256","geometry":{"type":"Point","coordinates":[11.035251816,44.561598504]},"display_name":"Basilica di San Cesario Diacono Martire e pertinenze,from:MIBACT","category":"attractions","type":"Chiesa","importance":0.9,"icon":"","visiting_time":0.0,"opening_hours":"ok","opening_days":"ok","rating":0,"photo_url":null,"description":null,"www":"\"http://vincoliinrete.beniculturali.it/VincoliInRete/vir/bene/dettagliobene140800,http://vincoliinrete.beniculturali.it/VincoliInRete/vir/bene/dettagliobene276936\""}]