[{"place_id":"46947141","geometry":{"type":"Point","coordinates":[12.1335523,44.1494176]},"display_name":"Piazza Libertà, Bertinoro, FC, EMR, 47032, Italia","category":"attractions","type":"viewpoint","importance":0.001,"icon":"http://nominatim.openstreetmap.org/images/mapicons/tourist_view_point.p.20.png","visiting_time":10.0,"opening_hours":null,"opening_days":null,"rating":0,"photo_url":null,"description":null,"www":null},{"place_id":"7086188","geometry":{"type":"Point","coordinates":[12.1255748,44.1863416]},"display_name":"Tom & Jerry, Via Armando Diaz, San Leonardo, Forlimpopoli, FC, EMR, 47034, Italia","category":"eating","type":"fast_food","importance":0.001,"icon":"http://nominatim.openstreetmap.org/images/mapicons/food_fastfood.p.20.png","visiting_time":30.0,"opening_hours":null,"opening_days":null,"rating":0,"photo_url":null,"description":null,"www":null},{"place_id":"7295566","geometry":{"type":"Point","coordinates":[12.1325175,44.1874817]},"display_name":"New Fantasy, Via della Madonna, San Leonardo, Forlimpopoli, FC, EMR, 47034, Italia","category":"eating","type":"fast_food","importance":0.001,"icon":"http://nominatim.openstreetmap.org/images/mapicons/food_fastfood.p.20.png","visiting_time":30.0,"opening_hours":null,"opening_days":null,"rating":0,"photo_url":null,"description":null,"www":null},{"place_id":"12261361","geometry":{"type":"Point","coordinates":[12.1065069,44.1942326]},"display_name":"America Graffiti, 1387, Via Emilia, San Leonardo, Forlimpopoli, FC, EMR, 47034, Italia","category":"eating","type":"fast_food","importance":0.001,"icon":"http://nominatim.openstreetmap.org/images/mapicons/food_fastfood.p.20.png","visiting_time":30.0,"opening_hours":null,"opening_days":null,"rating":0,"photo_url":null,"description":null,"www":null},{"place_id":"7434621","geometry":{"type":"Point","coordinates":[12.1332957,44.184055]},"display_name":"Sante, Via della Madonna, San Leonardo, Forlimpopoli, FC, EMR, 47034, Italia","category":"eating","type":"fast_food","importance":0.001,"icon":"http://nominatim.openstreetmap.org/images/mapicons/food_fastfood.p.20.png","visiting_time":30.0,"opening_hours":null,"opening_days":null,"rating":0,"photo_url":null,"description":null,"www":null},{"place_id":"58596609","geometry":{"type":"Point","coordinates":[12.1560836,44.1696415]},"display_name":"Via Giardino, Bertinoro, FC, EMR, 47032, Italia","category":"eating","type":"fast_food","importance":0.001,"icon":"http://nominatim.openstreetmap.org/images/mapicons/food_fastfood.p.20.png","visiting_time":30.0,"opening_hours":null,"opening_days":null,"rating":0,"photo_url":null,"description":null,"www":null},{"place_id":"18102889","geometry":{"type":"Point","coordinates":[12.188492,44.1999204]},"display_name":"Voglia di pizza, Via Santa Croce, Bertinoro, FC, EMR, 47032, Italia","category":"eating","type":"fast_food","importance":0.001,"icon":"http://nominatim.openstreetmap.org/images/mapicons/food_fastfood.p.20.png","visiting_time":30.0,"opening_hours":null,"opening_days":null,"rating":0,"photo_url":null,"description":null,"www":null},{"place_id":"17341008","geometry":{"type":"Point","coordinates":[12.1753503,44.166037]},"display_name":"Via Molino Bratti, Bertinoro, FC, EMR, 47032, Italia","category":"eating","type":"fast_food","importance":0.001,"icon":"http://nominatim.openstreetmap.org/images/mapicons/food_fastfood.p.20.png","visiting_time":30.0,"opening_hours":null,"opening_days":null,"rating":0,"photo_url":null,"description":null,"www":null},{"place_id":"18165511","geometry":{"type":"Point","coordinates":[12.1883093,44.1995262]},"display_name":"Da Marco, Via Santa Croce, Bertinoro, FC, EMR, 47032, Italia","category":"eating","type":"fast_food","importance":0.001,"icon":"http://nominatim.openstreetmap.org/images/mapicons/food_fastfood.p.20.png","visiting_time":30.0,"opening_hours":null,"opening_days":null,"rating":0,"photo_url":null,"description":null,"www":null},{"place_id":"12345176","geometry":{"type":"Point","coordinates":[12.0841333,44.2042855]},"display_name":"I Matti anni 30, Via Emilia, Ronco, Forlì, FC, EMR, 47100, Italia","category":"eating","type":"restaurant","importance":0.001,"icon":"http://nominatim.openstreetmap.org/images/mapicons/food_restaurant.p.20.png","visiting_time":60.0,"opening_hours":null,"opening_days":null,"rating":0,"photo_url":null,"description":null,"www":null},{"place_id":"18930521","geometry":{"type":"Point","coordinates":[12.1899184,44.1673448]},"display_name":"Maccanone704, Via Natale Battistini, Quartiere Oltre Savio, Cesena, FC, EMR, 47522, Italia","category":"eating","type":"restaurant","importance":0.001,"icon":"http://nominatim.openstreetmap.org/images/mapicons/food_restaurant.p.20.png","visiting_time":60.0,"opening_hours":null,"opening_days":null,"rating":0,"photo_url":null,"description":null,"www":null},{"place_id":"112825971","geometry":{"type":"Point","coordinates":[12.201907,44.1105811]},"display_name":"Cerina, 936, Via San Vittore, Quartiere Valle Savio, Cesena, FC, EMR, 47522, Italia","category":"eating","type":"restaurant","importance":0.001,"icon":"http://nominatim.openstreetmap.org/images/mapicons/food_restaurant.p.20.png","visiting_time":60.0,"opening_hours":null,"opening_days":null,"rating":0,"photo_url":null,"description":null,"www":null},{"place_id":"50200847","geometry":{"type":"Point","coordinates":[12.1891394,44.1552615]},"display_name":"Quel Castello di Diegaro, Via Bertinoro di Monticino, Quartiere Oltre Savio, Cesena, FC, EMR, 47522, Italia","category":"eating","type":"restaurant","importance":0.001,"icon":"http://nominatim.openstreetmap.org/images/mapicons/food_restaurant.p.20.png","visiting_time":60.0,"opening_hours":null,"opening_days":null,"rating":0,"photo_url":null,"description":null,"www":null},{"place_id":"51070064","geometry":{"type":"Point","coordinates":[12.1007877,44.1503744]},"display_name":"Pizzeria da Lorenzo, Via Tro' Meldola, Forlimpopoli, FC, EMR, 47032, Italia","category":"eating","type":"restaurant","importance":0.001,"icon":"http://nominatim.openstreetmap.org/images/mapicons/food_restaurant.p.20.png","visiting_time":60.0,"opening_hours":null,"opening_days":null,"rating":0,"photo_url":null,"description":null,"www":null},{"place_id":"12346615","geometry":{"type":"Point","coordinates":[12.1015677,44.1944046]},"display_name":"Via della Croce, San Leonardo, Forlimpopoli, FC, EMR, 47034, Italia","category":"eating","type":"restaurant","importance":0.001,"icon":"http://nominatim.openstreetmap.org/images/mapicons/food_restaurant.p.20.png","visiting_time":60.0,"opening_hours":null,"opening_days":null,"rating":0,"photo_url":null,"description":null,"www":null},{"place_id":"7219254","geometry":{"type":"Point","coordinates":[12.1277677,44.1854998]},"display_name":"Ristorante Anna, Via Matteotti, San Leonardo, Forlimpopoli, FC, EMR, 47034, Italia","category":"eating","type":"restaurant","importance":0.001,"icon":"http://nominatim.openstreetmap.org/images/mapicons/food_restaurant.p.20.png","visiting_time":60.0,"opening_hours":null,"opening_days":null,"rating":0,"photo_url":null,"description":null,"www":null},{"place_id":"7095931","geometry":{"type":"Point","coordinates":[12.1236733,44.1869821]},"display_name":"Pizzeria Domus, Via Circonvallazione, San Leonardo, Forlimpopoli, FC, EMR, 47034, Italia","category":"eating","type":"restaurant","importance":0.001,"icon":"http://nominatim.openstreetmap.org/images/mapicons/food_restaurant.p.20.png","visiting_time":60.0,"opening_hours":null,"opening_days":null,"rating":0,"photo_url":null,"description":null,"www":null},{"place_id":"6798821","geometry":{"type":"Point","coordinates":[12.128109,44.1935216]},"display_name":"Fra Diavolo, Via Roma, San Leonardo, Forlimpopoli, FC, EMR, 47034, Italia","category":"eating","type":"restaurant","importance":0.001,"icon":"http://nominatim.openstreetmap.org/images/mapicons/food_restaurant.p.20.png","visiting_time":60.0,"opening_hours":null,"opening_days":null,"rating":0,"photo_url":null,"description":null,"www":null},{"place_id":"7366868","geometry":{"type":"Point","coordinates":[12.1149622,44.186752]},"display_name":"Pizzeria Malù, Via del Melo, San Leonardo, Forlimpopoli, FC, EMR, 47034, Italia","category":"eating","type":"restaurant","importance":0.001,"icon":"http://nominatim.openstreetmap.org/images/mapicons/food_restaurant.p.20.png","visiting_time":60.0,"opening_hours":null,"opening_days":null,"rating":0,"photo_url":null,"description":null,"www":null},{"place_id":"7349468","geometry":{"type":"Point","coordinates":[12.1160378,44.1940772]},"display_name":"Rosa dei Venti, Via Amendola, San Leonardo, Forlimpopoli, FC, EMR, 47034, Italia","category":"eating","type":"restaurant","importance":0.001,"icon":"http://nominatim.openstreetmap.org/images/mapicons/food_restaurant.p.20.png","visiting_time":60.0,"opening_hours":null,"opening_days":null,"rating":0,"photo_url":null,"description":null,"www":null},{"place_id":"7335647","geometry":{"type":"Point","coordinates":[12.1266686,44.1857833]},"display_name":"Ristorante Edo, Via Filippo Turati, San Leonardo, Forlimpopoli, FC, EMR, 47034, Italia","category":"eating","type":"restaurant","importance":0.001,"icon":"http://nominatim.openstreetmap.org/images/mapicons/food_restaurant.p.20.png","visiting_time":60.0,"opening_hours":null,"opening_days":null,"rating":0,"photo_url":null,"description":null,"www":null},{"place_id":"7295566","geometry":{"type":"Point","coordinates":[12.1325175,44.1874817]},"display_name":"New Fantasy, Via della Madonna, San Leonardo, Forlimpopoli, FC, EMR, 47034, Italia","category":"eating","type":"fast_food","importance":0.001,"icon":"http://nominatim.openstreetmap.org/images/mapicons/food_fastfood.p.20.png","visiting_time":60.0,"opening_hours":null,"opening_days":null,"rating":0,"photo_url":null,"description":null,"www":null},{"place_id":"7086188","geometry":{"type":"Point","coordinates":[12.1255748,44.1863416]},"display_name":"Tom & Jerry, Via Armando Diaz, San Leonardo, Forlimpopoli, FC, EMR, 47034, Italia","category":"eating","type":"fast_food","importance":0.001,"icon":"http://nominatim.openstreetmap.org/images/mapicons/food_fastfood.p.20.png","visiting_time":60.0,"opening_hours":null,"opening_days":null,"rating":0,"photo_url":null,"description":null,"www":null},{"place_id":"12261361","geometry":{"type":"Point","coordinates":[12.1065069,44.1942326]},"display_name":"America Graffiti, 1387, Via Emilia, San Leonardo, Forlimpopoli, FC, EMR, 47034, Italia","category":"eating","type":"fast_food","importance":0.001,"icon":"http://nominatim.openstreetmap.org/images/mapicons/food_fastfood.p.20.png","visiting_time":60.0,"opening_hours":null,"opening_days":null,"rating":0,"photo_url":null,"description":null,"www":null},{"place_id":"7434621","geometry":{"type":"Point","coordinates":[12.1332957,44.184055]},"display_name":"Sante, Via della Madonna, San Leonardo, Forlimpopoli, FC, EMR, 47034, Italia","category":"eating","type":"fast_food","importance":0.001,"icon":"http://nominatim.openstreetmap.org/images/mapicons/food_fastfood.p.20.png","visiting_time":60.0,"opening_hours":null,"opening_days":null,"rating":0,"photo_url":null,"description":null,"www":null},{"place_id":"7249001","geometry":{"type":"Point","coordinates":[12.1388505,44.1418996]},"display_name":"Ristorante Monte Maggio, Via dei Cappuccini, Bertinoro, FC, EMR, 47032, Italia","category":"eating","type":"restaurant","importance":0.001,"icon":"http://nominatim.openstreetmap.org/images/mapicons/food_restaurant.p.20.png","visiting_time":60.0,"opening_hours":null,"opening_days":null,"rating":0,"photo_url":null,"description":null,"www":null},{"place_id":"44070086","geometry":{"type":"Point","coordinates":[12.1348453,44.1495308]},"display_name":"Ristorante pizzeria L'altro palato, 11, Via Novelli, Bertinoro, FC, EMR, 47032, Italia","category":"eating","type":"restaurant","importance":0.001,"icon":"http://nominatim.openstreetmap.org/images/mapicons/food_restaurant.p.20.png","visiting_time":60.0,"opening_hours":null,"opening_days":null,"rating":0,"photo_url":null,"description":null,"www":null},{"place_id":"18586206","geometry":{"type":"Point","coordinates":[12.1874584,44.1994776]},"display_name":"Il Mangione, 59, Via Palmiro Togliatti, Bertinoro, FC, EMR, 47032, Italia","category":"eating","type":"restaurant","importance":0.001,"icon":"http://nominatim.openstreetmap.org/images/mapicons/food_restaurant.p.20.png","visiting_time":60.0,"opening_hours":null,"opening_days":null,"rating":0,"photo_url":null,"description":null,"www":null},{"place_id":"57464665","geometry":{"type":"Point","coordinates":[12.1680202,44.1546653]},"display_name":"Ristorante Pizzeria Locanda Gradisca, 630, Via Molino Bratti, Bertinoro, FC, EMR, 47032, Italia","category":"eating","type":"restaurant","importance":0.001,"icon":"http://nominatim.openstreetmap.org/images/mapicons/food_restaurant.p.20.png","visiting_time":60.0,"opening_hours":null,"opening_days":null,"rating":0,"photo_url":null,"description":null,"www":null},{"place_id":"112427567","geometry":{"type":"Point","coordinates":[12.133343201,44.15006415]},"display_name":"L'Altopalato, Via Francesco Rossi, Bertinoro, FC, EMR, 47032, Italia","category":"eating","type":"restaurant","importance":0.001,"icon":"http://nominatim.openstreetmap.org/images/mapicons/food_restaurant.p.20.png","visiting_time":60.0,"opening_hours":null,"opening_days":null,"rating":0,"photo_url":null,"description":null,"www":null},{"place_id":"111273126","geometry":{"type":"Point","coordinates":[12.133631129,44.1494294]},"display_name":"Ca' de Bé Osteria Enoteca, 10, Piazza Libertà, Bertinoro, FC, EMR, 47032, Italia","category":"eating","type":"restaurant","importance":0.001,"icon":"http://nominatim.openstreetmap.org/images/mapicons/food_restaurant.p.20.png","visiting_time":60.0,"opening_hours":null,"opening_days":null,"rating":0,"photo_url":null,"description":null,"www":null},{"place_id":"44484787","geometry":{"type":"Point","coordinates":[12.1323161,44.1490918]},"display_name":"Trattoria Societa Operaia di Mutuo Soccorso - Locanda della Fortuna, 1, Via Aldruda Frangipane, Bertinoro, FC, EMR, 47032, Italia","category":"eating","type":"restaurant","importance":0.001,"icon":"http://nominatim.openstreetmap.org/images/mapicons/food_restaurant.p.20.png","visiting_time":60.0,"opening_hours":null,"opening_days":null,"rating":0,"photo_url":null,"description":null,"www":null},{"place_id":"6937802","geometry":{"type":"Point","coordinates":[12.1361255,44.1439453]},"display_name":"Agriturismo Casina Pontormo, 460, Via dei Cappuccini, Bertinoro, FC, EMR, 47032, Italia","category":"eating","type":"restaurant","importance":0.001,"icon":"http://nominatim.openstreetmap.org/images/mapicons/food_restaurant.p.20.png","visiting_time":60.0,"opening_hours":null,"opening_days":null,"rating":0,"photo_url":null,"description":null,"www":null},{"place_id":"53305911","geometry":{"type":"Point","coordinates":[12.0994305,44.1430154]},"display_name":"Pizzeria Notte E Di', 96, Via Ludovico Ariosto, Bertinoro, FC, EMR, 47032, Italia","category":"eating","type":"restaurant","importance":0.001,"icon":"http://nominatim.openstreetmap.org/images/mapicons/food_restaurant.p.20.png","visiting_time":60.0,"opening_hours":null,"opening_days":null,"rating":0,"photo_url":null,"description":null,"www":null},{"place_id":"112850945","geometry":{"type":"Point","coordinates":[12.177762767,44.2179257]},"display_name":"Ristorante Ciao, Autostrada Adriatica, Quartiere Dismano, Bertinoro, FC, EMR, Italia","category":"eating","type":"restaurant","importance":0.001,"icon":"http://nominatim.openstreetmap.org/images/mapicons/food_restaurant.p.20.png","visiting_time":60.0,"opening_hours":null,"opening_days":null,"rating":0,"photo_url":null,"description":null,"www":null},{"place_id":"22023029","geometry":{"type":"Point","coordinates":[12.1489199,44.1160565]},"display_name":"Ristorante Luis, 541, Viale Collinello, Bertinoro, FC, EMR, 47032, Italia","category":"eating","type":"restaurant","importance":0.001,"icon":"http://nominatim.openstreetmap.org/images/mapicons/food_restaurant.p.20.png","visiting_time":60.0,"opening_hours":null,"opening_days":null,"rating":0,"photo_url":null,"description":null,"www":null},{"place_id":"58596609","geometry":{"type":"Point","coordinates":[12.1560836,44.1696415]},"display_name":"Via Giardino, Bertinoro, FC, EMR, 47032, Italia","category":"eating","type":"fast_food","importance":0.001,"icon":"http://nominatim.openstreetmap.org/images/mapicons/food_fastfood.p.20.png","visiting_time":60.0,"opening_hours":null,"opening_days":null,"rating":0,"photo_url":null,"description":null,"www":null},{"place_id":"18165511","geometry":{"type":"Point","coordinates":[12.1883093,44.1995262]},"display_name":"Da Marco, Via Santa Croce, Bertinoro, FC, EMR, 47032, Italia","category":"eating","type":"fast_food","importance":0.001,"icon":"http://nominatim.openstreetmap.org/images/mapicons/food_fastfood.p.20.png","visiting_time":60.0,"opening_hours":null,"opening_days":null,"rating":0,"photo_url":null,"description":null,"www":null},{"place_id":"17341008","geometry":{"type":"Point","coordinates":[12.1753503,44.166037]},"display_name":"Via Molino Bratti, Bertinoro, FC, EMR, 47032, Italia","category":"eating","type":"fast_food","importance":0.001,"icon":"http://nominatim.openstreetmap.org/images/mapicons/food_fastfood.p.20.png","visiting_time":60.0,"opening_hours":null,"opening_days":null,"rating":0,"photo_url":null,"description":null,"www":null},{"place_id":"18102889","geometry":{"type":"Point","coordinates":[12.188492,44.1999204]},"display_name":"Voglia di pizza, Via Santa Croce, Bertinoro, FC, EMR, 47032, Italia","category":"eating","type":"fast_food","importance":0.001,"icon":"http://nominatim.openstreetmap.org/images/mapicons/food_fastfood.p.20.png","visiting_time":60.0,"opening_hours":null,"opening_days":null,"rating":0,"photo_url":null,"description":null,"www":null},{"place_id":"12345176","geometry":{"type":"Point","coordinates":[12.0841333,44.2042855]},"display_name":"I Matti anni 30, Via Emilia, Ronco, Forlì, FC, EMR, 47100, Italia","category":"eating","type":"restaurant","importance":0.001,"icon":"http://nominatim.openstreetmap.org/images/mapicons/food_restaurant.p.20.png","visiting_time":60.0,"opening_hours":null,"opening_days":null,"rating":0,"photo_url":null,"description":null,"www":null},{"place_id":"18930521","geometry":{"type":"Point","coordinates":[12.1899184,44.1673448]},"display_name":"Maccanone704, Via Natale Battistini, Quartiere Oltre Savio, Cesena, FC, EMR, 47522, Italia","category":"eating","type":"restaurant","importance":0.001,"icon":"http://nominatim.openstreetmap.org/images/mapicons/food_restaurant.p.20.png","visiting_time":60.0,"opening_hours":null,"opening_days":null,"rating":0,"photo_url":null,"description":null,"www":null},{"place_id":"112825971","geometry":{"type":"Point","coordinates":[12.201907,44.1105811]},"display_name":"Cerina, 936, Via San Vittore, Quartiere Valle Savio, Cesena, FC, EMR, 47522, Italia","category":"eating","type":"restaurant","importance":0.001,"icon":"http://nominatim.openstreetmap.org/images/mapicons/food_restaurant.p.20.png","visiting_time":60.0,"opening_hours":null,"opening_days":null,"rating":0,"photo_url":null,"description":null,"www":null},{"place_id":"50200847","geometry":{"type":"Point","coordinates":[12.1891394,44.1552615]},"display_name":"Quel Castello di Diegaro, Via Bertinoro di Monticino, Quartiere Oltre Savio, Cesena, FC, EMR, 47522, Italia","category":"eating","type":"restaurant","importance":0.001,"icon":"http://nominatim.openstreetmap.org/images/mapicons/food_restaurant.p.20.png","visiting_time":60.0,"opening_hours":null,"opening_days":null,"rating":0,"photo_url":null,"description":null,"www":null},{"place_id":"7335647","geometry":{"type":"Point","coordinates":[12.1266686,44.1857833]},"display_name":"Ristorante Edo, Via Filippo Turati, San Leonardo, Forlimpopoli, FC, EMR, 47034, Italia","category":"eating","type":"restaurant","importance":0.001,"icon":"http://nominatim.openstreetmap.org/images/mapicons/food_restaurant.p.20.png","visiting_time":60.0,"opening_hours":null,"opening_days":null,"rating":0,"photo_url":null,"description":null,"www":null},{"place_id":"7219254","geometry":{"type":"Point","coordinates":[12.1277677,44.1854998]},"display_name":"Ristorante Anna, Via Matteotti, San Leonardo, Forlimpopoli, FC, EMR, 47034, Italia","category":"eating","type":"restaurant","importance":0.001,"icon":"http://nominatim.openstreetmap.org/images/mapicons/food_restaurant.p.20.png","visiting_time":60.0,"opening_hours":null,"opening_days":null,"rating":0,"photo_url":null,"description":null,"www":null},{"place_id":"7366868","geometry":{"type":"Point","coordinates":[12.1149622,44.186752]},"display_name":"Pizzeria Malù, Via del Melo, San Leonardo, Forlimpopoli, FC, EMR, 47034, Italia","category":"eating","type":"restaurant","importance":0.001,"icon":"http://nominatim.openstreetmap.org/images/mapicons/food_restaurant.p.20.png","visiting_time":60.0,"opening_hours":null,"opening_days":null,"rating":0,"photo_url":null,"description":null,"www":null},{"place_id":"51070064","geometry":{"type":"Point","coordinates":[12.1007877,44.1503744]},"display_name":"Pizzeria da Lorenzo, Via Tro' Meldola, Forlimpopoli, FC, EMR, 47032, Italia","category":"eating","type":"restaurant","importance":0.001,"icon":"http://nominatim.openstreetmap.org/images/mapicons/food_restaurant.p.20.png","visiting_time":60.0,"opening_hours":null,"opening_days":null,"rating":0,"photo_url":null,"description":null,"www":null},{"place_id":"7349468","geometry":{"type":"Point","coordinates":[12.1160378,44.1940772]},"display_name":"Rosa dei Venti, Via Amendola, San Leonardo, Forlimpopoli, FC, EMR, 47034, Italia","category":"eating","type":"restaurant","importance":0.001,"icon":"http://nominatim.openstreetmap.org/images/mapicons/food_restaurant.p.20.png","visiting_time":60.0,"opening_hours":null,"opening_days":null,"rating":0,"photo_url":null,"description":null,"www":null},{"place_id":"12346615","geometry":{"type":"Point","coordinates":[12.1015677,44.1944046]},"display_name":"Via della Croce, San Leonardo, Forlimpopoli, FC, EMR, 47034, Italia","category":"eating","type":"restaurant","importance":0.001,"icon":"http://nominatim.openstreetmap.org/images/mapicons/food_restaurant.p.20.png","visiting_time":60.0,"opening_hours":null,"opening_days":null,"rating":0,"photo_url":null,"description":null,"www":null},{"place_id":"6798821","geometry":{"type":"Point","coordinates":[12.128109,44.1935216]},"display_name":"Fra Diavolo, Via Roma, San Leonardo, Forlimpopoli, FC, EMR, 47034, Italia","category":"eating","type":"restaurant","importance":0.001,"icon":"http://nominatim.openstreetmap.org/images/mapicons/food_restaurant.p.20.png","visiting_time":60.0,"opening_hours":null,"opening_days":null,"rating":0,"photo_url":null,"description":null,"www":null},{"place_id":"7095931","geometry":{"type":"Point","coordinates":[12.1236733,44.1869821]},"display_name":"Pizzeria Domus, Via Circonvallazione, San Leonardo, Forlimpopoli, FC, EMR, 47034, Italia","category":"eating","type":"restaurant","importance":0.001,"icon":"http://nominatim.openstreetmap.org/images/mapicons/food_restaurant.p.20.png","visiting_time":60.0,"opening_hours":null,"opening_days":null,"rating":0,"photo_url":null,"description":null,"www":null},{"place_id":"112850945","geometry":{"type":"Point","coordinates":[12.177762767,44.2179257]},"display_name":"Ristorante Ciao, Autostrada Adriatica, Quartiere Dismano, Bertinoro, FC, EMR, Italia","category":"eating","type":"restaurant","importance":0.001,"icon":"http://nominatim.openstreetmap.org/images/mapicons/food_restaurant.p.20.png","visiting_time":60.0,"opening_hours":null,"opening_days":null,"rating":0,"photo_url":null,"description":null,"www":null},{"place_id":"53305911","geometry":{"type":"Point","coordinates":[12.0994305,44.1430154]},"display_name":"Pizzeria Notte E Di', 96, Via Ludovico Ariosto, Bertinoro, FC, EMR, 47032, Italia","category":"eating","type":"restaurant","importance":0.001,"icon":"http://nominatim.openstreetmap.org/images/mapicons/food_restaurant.p.20.png","visiting_time":60.0,"opening_hours":null,"opening_days":null,"rating":0,"photo_url":null,"description":null,"www":null},{"place_id":"6937802","geometry":{"type":"Point","coordinates":[12.1361255,44.1439453]},"display_name":"Agriturismo Casina Pontormo, 460, Via dei Cappuccini, Bertinoro, FC, EMR, 47032, Italia","category":"eating","type":"restaurant","importance":0.001,"icon":"http://nominatim.openstreetmap.org/images/mapicons/food_restaurant.p.20.png","visiting_time":60.0,"opening_hours":null,"opening_days":null,"rating":0,"photo_url":null,"description":null,"www":null},{"place_id":"22023029","geometry":{"type":"Point","coordinates":[12.1489199,44.1160565]},"display_name":"Ristorante Luis, 541, Viale Collinello, Bertinoro, FC, EMR, 47032, Italia","category":"eating","type":"restaurant","importance":0.001,"icon":"http://nominatim.openstreetmap.org/images/mapicons/food_restaurant.p.20.png","visiting_time":60.0,"opening_hours":null,"opening_days":null,"rating":0,"photo_url":null,"description":null,"www":null},{"place_id":"112427567","geometry":{"type":"Point","coordinates":[12.133343201,44.15006415]},"display_name":"L'Altopalato, Via Francesco Rossi, Bertinoro, FC, EMR, 47032, Italia","category":"eating","type":"restaurant","importance":0.001,"icon":"http://nominatim.openstreetmap.org/images/mapicons/food_restaurant.p.20.png","visiting_time":60.0,"opening_hours":null,"opening_days":null,"rating":0,"photo_url":null,"description":null,"www":null},{"place_id":"57464665","geometry":{"type":"Point","coordinates":[12.1680202,44.1546653]},"display_name":"Ristorante Pizzeria Locanda Gradisca, 630, Via Molino Bratti, Bertinoro, FC, EMR, 47032, Italia","category":"eating","type":"restaurant","importance":0.001,"icon":"http://nominatim.openstreetmap.org/images/mapicons/food_restaurant.p.20.png","visiting_time":60.0,"opening_hours":null,"opening_days":null,"rating":0,"photo_url":null,"description":null,"www":null},{"place_id":"44070086","geometry":{"type":"Point","coordinates":[12.1348453,44.1495308]},"display_name":"Ristorante pizzeria L'altro palato, 11, Via Novelli, Bertinoro, FC, EMR, 47032, Italia","category":"eating","type":"restaurant","importance":0.001,"icon":"http://nominatim.openstreetmap.org/images/mapicons/food_restaurant.p.20.png","visiting_time":60.0,"opening_hours":null,"opening_days":null,"rating":0,"photo_url":null,"description":null,"www":null},{"place_id":"44484787","geometry":{"type":"Point","coordinates":[12.1323161,44.1490918]},"display_name":"Trattoria Societa Operaia di Mutuo Soccorso - Locanda della Fortuna, 1, Via Aldruda Frangipane, Bertinoro, FC, EMR, 47032, Italia","category":"eating","type":"restaurant","importance":0.001,"icon":"http://nominatim.openstreetmap.org/images/mapicons/food_restaurant.p.20.png","visiting_time":60.0,"opening_hours":null,"opening_days":null,"rating":0,"photo_url":null,"description":null,"www":null},{"place_id":"18586206","geometry":{"type":"Point","coordinates":[12.1874584,44.1994776]},"display_name":"Il Mangione, 59, Via Palmiro Togliatti, Bertinoro, FC, EMR, 47032, Italia","category":"eating","type":"restaurant","importance":0.001,"icon":"http://nominatim.openstreetmap.org/images/mapicons/food_restaurant.p.20.png","visiting_time":60.0,"opening_hours":null,"opening_days":null,"rating":0,"photo_url":null,"description":null,"www":null},{"place_id":"7249001","geometry":{"type":"Point","coordinates":[12.1388505,44.1418996]},"display_name":"Ristorante Monte Maggio, Via dei Cappuccini, Bertinoro, FC, EMR, 47032, Italia","category":"eating","type":"restaurant","importance":0.001,"icon":"http://nominatim.openstreetmap.org/images/mapicons/food_restaurant.p.20.png","visiting_time":60.0,"opening_hours":null,"opening_days":null,"rating":0,"photo_url":null,"description":null,"www":null},{"place_id":"111273126","geometry":{"type":"Point","coordinates":[12.133631129,44.1494294]},"display_name":"Ca' de Bé Osteria Enoteca, 10, Piazza Libertà, Bertinoro, FC, EMR, 47032, Italia","category":"eating","type":"restaurant","importance":0.001,"icon":"http://nominatim.openstreetmap.org/images/mapicons/food_restaurant.p.20.png","visiting_time":60.0,"opening_hours":null,"opening_days":null,"rating":0,"photo_url":null,"description":null,"www":null},{"place_id":"114814281","geometry":{"type":"Point","coordinates":[12.127016508,44.18720495]},"display_name":"Piazza Trieste, San Leonardo, Forlimpopoli, FC, EMR, 47034, Italia","category":"attractions","type":"castle","importance":0.001,"icon":"http://nominatim.openstreetmap.org/images/mapicons/tourist_castle.p.20.png","visiting_time":120.0,"opening_hours":null,"opening_days":null,"rating":0,"photo_url":null,"description":null,"www":null},{"place_id":"111124943","geometry":{"type":"Point","coordinates":[12.133113734,44.14741765]},"display_name":"Rocca di Bertinoro, Via Aldruda Frangipane, Bertinoro, FC, EMR, 47032, Italia","category":"attractions","type":"castle","importance":0.001,"icon":"http://nominatim.openstreetmap.org/images/mapicons/tourist_castle.p.20.png","visiting_time":120.0,"opening_hours":null,"opening_days":null,"rating":0,"photo_url":null,"description":null,"www":null},{"place_id":"17710457","geometry":{"type":"Point","coordinates":[12.0808652,44.2052351]},"display_name":"Bar Amici Miei, Viale Roma, Ronco, Forlì, FC, EMR, 47121, Italia","category":"lifestyle","type":"bar","importance":0.101,"icon":"http://nominatim.openstreetmap.org/images/mapicons/food_bar.p.20.png","visiting_time":10.0,"opening_hours":null,"opening_days":null,"rating":0,"photo_url":null,"description":null,"www":null},{"place_id":"5298050","geometry":{"type":"Point","coordinates":[12.1961324,44.105802]},"display_name":"Big Ban Bar, Via San Vittore, Quartiere Valle Savio, Cesena, FC, EMR, 47522, Italia","category":"lifestyle","type":"bar","importance":0.101,"icon":"http://nominatim.openstreetmap.org/images/mapicons/food_bar.p.20.png","visiting_time":10.0,"opening_hours":null,"opening_days":null,"rating":0,"photo_url":null,"description":null,"www":null},{"place_id":"25074625","geometry":{"type":"Point","coordinates":[12.2042333,44.1114947]},"display_name":"Snack Bar, Strada Statale 3 bis Tiberina, Quartiere Valle Savio, Cesena, FC, EMR, 47522, Italia","category":"lifestyle","type":"bar","importance":0.101,"icon":"http://nominatim.openstreetmap.org/images/mapicons/food_bar.p.20.png","visiting_time":10.0,"opening_hours":null,"opening_days":null,"rating":0,"photo_url":null,"description":null,"www":null},{"place_id":"7164414","geometry":{"type":"Point","coordinates":[12.1286385,44.1875846]},"display_name":"Bar pasticceria Maltoni, Via Duca d'Aosta, San Leonardo, Forlimpopoli, FC, EMR, 47034, Italia","category":"lifestyle","type":"bar","importance":0.101,"icon":"http://nominatim.openstreetmap.org/images/mapicons/food_bar.p.20.png","visiting_time":10.0,"opening_hours":null,"opening_days":null,"rating":0,"photo_url":null,"description":null,"www":null},{"place_id":"7228610","geometry":{"type":"Point","coordinates":[12.1232615,44.1871161]},"display_name":"Bar Agip, Via Circonvallazione, San Leonardo, Forlimpopoli, FC, EMR, 47034, Italia","category":"lifestyle","type":"bar","importance":0.101,"icon":"http://nominatim.openstreetmap.org/images/mapicons/food_bar.p.20.png","visiting_time":10.0,"opening_hours":null,"opening_days":null,"rating":0,"photo_url":null,"description":null,"www":null},{"place_id":"23711153","geometry":{"type":"Point","coordinates":[12.1891098,44.1612652]},"display_name":"Bar Alfero, 382, Via Emilia Ponente, Quartiere Oltre Savio, Bertinoro, FC, EMR, 47522, Italia","category":"lifestyle","type":"bar","importance":0.101,"icon":"http://nominatim.openstreetmap.org/images/mapicons/food_bar.p.20.png","visiting_time":10.0,"opening_hours":null,"opening_days":null,"rating":0,"photo_url":null,"description":null,"www":null},{"place_id":"24857241","geometry":{"type":"Point","coordinates":[12.18819,44.2016092]},"display_name":"Cocco's bar, Via Primo Maggio, Bertinoro, FC, EMR, Italia","category":"lifestyle","type":"bar","importance":0.101,"icon":"http://nominatim.openstreetmap.org/images/mapicons/food_bar.p.20.png","visiting_time":10.0,"opening_hours":null,"opening_days":null,"rating":0,"photo_url":null,"description":null,"www":null},{"place_id":"7377504","geometry":{"type":"Point","coordinates":[12.127608,44.1877463]},"display_name":"Cantina del Pozzo, Via Vittorio Veneto, San Leonardo, Forlimpopoli, FC, EMR, 47034, Italia","category":"lifestyle","type":"pub","importance":0.001,"icon":"http://nominatim.openstreetmap.org/images/mapicons/food_pub.p.20.png","visiting_time":10.0,"opening_hours":null,"opening_days":null,"rating":0,"photo_url":null,"description":null,"www":null},{"place_id":"7175724","geometry":{"type":"Point","coordinates":[12.1154381,44.1872248]},"display_name":"Majenta Cafè, Via Coriano, San Leonardo, Forlimpopoli, FC, EMR, 47034, Italia","category":"lifestyle","type":"bar","importance":0.001,"icon":"http://nominatim.openstreetmap.org/images/mapicons/food_bar.p.20.png","visiting_time":10.0,"opening_hours":null,"opening_days":null,"rating":0,"photo_url":null,"description":null,"www":null},{"place_id":"7295566","geometry":{"type":"Point","coordinates":[12.1325175,44.1874817]},"display_name":"New Fantasy, Via della Madonna, San Leonardo, Forlimpopoli, FC, EMR, 47034, Italia","category":"lifestyle","type":"fast_food","importance":0.001,"icon":"http://nominatim.openstreetmap.org/images/mapicons/food_fastfood.p.20.png","visiting_time":10.0,"opening_hours":null,"opening_days":null,"rating":0,"photo_url":null,"description":null,"www":null},{"place_id":"7086188","geometry":{"type":"Point","coordinates":[12.1255748,44.1863416]},"display_name":"Tom & Jerry, Via Armando Diaz, San Leonardo, Forlimpopoli, FC, EMR, 47034, Italia","category":"lifestyle","type":"fast_food","importance":0.001,"icon":"http://nominatim.openstreetmap.org/images/mapicons/food_fastfood.p.20.png","visiting_time":10.0,"opening_hours":null,"opening_days":null,"rating":0,"photo_url":null,"description":null,"www":null},{"place_id":"7434621","geometry":{"type":"Point","coordinates":[12.1332957,44.184055]},"display_name":"Sante, Via della Madonna, San Leonardo, Forlimpopoli, FC, EMR, 47034, Italia","category":"lifestyle","type":"fast_food","importance":0.001,"icon":"http://nominatim.openstreetmap.org/images/mapicons/food_fastfood.p.20.png","visiting_time":10.0,"opening_hours":null,"opening_days":null,"rating":0,"photo_url":null,"description":null,"www":null},{"place_id":"12261361","geometry":{"type":"Point","coordinates":[12.1065069,44.1942326]},"display_name":"America Graffiti, 1387, Via Emilia, San Leonardo, Forlimpopoli, FC, EMR, 47034, Italia","category":"lifestyle","type":"fast_food","importance":0.001,"icon":"http://nominatim.openstreetmap.org/images/mapicons/food_fastfood.p.20.png","visiting_time":10.0,"opening_hours":null,"opening_days":null,"rating":0,"photo_url":null,"description":null,"www":null},{"place_id":"108917183","geometry":{"type":"Point","coordinates":[12.101105196,44.1374306]},"display_name":"Via Superga, Bertinoro, FC, EMR, Italia","category":"lifestyle","type":"bar","importance":0.001,"icon":"http://nominatim.openstreetmap.org/images/mapicons/food_bar.p.20.png","visiting_time":10.0,"opening_hours":null,"opening_days":null,"rating":0,"photo_url":null,"description":null,"www":null},{"place_id":"18165511","geometry":{"type":"Point","coordinates":[12.1883093,44.1995262]},"display_name":"Da Marco, Via Santa Croce, Bertinoro, FC, EMR, 47032, Italia","category":"lifestyle","type":"fast_food","importance":0.001,"icon":"http://nominatim.openstreetmap.org/images/mapicons/food_fastfood.p.20.png","visiting_time":10.0,"opening_hours":null,"opening_days":null,"rating":0,"photo_url":null,"description":null,"www":null},{"place_id":"58596609","geometry":{"type":"Point","coordinates":[12.1560836,44.1696415]},"display_name":"Via Giardino, Bertinoro, FC, EMR, 47032, Italia","category":"lifestyle","type":"fast_food","importance":0.001,"icon":"http://nominatim.openstreetmap.org/images/mapicons/food_fastfood.p.20.png","visiting_time":10.0,"opening_hours":null,"opening_days":null,"rating":0,"photo_url":null,"description":null,"www":null},{"place_id":"17341008","geometry":{"type":"Point","coordinates":[12.1753503,44.166037]},"display_name":"Via Molino Bratti, Bertinoro, FC, EMR, 47032, Italia","category":"lifestyle","type":"fast_food","importance":0.001,"icon":"http://nominatim.openstreetmap.org/images/mapicons/food_fastfood.p.20.png","visiting_time":10.0,"opening_hours":null,"opening_days":null,"rating":0,"photo_url":null,"description":null,"www":null},{"place_id":"18102889","geometry":{"type":"Point","coordinates":[12.188492,44.1999204]},"display_name":"Voglia di pizza, Via Santa Croce, Bertinoro, FC, EMR, 47032, Italia","category":"lifestyle","type":"fast_food","importance":0.001,"icon":"http://nominatim.openstreetmap.org/images/mapicons/food_fastfood.p.20.png","visiting_time":10.0,"opening_hours":null,"opening_days":null,"rating":0,"photo_url":null,"description":null,"www":null},{"place_id":"17710457","geometry":{"type":"Point","coordinates":[12.0808652,44.2052351]},"display_name":"Bar Amici Miei, Viale Roma, Ronco, Forlì, FC, EMR, 47121, Italia","category":"lifestyle","type":"bar","importance":0.001,"icon":"http://nominatim.openstreetmap.org/images/mapicons/food_bar.p.20.png","visiting_time":90.0,"opening_hours":null,"opening_days":null,"rating":0,"photo_url":null,"description":null,"www":null},{"place_id":"5298050","geometry":{"type":"Point","coordinates":[12.1961324,44.105802]},"display_name":"Big Ban Bar, Via San Vittore, Quartiere Valle Savio, Cesena, FC, EMR, 47522, Italia","category":"lifestyle","type":"bar","importance":0.001,"icon":"http://nominatim.openstreetmap.org/images/mapicons/food_bar.p.20.png","visiting_time":90.0,"opening_hours":null,"opening_days":null,"rating":0,"photo_url":null,"description":null,"www":null},{"place_id":"25074625","geometry":{"type":"Point","coordinates":[12.2042333,44.1114947]},"display_name":"Snack Bar, Strada Statale 3 bis Tiberina, Quartiere Valle Savio, Cesena, FC, EMR, 47522, Italia","category":"lifestyle","type":"bar","importance":0.001,"icon":"http://nominatim.openstreetmap.org/images/mapicons/food_bar.p.20.png","visiting_time":90.0,"opening_hours":null,"opening_days":null,"rating":0,"photo_url":null,"description":null,"www":null},{"place_id":"7377504","geometry":{"type":"Point","coordinates":[12.127608,44.1877463]},"display_name":"Cantina del Pozzo, Via Vittorio Veneto, San Leonardo, Forlimpopoli, FC, EMR, 47034, Italia","category":"lifestyle","type":"pub","importance":0.001,"icon":"http://nominatim.openstreetmap.org/images/mapicons/food_pub.p.20.png","visiting_time":90.0,"opening_hours":null,"opening_days":null,"rating":0,"photo_url":null,"description":null,"www":null},{"place_id":"7164414","geometry":{"type":"Point","coordinates":[12.1286385,44.1875846]},"display_name":"Bar pasticceria Maltoni, Via Duca d'Aosta, San Leonardo, Forlimpopoli, FC, EMR, 47034, Italia","category":"lifestyle","type":"bar","importance":0.001,"icon":"http://nominatim.openstreetmap.org/images/mapicons/food_bar.p.20.png","visiting_time":90.0,"opening_hours":null,"opening_days":null,"rating":0,"photo_url":null,"description":null,"www":null},{"place_id":"7175724","geometry":{"type":"Point","coordinates":[12.1154381,44.1872248]},"display_name":"Majenta Cafè, Via Coriano, San Leonardo, Forlimpopoli, FC, EMR, 47034, Italia","category":"lifestyle","type":"bar","importance":0.001,"icon":"http://nominatim.openstreetmap.org/images/mapicons/food_bar.p.20.png","visiting_time":90.0,"opening_hours":null,"opening_days":null,"rating":0,"photo_url":null,"description":null,"www":null},{"place_id":"7228610","geometry":{"type":"Point","coordinates":[12.1232615,44.1871161]},"display_name":"Bar Agip, Via Circonvallazione, San Leonardo, Forlimpopoli, FC, EMR, 47034, Italia","category":"lifestyle","type":"bar","importance":0.001,"icon":"http://nominatim.openstreetmap.org/images/mapicons/food_bar.p.20.png","visiting_time":90.0,"opening_hours":null,"opening_days":null,"rating":0,"photo_url":null,"description":null,"www":null},{"place_id":"24857241","geometry":{"type":"Point","coordinates":[12.18819,44.2016092]},"display_name":"Cocco's bar, Via Primo Maggio, Bertinoro, FC, EMR, Italia","category":"lifestyle","type":"bar","importance":0.001,"icon":"http://nominatim.openstreetmap.org/images/mapicons/food_bar.p.20.png","visiting_time":90.0,"opening_hours":null,"opening_days":null,"rating":0,"photo_url":null,"description":null,"www":null},{"place_id":"108917183","geometry":{"type":"Point","coordinates":[12.101105196,44.1374306]},"display_name":"Via Superga, Bertinoro, FC, EMR, Italia","category":"lifestyle","type":"bar","importance":0.001,"icon":"http://nominatim.openstreetmap.org/images/mapicons/food_bar.p.20.png","visiting_time":90.0,"opening_hours":null,"opening_days":null,"rating":0,"photo_url":null,"description":null,"www":null},{"place_id":"23711153","geometry":{"type":"Point","coordinates":[12.1891098,44.1612652]},"display_name":"Bar Alfero, 382, Via Emilia Ponente, Quartiere Oltre Savio, Bertinoro, FC, EMR, 47522, Italia","category":"lifestyle","type":"bar","importance":0.001,"icon":"http://nominatim.openstreetmap.org/images/mapicons/food_bar.p.20.png","visiting_time":90.0,"opening_hours":null,"opening_days":null,"rating":0,"photo_url":null,"description":null,"www":null},{"place_id":"180169053","geometry":{"type":"Point","coordinates":[-8.3350726,43.2233149]},"display_name":"Abegondo, Galicia, CAFE, España","category":"lifestyle","type":"postcode","importance":0.2125,"icon":null,"visiting_time":10.0,"opening_hours":null,"opening_days":null,"rating":0,"photo_url":null,"description":null,"www":null},{"place_id":"12342674","geometry":{"type":"Point","coordinates":[12.1015677,44.1942858]},"display_name":"Cobà, Via della Croce, San Leonardo, Forlimpopoli, FC, EMR, 47034, Italia","category":"lifestyle","type":"nightclub","importance":0.001,"icon":null,"visiting_time":120.0,"opening_hours":null,"opening_days":null,"rating":0,"photo_url":null,"description":null,"www":null},{"place_id":"6954654","geometry":{"type":"Point","coordinates":[12.1387345,44.1417967]},"display_name":"Via dei Cappuccini, Bertinoro, FC, EMR, 47032, Italia","category":"lifestyle","type":"nightclub","importance":0.001,"icon":null,"visiting_time":120.0,"opening_hours":null,"opening_days":null,"rating":0,"photo_url":null,"description":null,"www":null},{"place_id":"45528929","geometry":{"type":"Point","coordinates":[12.1319497,44.1490491]},"display_name":"Giuseppe Garibaldi, Via Aldruda Frangipane, Bertinoro, FC, EMR, 47032, Italia","category":"attractions","type":"memorial","importance":0.001,"icon":"http://nominatim.openstreetmap.org/images/mapicons/tourist_monument.p.20.png","visiting_time":10.0,"opening_hours":null,"opening_days":null,"rating":0,"photo_url":null,"description":null,"www":null},{"place_id":"44694516","geometry":{"type":"Point","coordinates":[12.1357059,44.1496519]},"display_name":"Monumento a Garibaldi, Piazza Garibaldi, Bertinoro, FC, EMR, 47032, Italia","category":"attractions","type":"monument","importance":0.101,"icon":"http://nominatim.openstreetmap.org/images/mapicons/tourist_monument.p.20.png","visiting_time":10.0,"opening_hours":null,"opening_days":null,"rating":0,"photo_url":null,"description":null,"www":null},{"place_id":"112299061","geometry":{"type":"Point","coordinates":[12.08148332,44.19837]},"display_name":"Viale Bidente, Ronco, Forlì, FC, EMR, 47100, Italia","category":"attractions","type":"monument","importance":0.001,"icon":"http://nominatim.openstreetmap.org/images/mapicons/tourist_monument.p.20.png","visiting_time":10.0,"opening_hours":null,"opening_days":null,"rating":0,"photo_url":null,"description":null,"www":null},{"place_id":"116656489","geometry":{"type":"Point","coordinates":[12.127229437,44.18734265]},"display_name":"Via Andrea Costa, San Leonardo, Forlimpopoli, FC, EMR, 47034, Italia","category":"attractions","type":"monument","importance":0.001,"icon":"http://nominatim.openstreetmap.org/images/mapicons/tourist_monument.p.20.png","visiting_time":10.0,"opening_hours":null,"opening_days":null,"rating":0,"photo_url":null,"description":null,"www":null},{"place_id":"45528929","geometry":{"type":"Point","coordinates":[12.1319497,44.1490491]},"display_name":"Giuseppe Garibaldi, Via Aldruda Frangipane, Bertinoro, FC, EMR, 47032, Italia","category":"attractions","type":"memorial","importance":0.001,"icon":"http://nominatim.openstreetmap.org/images/mapicons/tourist_monument.p.20.png","visiting_time":10.0,"opening_hours":null,"opening_days":null,"rating":0,"photo_url":null,"description":null,"www":null},{"place_id":"135596734","geometry":{"type":"Point","coordinates":[12.08445636,44.20062785]},"display_name":"Ronco Lido, Ronco, Forlì, FC, EMR, Italia","category":"parks","type":"park","importance":0.15,"icon":null,"visiting_time":90.0,"opening_hours":null,"opening_days":null,"rating":0,"photo_url":null,"description":null,"www":null},{"place_id":"135879218","geometry":{"type":"Point","coordinates":[12.082616414,44.20404385]},"display_name":"Ronco, Forlì, FC, EMR, Italia","category":"parks","type":"park","importance":0.15,"icon":null,"visiting_time":90.0,"opening_hours":null,"opening_days":null,"rating":0,"photo_url":null,"description":null,"www":null},{"place_id":"87454255","geometry":{"type":"Point","coordinates":[12.21302138,44.1550305]},"display_name":"Quartiere Oltre Savio, Cesena, FC, EMR, Italia","category":"parks","type":"park","importance":0.15,"icon":null,"visiting_time":90.0,"opening_hours":null,"opening_days":null,"rating":0,"photo_url":null,"description":null,"www":null},{"place_id":"164626771","geometry":{"type":"Point","coordinates":[12.125150528,44.21176385]},"display_name":"Parco Don Tommaso Gatti, San Leonardo, Forlimpopoli, FC, EMR, Italia","category":"parks","type":"park","importance":0.15,"icon":null,"visiting_time":90.0,"opening_hours":null,"opening_days":null,"rating":0,"photo_url":null,"description":null,"www":null},{"place_id":"162654498","geometry":{"type":"Point","coordinates":[12.127238809,44.18224905]},"display_name":"Parco Urbano Luciano Lama, San Leonardo, Forlimpopoli, FC, EMR, Italia","category":"parks","type":"park","importance":0.15,"icon":null,"visiting_time":90.0,"opening_hours":null,"opening_days":null,"rating":0,"photo_url":null,"description":null,"www":null},{"place_id":"172010706","geometry":{"type":"Point","coordinates":[12.176894223,44.1638194]},"display_name":"Giardino Via Fano, Bertinoro, FC, EMR, Italia","category":"parks","type":"park","importance":0.15,"icon":null,"visiting_time":90.0,"opening_hours":null,"opening_days":null,"rating":0,"photo_url":null,"description":null,"www":null},{"place_id":"107820656","geometry":{"type":"Point","coordinates":[12.186121696,44.19889325]},"display_name":"Bertinoro, FC, EMR, Italia","category":"parks","type":"park","importance":0.15,"icon":null,"visiting_time":90.0,"opening_hours":null,"opening_days":null,"rating":0,"photo_url":null,"description":null,"www":null},{"place_id":"84183733","geometry":{"type":"Point","coordinates":[12.133942593,44.1467449]},"display_name":"Parco giardino dei Popoli, Bertinoro, FC, EMR, Italia","category":"parks","type":"park","importance":0.15,"icon":null,"visiting_time":90.0,"opening_hours":null,"opening_days":null,"rating":0,"photo_url":null,"description":null,"www":null},{"place_id":"114724007","geometry":{"type":"Point","coordinates":[12.113735782,44.226538]},"display_name":"Santuario di Santa Maria delle Grazie, Via del Santuario, Pieve Acquedotto, Forlì, FC, EMR, 47034, Italia","category":"attractions","type":"place_of_worship","importance":0.13061965,"icon":"http://nominatim.openstreetmap.org/images/mapicons/place_of_worship_unknown3.p.20.png","visiting_time":30.0,"opening_hours":null,"opening_days":null,"rating":0,"photo_url":null,"description":null,"www":null},{"place_id":"94583135","geometry":{"type":"Point","coordinates":[12.085132805,44.20393375]},"display_name":"Via Emilia, Ronco, Forlì, FC, EMR, 47100, Italia","category":"attractions","type":"place_of_worship","importance":0.001,"icon":"http://nominatim.openstreetmap.org/images/mapicons/place_of_worship_unknown3.p.20.png","visiting_time":30.0,"opening_hours":null,"opening_days":null,"rating":0,"photo_url":null,"description":null,"www":null},{"place_id":"112490775","geometry":{"type":"Point","coordinates":[12.200405125,44.12419575]},"display_name":"Chiesa di Tipano, Via Chiesa di Tipano, Quartiere Oltre Savio, Cesena, FC, EMR, 47522, Italia","category":"attractions","type":"place_of_worship","importance":0.001,"icon":"http://nominatim.openstreetmap.org/images/mapicons/place_of_worship_unknown3.p.20.png","visiting_time":30.0,"opening_hours":null,"opening_days":null,"rating":0,"photo_url":null,"description":null,"www":null},{"place_id":"112048750","geometry":{"type":"Point","coordinates":[12.197143986,44.1057999]},"display_name":"Chiesa di San Vittore, Via San Vittore, Quartiere Valle Savio, Cesena, FC, EMR, 47522, Italia","category":"attractions","type":"place_of_worship","importance":0.001,"icon":"http://nominatim.openstreetmap.org/images/mapicons/place_of_worship_unknown3.p.20.png","visiting_time":30.0,"opening_hours":null,"opening_days":null,"rating":0,"photo_url":null,"description":null,"www":null},{"place_id":"3884735","geometry":{"type":"Point","coordinates":[12.1858055,44.1848945]},"display_name":"Parrocchia Provezza, Via Provezza, Quartiere Dismano, Cesena, FC, EMR, 47032, Italia","category":"attractions","type":"place_of_worship","importance":0.001,"icon":"http://nominatim.openstreetmap.org/images/mapicons/place_of_worship_unknown3.p.20.png","visiting_time":30.0,"opening_hours":null,"opening_days":null,"rating":0,"photo_url":null,"description":null,"www":null},{"place_id":"114937044","geometry":{"type":"Point","coordinates":[12.211260507,44.13425275]},"display_name":"Pieve di San Mauro in Valle, Via San Mauro, Quartiere Oltre Savio, Cesena, FC, EMR, 47522, Italia","category":"attractions","type":"place_of_worship","importance":0.001,"icon":"http://nominatim.openstreetmap.org/images/mapicons/place_of_worship_unknown3.p.20.png","visiting_time":30.0,"opening_hours":null,"opening_days":null,"rating":0,"photo_url":null,"description":null,"www":null},{"place_id":"54403317","geometry":{"type":"Point","coordinates":[12.1234355,44.1897966]},"display_name":"Chiesa di San Ruffillo, Via Brunori, San Leonardo, Forlimpopoli, FC, EMR, 47034, Italia","category":"attractions","type":"place_of_worship","importance":0.001,"icon":"http://nominatim.openstreetmap.org/images/mapicons/place_of_worship_unknown3.p.20.png","visiting_time":30.0,"opening_hours":null,"opening_days":null,"rating":0,"photo_url":null,"description":null,"www":null},{"place_id":"53032364","geometry":{"type":"Point","coordinates":[12.1328596,44.1836939]},"display_name":"Chiesa della Madonna del Popolo, Via Matteotti, San Leonardo, Forlimpopoli, FC, EMR, 47034, Italia","category":"attractions","type":"place_of_worship","importance":0.001,"icon":"http://nominatim.openstreetmap.org/images/mapicons/place_of_worship_unknown3.p.20.png","visiting_time":30.0,"opening_hours":null,"opening_days":null,"rating":0,"photo_url":null,"description":null,"www":null},{"place_id":"6846006","geometry":{"type":"Point","coordinates":[12.1180464,44.1862333]},"display_name":"Chiesa Santo Spirito, Via Giardino, San Leonardo, Forlimpopoli, FC, EMR, 47034, Italia","category":"attractions","type":"place_of_worship","importance":0.001,"icon":"http://nominatim.openstreetmap.org/images/mapicons/place_of_worship_unknown3.p.20.png","visiting_time":30.0,"opening_hours":null,"opening_days":null,"rating":0,"photo_url":null,"description":null,"www":null},{"place_id":"55317698","geometry":{"type":"Point","coordinates":[12.1261903,44.1883482]},"display_name":"Chiesa dei Servi, Via Cesare Battisti, San Leonardo, Forlimpopoli, FC, EMR, 47034, Italia","category":"attractions","type":"place_of_worship","importance":0.001,"icon":"http://nominatim.openstreetmap.org/images/mapicons/place_of_worship_unknown3.p.20.png","visiting_time":30.0,"opening_hours":null,"opening_days":null,"rating":0,"photo_url":null,"description":null,"www":null},{"place_id":"7420138","geometry":{"type":"Point","coordinates":[12.1268531,44.188706]},"display_name":"San Pietro, Via Massi, San Leonardo, Forlimpopoli, FC, EMR, 47034, Italia","category":"attractions","type":"place_of_worship","importance":0.001,"icon":"http://nominatim.openstreetmap.org/images/mapicons/place_of_worship_unknown3.p.20.png","visiting_time":30.0,"opening_hours":null,"opening_days":null,"rating":0,"photo_url":null,"description":null,"www":null},{"place_id":"55024629","geometry":{"type":"Point","coordinates":[12.1253038,44.1877096]},"display_name":"Chiesa del Carmine, Via Aurelio Saffi, San Leonardo, Forlimpopoli, FC, EMR, 47034, Italia","category":"attractions","type":"place_of_worship","importance":0.001,"icon":"http://nominatim.openstreetmap.org/images/mapicons/place_of_worship_unknown3.p.20.png","visiting_time":30.0,"opening_hours":null,"opening_days":null,"rating":0,"photo_url":null,"description":null,"www":null},{"place_id":"55024626","geometry":{"type":"Point","coordinates":[12.1241451,44.1884221]},"display_name":"Chiesa di San Giovanni Battista, Via Aurelio Saffi, San Leonardo, Forlimpopoli, FC, EMR, 47034, Italia","category":"attractions","type":"place_of_worship","importance":0.001,"icon":"http://nominatim.openstreetmap.org/images/mapicons/place_of_worship_unknown3.p.20.png","visiting_time":30.0,"opening_hours":null,"opening_days":null,"rating":0,"photo_url":null,"description":null,"www":null},{"place_id":"90378547","geometry":{"type":"Point","coordinates":[12.125726173,44.2124217]},"display_name":"Via Pino Terzo, San Leonardo, Forlimpopoli, FC, EMR, 47034, Italia","category":"attractions","type":"place_of_worship","importance":0.001,"icon":"http://nominatim.openstreetmap.org/images/mapicons/place_of_worship_unknown3.p.20.png","visiting_time":30.0,"opening_hours":null,"opening_days":null,"rating":0,"photo_url":null,"description":null,"www":null},{"place_id":"113043992","geometry":{"type":"Point","coordinates":[12.132501337,44.2056634]},"display_name":"Via Celletta, San Leonardo, Forlimpopoli, FC, EMR, 47034, Italia","category":"attractions","type":"place_of_worship","importance":0.001,"icon":"http://nominatim.openstreetmap.org/images/mapicons/place_of_worship_unknown3.p.20.png","visiting_time":30.0,"opening_hours":null,"opening_days":null,"rating":0,"photo_url":null,"description":null,"www":null},{"place_id":"113126364","geometry":{"type":"Point","coordinates":[12.13378438,44.1489585]},"display_name":"Concattedrale di Santa Caterina, Via A. Costa, Bertinoro, FC, EMR, 47032, Italia","category":"attractions","type":"place_of_worship","importance":0.001,"icon":"http://nominatim.openstreetmap.org/images/mapicons/place_of_worship_unknown3.p.20.png","visiting_time":30.0,"opening_hours":null,"opening_days":null,"rating":0,"photo_url":null,"description":null,"www":null},{"place_id":"104938055","geometry":{"type":"Point","coordinates":[12.113134452,44.14973925]},"display_name":"Via Casticciano, Bertinoro, FC, EMR, 47032, Italia","category":"attractions","type":"place_of_worship","importance":0.001,"icon":"http://nominatim.openstreetmap.org/images/mapicons/place_of_worship_unknown3.p.20.png","visiting_time":30.0,"opening_hours":null,"opening_days":null,"rating":0,"photo_url":null,"description":null,"www":null},{"place_id":"113504266","geometry":{"type":"Point","coordinates":[12.176327908,44.16478105]},"display_name":"Via Bologna, Bertinoro, FC, EMR, 47032, Italia","category":"attractions","type":"place_of_worship","importance":0.001,"icon":"http://nominatim.openstreetmap.org/images/mapicons/place_of_worship_unknown3.p.20.png","visiting_time":30.0,"opening_hours":null,"opening_days":null,"rating":0,"photo_url":null,"description":null,"www":null},{"place_id":"18543020","geometry":{"type":"Point","coordinates":[12.1910277,44.2009597]},"display_name":"Via Pablo Neruda, Bertinoro, FC, EMR, Italia","category":"attractions","type":"place_of_worship","importance":0.001,"icon":"http://nominatim.openstreetmap.org/images/mapicons/place_of_worship_unknown3.p.20.png","visiting_time":30.0,"opening_hours":null,"opening_days":null,"rating":0,"photo_url":null,"description":null,"www":null},{"place_id":"7134221","geometry":{"type":"Point","coordinates":[12.1485847,44.1703634]},"display_name":"Santa Maria del Lago, Via Lago, Bertinoro, FC, EMR, 47032, Italia","category":"attractions","type":"place_of_worship","importance":0.001,"icon":"http://nominatim.openstreetmap.org/images/mapicons/place_of_worship_unknown3.p.20.png","visiting_time":30.0,"opening_hours":null,"opening_days":null,"rating":0,"photo_url":null,"description":null,"www":null},{"place_id":"113228371","geometry":{"type":"Point","coordinates":[12.132487074,44.11787125]},"display_name":"Chiesa di San Donato in Polenta, Viale Polenta, Bertinoro, FC, EMR, Italia","category":"attractions","type":"place_of_worship","importance":0.001,"icon":"http://nominatim.openstreetmap.org/images/mapicons/place_of_worship_unknown3.p.20.png","visiting_time":30.0,"opening_hours":null,"opening_days":null,"rating":0,"photo_url":null,"description":null,"www":null},{"place_id":"113839191","geometry":{"type":"Point","coordinates":[12.135411005,44.1457447]},"display_name":"Viale Carducci, Bertinoro, FC, EMR, 47032, Italia","category":"attractions","type":"place_of_worship","importance":0.001,"icon":"http://nominatim.openstreetmap.org/images/mapicons/place_of_worship_unknown3.p.20.png","visiting_time":30.0,"opening_hours":null,"opening_days":null,"rating":0,"photo_url":null,"description":null,"www":null},{"place_id":"114724007","geometry":{"type":"Point","coordinates":[12.113735782,44.226538]},"display_name":"Santuario di Santa Maria delle Grazie, Via del Santuario, Pieve Acquedotto, Forlì, FC, EMR, 47034, Italia","category":"attractions","type":"place_of_worship","importance":0.13061965,"icon":"http://nominatim.openstreetmap.org/images/mapicons/place_of_worship_unknown3.p.20.png","visiting_time":30.0,"opening_hours":null,"opening_days":null,"rating":0,"photo_url":null,"description":null,"www":null},{"place_id":"94583135","geometry":{"type":"Point","coordinates":[12.085132805,44.20393375]},"display_name":"Via Emilia, Ronco, Forlì, FC, EMR, 47100, Italia","category":"attractions","type":"place_of_worship","importance":0.001,"icon":"http://nominatim.openstreetmap.org/images/mapicons/place_of_worship_unknown3.p.20.png","visiting_time":30.0,"opening_hours":null,"opening_days":null,"rating":0,"photo_url":null,"description":null,"www":null},{"place_id":"112490775","geometry":{"type":"Point","coordinates":[12.200405125,44.12419575]},"display_name":"Chiesa di Tipano, Via Chiesa di Tipano, Quartiere Oltre Savio, Cesena, FC, EMR, 47522, Italia","category":"attractions","type":"place_of_worship","importance":0.001,"icon":"http://nominatim.openstreetmap.org/images/mapicons/place_of_worship_unknown3.p.20.png","visiting_time":30.0,"opening_hours":null,"opening_days":null,"rating":0,"photo_url":null,"description":null,"www":null},{"place_id":"112048750","geometry":{"type":"Point","coordinates":[12.197143986,44.1057999]},"display_name":"Chiesa di San Vittore, Via San Vittore, Quartiere Valle Savio, Cesena, FC, EMR, 47522, Italia","category":"attractions","type":"place_of_worship","importance":0.001,"icon":"http://nominatim.openstreetmap.org/images/mapicons/place_of_worship_unknown3.p.20.png","visiting_time":30.0,"opening_hours":null,"opening_days":null,"rating":0,"photo_url":null,"description":null,"www":null},{"place_id":"3884735","geometry":{"type":"Point","coordinates":[12.1858055,44.1848945]},"display_name":"Parrocchia Provezza, Via Provezza, Quartiere Dismano, Cesena, FC, EMR, 47032, Italia","category":"attractions","type":"place_of_worship","importance":0.001,"icon":"http://nominatim.openstreetmap.org/images/mapicons/place_of_worship_unknown3.p.20.png","visiting_time":30.0,"opening_hours":null,"opening_days":null,"rating":0,"photo_url":null,"description":null,"www":null},{"place_id":"114937044","geometry":{"type":"Point","coordinates":[12.211260507,44.13425275]},"display_name":"Pieve di San Mauro in Valle, Via San Mauro, Quartiere Oltre Savio, Cesena, FC, EMR, 47522, Italia","category":"attractions","type":"place_of_worship","importance":0.001,"icon":"http://nominatim.openstreetmap.org/images/mapicons/place_of_worship_unknown3.p.20.png","visiting_time":30.0,"opening_hours":null,"opening_days":null,"rating":0,"photo_url":null,"description":null,"www":null},{"place_id":"54403317","geometry":{"type":"Point","coordinates":[12.1234355,44.1897966]},"display_name":"Chiesa di San Ruffillo, Via Brunori, San Leonardo, Forlimpopoli, FC, EMR, 47034, Italia","category":"attractions","type":"place_of_worship","importance":0.001,"icon":"http://nominatim.openstreetmap.org/images/mapicons/place_of_worship_unknown3.p.20.png","visiting_time":30.0,"opening_hours":null,"opening_days":null,"rating":0,"photo_url":null,"description":null,"www":null},{"place_id":"53032364","geometry":{"type":"Point","coordinates":[12.1328596,44.1836939]},"display_name":"Chiesa della Madonna del Popolo, Via Matteotti, San Leonardo, Forlimpopoli, FC, EMR, 47034, Italia","category":"attractions","type":"place_of_worship","importance":0.001,"icon":"http://nominatim.openstreetmap.org/images/mapicons/place_of_worship_unknown3.p.20.png","visiting_time":30.0,"opening_hours":null,"opening_days":null,"rating":0,"photo_url":null,"description":null,"www":null},{"place_id":"6846006","geometry":{"type":"Point","coordinates":[12.1180464,44.1862333]},"display_name":"Chiesa Santo Spirito, Via Giardino, San Leonardo, Forlimpopoli, FC, EMR, 47034, Italia","category":"attractions","type":"place_of_worship","importance":0.001,"icon":"http://nominatim.openstreetmap.org/images/mapicons/place_of_worship_unknown3.p.20.png","visiting_time":30.0,"opening_hours":null,"opening_days":null,"rating":0,"photo_url":null,"description":null,"www":null},{"place_id":"55317698","geometry":{"type":"Point","coordinates":[12.1261903,44.1883482]},"display_name":"Chiesa dei Servi, Via Cesare Battisti, San Leonardo, Forlimpopoli, FC, EMR, 47034, Italia","category":"attractions","type":"place_of_worship","importance":0.001,"icon":"http://nominatim.openstreetmap.org/images/mapicons/place_of_worship_unknown3.p.20.png","visiting_time":30.0,"opening_hours":null,"opening_days":null,"rating":0,"photo_url":null,"description":null,"www":null},{"place_id":"7420138","geometry":{"type":"Point","coordinates":[12.1268531,44.188706]},"display_name":"San Pietro, Via Massi, San Leonardo, Forlimpopoli, FC, EMR, 47034, Italia","category":"attractions","type":"place_of_worship","importance":0.001,"icon":"http://nominatim.openstreetmap.org/images/mapicons/place_of_worship_unknown3.p.20.png","visiting_time":30.0,"opening_hours":null,"opening_days":null,"rating":0,"photo_url":null,"description":null,"www":null},{"place_id":"55024629","geometry":{"type":"Point","coordinates":[12.1253038,44.1877096]},"display_name":"Chiesa del Carmine, Via Aurelio Saffi, San Leonardo, Forlimpopoli, FC, EMR, 47034, Italia","category":"attractions","type":"place_of_worship","importance":0.001,"icon":"http://nominatim.openstreetmap.org/images/mapicons/place_of_worship_unknown3.p.20.png","visiting_time":30.0,"opening_hours":null,"opening_days":null,"rating":0,"photo_url":null,"description":null,"www":null},{"place_id":"55024626","geometry":{"type":"Point","coordinates":[12.1241451,44.1884221]},"display_name":"Chiesa di San Giovanni Battista, Via Aurelio Saffi, San Leonardo, Forlimpopoli, FC, EMR, 47034, Italia","category":"attractions","type":"place_of_worship","importance":0.001,"icon":"http://nominatim.openstreetmap.org/images/mapicons/place_of_worship_unknown3.p.20.png","visiting_time":30.0,"opening_hours":null,"opening_days":null,"rating":0,"photo_url":null,"description":null,"www":null},{"place_id":"90378547","geometry":{"type":"Point","coordinates":[12.125726173,44.2124217]},"display_name":"Via Pino Terzo, San Leonardo, Forlimpopoli, FC, EMR, 47034, Italia","category":"attractions","type":"place_of_worship","importance":0.001,"icon":"http://nominatim.openstreetmap.org/images/mapicons/place_of_worship_unknown3.p.20.png","visiting_time":30.0,"opening_hours":null,"opening_days":null,"rating":0,"photo_url":null,"description":null,"www":null},{"place_id":"113043992","geometry":{"type":"Point","coordinates":[12.132501337,44.2056634]},"display_name":"Via Celletta, San Leonardo, Forlimpopoli, FC, EMR, 47034, Italia","category":"attractions","type":"place_of_worship","importance":0.001,"icon":"http://nominatim.openstreetmap.org/images/mapicons/place_of_worship_unknown3.p.20.png","visiting_time":30.0,"opening_hours":null,"opening_days":null,"rating":0,"photo_url":null,"description":null,"www":null},{"place_id":"113126364","geometry":{"type":"Point","coordinates":[12.13378438,44.1489585]},"display_name":"Concattedrale di Santa Caterina, Via A. Costa, Bertinoro, FC, EMR, 47032, Italia","category":"attractions","type":"place_of_worship","importance":0.001,"icon":"http://nominatim.openstreetmap.org/images/mapicons/place_of_worship_unknown3.p.20.png","visiting_time":30.0,"opening_hours":null,"opening_days":null,"rating":0,"photo_url":null,"description":null,"www":null},{"place_id":"104938055","geometry":{"type":"Point","coordinates":[12.113134452,44.14973925]},"display_name":"Via Casticciano, Bertinoro, FC, EMR, 47032, Italia","category":"attractions","type":"place_of_worship","importance":0.001,"icon":"http://nominatim.openstreetmap.org/images/mapicons/place_of_worship_unknown3.p.20.png","visiting_time":30.0,"opening_hours":null,"opening_days":null,"rating":0,"photo_url":null,"description":null,"www":null},{"place_id":"113504266","geometry":{"type":"Point","coordinates":[12.176327908,44.16478105]},"display_name":"Via Bologna, Bertinoro, FC, EMR, 47032, Italia","category":"attractions","type":"place_of_worship","importance":0.001,"icon":"http://nominatim.openstreetmap.org/images/mapicons/place_of_worship_unknown3.p.20.png","visiting_time":30.0,"opening_hours":null,"opening_days":null,"rating":0,"photo_url":null,"description":null,"www":null},{"place_id":"18543020","geometry":{"type":"Point","coordinates":[12.1910277,44.2009597]},"display_name":"Via Pablo Neruda, Bertinoro, FC, EMR, Italia","category":"attractions","type":"place_of_worship","importance":0.001,"icon":"http://nominatim.openstreetmap.org/images/mapicons/place_of_worship_unknown3.p.20.png","visiting_time":30.0,"opening_hours":null,"opening_days":null,"rating":0,"photo_url":null,"description":null,"www":null},{"place_id":"7134221","geometry":{"type":"Point","coordinates":[12.1485847,44.1703634]},"display_name":"Santa Maria del Lago, Via Lago, Bertinoro, FC, EMR, 47032, Italia","category":"attractions","type":"place_of_worship","importance":0.001,"icon":"http://nominatim.openstreetmap.org/images/mapicons/place_of_worship_unknown3.p.20.png","visiting_time":30.0,"opening_hours":null,"opening_days":null,"rating":0,"photo_url":null,"description":null,"www":null},{"place_id":"113228371","geometry":{"type":"Point","coordinates":[12.132487074,44.11787125]},"display_name":"Chiesa di San Donato in Polenta, Viale Polenta, Bertinoro, FC, EMR, Italia","category":"attractions","type":"place_of_worship","importance":0.001,"icon":"http://nominatim.openstreetmap.org/images/mapicons/place_of_worship_unknown3.p.20.png","visiting_time":30.0,"opening_hours":null,"opening_days":null,"rating":0,"photo_url":null,"description":null,"www":null},{"place_id":"113839191","geometry":{"type":"Point","coordinates":[12.135411005,44.1457447]},"display_name":"Viale Carducci, Bertinoro, FC, EMR, 47032, Italia","category":"attractions","type":"place_of_worship","importance":0.001,"icon":"http://nominatim.openstreetmap.org/images/mapicons/place_of_worship_unknown3.p.20.png","visiting_time":30.0,"opening_hours":null,"opening_days":null,"rating":0,"photo_url":null,"description":null,"www":null},{"place_id":"11813986","geometry":{"type":"Point","coordinates":[12.1267152,44.1857308]},"display_name":"Hotel Edo, Via Filippo Turati, San Leonardo, Forlimpopoli, FC, EMR, 47034, Italia","category":"resting","type":"hotel","importance":0.101,"icon":"http://nominatim.openstreetmap.org/images/mapicons/accommodation_hotel2.p.20.png","visiting_time":10.0,"opening_hours":null,"opening_days":null,"rating":0,"photo_url":null,"description":null,"www":null},{"place_id":"52947288","geometry":{"type":"Point","coordinates":[12.0987787,44.1414968]},"display_name":"Hotel Missirini, 61, Via Grazia Deledda, Bertinoro, FC, EMR, 47030, Italia","category":"resting","type":"hotel","importance":0.101,"icon":"http://nominatim.openstreetmap.org/images/mapicons/accommodation_hotel2.p.20.png","visiting_time":10.0,"opening_hours":null,"opening_days":null,"rating":0,"photo_url":null,"description":null,"www":null},{"place_id":"3673265","geometry":{"type":"Point","coordinates":[12.1000671,44.141733]},"display_name":"Grand Hotel Terme, Via Loreta, Bertinoro, FC, EMR, Italia","category":"resting","type":"hotel","importance":0.101,"icon":"http://nominatim.openstreetmap.org/images/mapicons/accommodation_hotel2.p.20.png","visiting_time":10.0,"opening_hours":null,"opening_days":null,"rating":0,"photo_url":null,"description":null,"www":null},{"place_id":"45192128","geometry":{"type":"Point","coordinates":[12.1338744,44.1491996]},"display_name":"hotel Panorama, Via Giuseppe Mazzini, Bertinoro, FC, EMR, 47032, Italia","category":"resting","type":"hotel","importance":0.101,"icon":"http://nominatim.openstreetmap.org/images/mapicons/accommodation_hotel2.p.20.png","visiting_time":10.0,"opening_hours":null,"opening_days":null,"rating":0,"photo_url":null,"description":null,"www":null}]