[{"place_id":"44,79149397627150","geometry":{"type":"Point","coordinates":[11.386350967,44.791493976]},"display_name":"Comune di Sant'Agostino,from:IBC","category":"attractions","type":"HolderOfArchives","importance":0.0,"icon":"","visiting_time":0.0,"opening_hours":"ok","opening_days":"ok","rating":0,"photo_url":null,"description":null,"www":"http://www.comune.santagostino.fe.it"},{"place_id":"44,71385932312570","geometry":{"type":"Point","coordinates":[11.306767878,44.713859323]},"display_name":"Comune di Pieve di Cento,from:IBC","category":"attractions","type":"HolderOfArchives","importance":0.0,"icon":"","visiting_time":0.0,"opening_hours":"ok","opening_days":"ok","rating":0,"photo_url":null,"description":null,"www":"http://www.comune.pievedicento.bo.it"},{"place_id":"44,83176069036310","geometry":{"type":"Point","coordinates":[11.295449769,44.83176069]},"display_name":"Comune di Finale Emilia,from:IBC","category":"attractions","type":"HolderOfArchives","importance":0.0,"icon":"","visiting_time":0.0,"opening_hours":"ok","opening_days":"ok","rating":0,"photo_url":null,"description":null,"www":"http://biblioteca.comunefinale.net"},{"place_id":"44,83176069036310","geometry":{"type":"Point","coordinates":[11.295449769,44.83176069]},"display_name":"Comune di Finale Emilia,from:IBC","category":"attractions","type":"HolderOfArchives","importance":0.0,"icon":"","visiting_time":0.0,"opening_hours":"ok","opening_days":"ok","rating":0,"photo_url":null,"description":null,"www":"http://www.comunefinale.net"},{"place_id":"44,72656654869050","geometry":{"type":"Point","coordinates":[11.293457431,44.726566549]},"display_name":"Archivio comunale di Cento,from:IBC","category":"attractions","type":"HolderOfArchives","importance":0.0,"icon":"","visiting_time":0.0,"opening_hours":"ok","opening_days":"ok","rating":0,"photo_url":null,"description":null,"www":"http://www.comune.cento.fe.it/archiviostorico"},{"place_id":"44,72898824820680","geometry":{"type":"Point","coordinates":[11.291658972,44.728988248]},"display_name":"Biblioteca Civica Patrimonio Studi,from:IBC","category":"attractions","type":"Library","importance":0.0,"icon":"","visiting_time":0.0,"opening_hours":"ok","opening_days":"ok","rating":0,"photo_url":null,"description":null,"www":"http://www.comune.cento.fe.it/biblioteca/index.htm"},{"place_id":"44,79201204893230","geometry":{"type":"Point","coordinates":[11.384180998,44.792012049]},"display_name":"Biblioteca comunale,from:IBC","category":"attractions","type":"Library","importance":0.0,"icon":"","visiting_time":0.0,"opening_hours":"ok","opening_days":"ok","rating":0,"photo_url":null,"description":null,"www":"http://www.comune.santagostino.fe.it/canali-tematici/cultura-spettacolo-turismo/la-biblioteca-comunale"},{"place_id":"44,71385932312570","geometry":{"type":"Point","coordinates":[11.306767878,44.713859323]},"display_name":"Biblioteca comunale,from:IBC","category":"attractions","type":"Library","importance":0.0,"icon":"","visiting_time":0.0,"opening_hours":"ok","opening_days":"ok","rating":0,"photo_url":null,"description":null,"www":"http://www.bibliotecheassociate.it/BiblioSchede/BA-pieve-fr.html"},{"place_id":"44,71385932312570","geometry":{"type":"Point","coordinates":[11.306767878,44.713859323]},"display_name":"Biblioteca comunale,from:IBC","category":"attractions","type":"Library","importance":0.0,"icon":"","visiting_time":0.0,"opening_hours":"ok","opening_days":"ok","rating":0,"photo_url":null,"description":null,"www":"http://www.comune.pievedicento.bo.it/a-proposito-di../cultura/istituti-culturali/biblioteca-comunale-1"},{"place_id":"44,83760751676060","geometry":{"type":"Point","coordinates":[11.362024574,44.837607517]},"display_name":"Biblioteca Ileana Ardizzoni di Casumaro,from:IBC","category":"attractions","type":"Library","importance":0.0,"icon":"","visiting_time":0.0,"opening_hours":"ok","opening_days":"ok","rating":0,"photo_url":null,"description":null,"www":"http://dati.emilia-romagna.it/id/ibc/condition/IT-FE0146_orari"},{"place_id":"44,83551607130700","geometry":{"type":"Point","coordinates":[11.361059687,44.835516071]},"display_name":"Pinacoteca Civica Il Guercino,from:IBC","category":"attractions","type":"Museum","importance":0.0,"icon":"","visiting_time":0.0,"opening_hours":"ok","opening_days":"ok","rating":0,"photo_url":null,"description":null,"www":"http://dati.emilia-romagna.it/id/ibc/guercino.comune.cento.fe.it/"},{"place_id":"44,71385932312570","geometry":{"type":"Point","coordinates":[11.306767878,44.713859323]},"display_name":"Pinacoteca Civica,from:IBC","category":"attractions","type":"Museum","importance":0.0,"icon":"","visiting_time":0.0,"opening_hours":"ok","opening_days":"ok","rating":0,"photo_url":null,"description":null,"www":"http://www.comune.pievedicento.bo.it"},{"place_id":"44,83229328829030","geometry":{"type":"Point","coordinates":[11.290531435,44.832293288]},"display_name":"Musei Civici: Sez. del Territorio,from:IBC","category":"attractions","type":"Museum","importance":0.0,"icon":"","visiting_time":0.0,"opening_hours":"ok","opening_days":"ok","rating":0,"photo_url":null,"description":null,"www":"http://dati.emilia-romagna.it/id/ibc/condition/IT-ER-MO041"},{"place_id":"44,71364228206740","geometry":{"type":"Point","coordinates":[11.307077252,44.713642282]},"display_name":"Museo della Musica,from:IBC","category":"attractions","type":"Museum","importance":0.0,"icon":"","visiting_time":0.0,"opening_hours":"ok","opening_days":"ok","rating":0,"photo_url":null,"description":null,"www":"http://dati.emilia-romagna.it/id/ibc/condition/IT-ER-BO131"},{"place_id":"44,83494310684610","geometry":{"type":"Point","coordinates":[11.29907628,44.834943107]},"display_name":"Musei Civici: Sez. di Archeologica e Storia Naturale,from:IBC","category":"attractions","type":"Museum","importance":0.0,"icon":"","visiting_time":0.0,"opening_hours":"ok","opening_days":"ok","rating":0,"photo_url":null,"description":null,"www":"http://dati.emilia-romagna.it/id/ibc/condition/IT-ER-MO040"},{"place_id":"44,71053767959940","geometry":{"type":"Point","coordinates":[11.302911939,44.71053768]},"display_name":"MAGI 900 - Museo delle eccellenze artistiche e storiche,from:IBC","category":"attractions","type":"Museum","importance":0.0,"icon":"","visiting_time":0.0,"opening_hours":"ok","opening_days":"ok","rating":0,"photo_url":null,"description":null,"www":"http://www.magi900.com"},{"place_id":"44,72714061193060","geometry":{"type":"Point","coordinates":[11.290424201,44.727140612]},"display_name":"Galleria d'Arte Moderna Aroldo Bonzagni,from:IBC","category":"attractions","type":"Museum","importance":0.0,"icon":"","visiting_time":0.0,"opening_hours":"ok","opening_days":"ok","rating":0,"photo_url":null,"description":null,"www":"http://dati.emilia-romagna.it/id/ibc/condition/IT-ER-FE039"},{"place_id":"44,72606815724350","geometry":{"type":"Point","coordinates":[11.290480594,44.726068157]},"display_name":"Museo del Teatro G. Borgatti,from:IBC","category":"attractions","type":"Museum","importance":0.0,"icon":"","visiting_time":0.0,"opening_hours":"ok","opening_days":"ok","rating":0,"photo_url":null,"description":null,"www":"http://www.teatroborgatti.it"},{"place_id":"44,76469464656370","geometry":{"type":"Point","coordinates":[11.288482456,44.764694647]},"display_name":"Museo Sandro Parmeggiani,from:IBC","category":"attractions","type":"Museum","importance":0.0,"icon":"","visiting_time":0.0,"opening_hours":"ok","opening_days":"ok","rating":0,"photo_url":null,"description":null,"www":"http://dati.emilia-romagna.it/id/ibc/condition/IT-ER-FE040"},{"place_id":"44,71230301886070","geometry":{"type":"Point","coordinates":[11.305761186,44.712303019]},"display_name":"Museo Civico,from:IBC","category":"attractions","type":"Museum","importance":0.0,"icon":"","visiting_time":0.0,"opening_hours":"ok","opening_days":"ok","rating":0,"photo_url":null,"description":null,"www":"http://www.comune.pievedicento.bo.it"},{"place_id":"Due Platani comuni Sant'Agostino Via Quattro Torri, 15 34","geometry":{"type":"Point","coordinates":[11.38382323,44.80277953]},"display_name":"Due Platani comuni Sant'Agostino Via Quattro Torri, 15,from:IBC","category":"tree","type":"tree","importance":0.0,"icon":"","visiting_time":0.0,"opening_hours":"ok","opening_days":"ok","rating":0,"photo_url":"http://online.ibc.regione.emilia-romagna.it/mtrees/image/12439.jpg","description":null,"www":null},{"place_id":"Una Farnia San Giovanni in Persiceto S. Matteo della Decima Via Reno Vecchio, 5 (Cà Predoni) 172","geometry":{"type":"Point","coordinates":[11.2552589,44.70578609]},"display_name":"Una Farnia San Giovanni in Persiceto S. Matteo della Decima Via Reno Vecchio, 5 (Cà Predoni),from:IBC","category":"tree","type":"tree","importance":0.0,"icon":"","visiting_time":0.0,"opening_hours":"ok","opening_days":"ok","rating":0,"photo_url":"http://online.ibc.regione.emilia-romagna.it/mtrees/image/147.jpg","description":null,"www":null},{"place_id":"Due Platani comuni Sant'Agostino Via Quattro Torri, 15 306","geometry":{"type":"Point","coordinates":[11.3837348,44.80278138]},"display_name":"Due Platani comuni Sant'Agostino Via Quattro Torri, 15,from:IBC","category":"tree","type":"tree","importance":0.0,"icon":"","visiting_time":0.0,"opening_hours":"ok","opening_days":"ok","rating":0,"photo_url":"http://online.ibc.regione.emilia-romagna.it/mtrees/image/12437.jpg","description":null,"www":null},{"place_id":"Due Tigli Bondeno Casumaro Via per Ferrara, 98 369","geometry":{"type":"Point","coordinates":[11.36739898,44.83739211]},"display_name":"Due Tigli Bondeno Casumaro Via per Ferrara, 98,from:IBC","category":"tree","type":"tree","importance":0.0,"icon":"","visiting_time":0.0,"opening_hours":"ok","opening_days":"ok","rating":0,"photo_url":"http://online.ibc.regione.emilia-romagna.it/mtrees/image/12463.jpg","description":null,"www":null},{"place_id":"Due Tigli Bondeno Casumaro Via per Ferrara, 98 422","geometry":{"type":"Point","coordinates":[11.36719156,44.83727038]},"display_name":"Due Tigli Bondeno Casumaro Via per Ferrara, 98,from:IBC","category":"tree","type":"tree","importance":0.0,"icon":"","visiting_time":0.0,"opening_hours":"ok","opening_days":"ok","rating":0,"photo_url":"http://online.ibc.regione.emilia-romagna.it/mtrees/image/12465.jpg","description":null,"www":null},{"place_id":"Due Querce Crevalcore Bevilacqua Via Provane 487","geometry":{"type":"Point","coordinates":[11.25010361,44.77920079]},"display_name":"Due Querce Crevalcore Bevilacqua Via Provane,from:IBC","category":"tree","type":"tree","importance":0.0,"icon":"","visiting_time":0.0,"opening_hours":"ok","opening_days":"ok","rating":0,"photo_url":"http://online.ibc.regione.emilia-romagna.it/mtrees/image/13138.jpg","description":null,"www":null},{"place_id":"Due Platani Sant'Agostino Piazza G. Marconi 535","geometry":{"type":"Point","coordinates":[11.38705945,44.79203547]},"display_name":"Due Platani Sant'Agostino Piazza G. Marconi,from:IBC","category":"tree","type":"tree","importance":0.0,"icon":"","visiting_time":0.0,"opening_hours":"ok","opening_days":"ok","rating":0,"photo_url":"http://online.ibc.regione.emilia-romagna.it/mtrees/image/10512.jpg","description":null,"www":null}]