[{"place_id":"celi12396","geometry":{"type":"Point","coordinates":[11.71218,44.34425]},"display_name":"America Graffiti","category":"eating","type":"celiachia","importance":1.0,"icon":"","visiting_time":0.0,"opening_hours":"ok","opening_days":"ok","rating":0,"photo_url":null,"description":"Glutine","www":"imola.americagraffiti.it"},{"place_id":"celi13687","geometry":{"type":"Point","coordinates":[11.639085,44.383145]},"display_name":"Pizzeria Snoopy 2","category":"eating","type":"celiachia","importance":1.0,"icon":"","visiting_time":0.0,"opening_hours":"ok","opening_days":"ok","rating":0,"photo_url":null,"description":"Glutine","www":"null"},{"place_id":"celi314","geometry":{"type":"Point","coordinates":[11.7294933,44.3459396]},"display_name":"Pit Stop","category":"eating","type":"celiachia","importance":1.0,"icon":"","visiting_time":0.0,"opening_hours":"ok","opening_days":"ok","rating":0,"photo_url":null,"description":"Glutine","www":"null"},{"place_id":"celi319","geometry":{"type":"Point","coordinates":[11.628897,44.3595619]},"display_name":"Millevoglie","category":"eating","type":"celiachia","importance":1.0,"icon":"","visiting_time":0.0,"opening_hours":"ok","opening_days":"ok","rating":0,"photo_url":null,"description":"Glutine","www":"null"},{"place_id":"celi3365","geometry":{"type":"Point","coordinates":[11.62444,44.53088]},"display_name":"Il Murello","category":"eating","type":"celiachia","importance":1.0,"icon":"","visiting_time":0.0,"opening_hours":"ok","opening_days":"ok","rating":0,"photo_url":null,"description":"Glutine","www":"www.agriturismoilmurello.it"},{"place_id":"celi7741","geometry":{"type":"Point","coordinates":[11.637905,44.476638]},"display_name":"Paggio Simone","category":"eating","type":"celiachia","importance":1.0,"icon":"","visiting_time":0.0,"opening_hours":"ok","opening_days":"ok","rating":0,"photo_url":null,"description":"Glutine","www":"null"},{"place_id":"celi3404","geometry":{"type":"Point","coordinates":[11.703727,44.359311]},"display_name":"Milana","category":"eating","type":"celiachia","importance":1.0,"icon":"","visiting_time":0.0,"opening_hours":"ok","opening_days":"ok","rating":0,"photo_url":null,"description":"Glutine","www":"null"}]