[{"place_id":"44,26132139779570","geometry":{"type":"Point","coordinates":[12.3492424,44.261321398]},"display_name":"Comune di Cervia,from:IBC","category":"attractions","type":"HolderOfArchives","importance":0.0,"icon":"","visiting_time":0.0,"opening_hours":"ok","opening_days":"ok","rating":0,"photo_url":null,"description":null,"www":"http://www.comunecervia.it"},{"place_id":"44,26075214503740","geometry":{"type":"Point","coordinates":[12.351081112,44.260752145]},"display_name":"Biblioteca comunale Maria Goia,from:IBC","category":"attractions","type":"Library","importance":0.0,"icon":"","visiting_time":0.0,"opening_hours":"ok","opening_days":"ok","rating":0,"photo_url":null,"description":null,"www":"http://www.biblioteca.comunecervia.it"},{"place_id":"44,26051483571060","geometry":{"type":"Point","coordinates":[12.253956292,44.260514836]},"display_name":"Biblioteca Celso Omicini di Castiglione di Ravenna,from:IBC","category":"attractions","type":"Library","importance":0.0,"icon":"","visiting_time":0.0,"opening_hours":"ok","opening_days":"ok","rating":0,"photo_url":null,"description":null,"www":"http://www.classense.ra.it/main/index.php?id_pag=333"},{"place_id":"44,26132139779570","geometry":{"type":"Point","coordinates":[12.3492424,44.261321398]},"display_name":"Mostra permanente Maceo Casadei,from:IBC","category":"attractions","type":"Museum","importance":0.0,"icon":"","visiting_time":0.0,"opening_hours":"ok","opening_days":"ok","rating":0,"photo_url":null,"description":null,"www":"http://www.turismo.comunecervia.it/scoprire_il_territorio/arte_cultura/musei_gallerie/pagina950002699.html"},{"place_id":"44,27825835138570","geometry":{"type":"Point","coordinates":[12.336072602,44.278258351]},"display_name":"La Casa delle Farfalle,from:IBC","category":"attractions","type":"Museum","importance":0.0,"icon":"","visiting_time":0.0,"opening_hours":"ok","opening_days":"ok","rating":0,"photo_url":null,"description":null,"www":"http://www.atlantide.net/casadellefarfalle"},{"place_id":"44,26291929992400","geometry":{"type":"Point","coordinates":[12.349868169,44.2629193]},"display_name":"MUSA - Museo del Sale,from:IBC","category":"attractions","type":"Museum","importance":0.0,"icon":"","visiting_time":0.0,"opening_hours":"ok","opening_days":"ok","rating":0,"photo_url":null,"description":null,"www":"http://www.musa.comunecervia.it/"},{"place_id":"Un Gelso Cervia Via Caduti per la Libertà, 131 30","geometry":{"type":"Point","coordinates":[12.35525573,44.24591084]},"display_name":"Un Gelso Cervia Via Caduti per la Libertà, 131,from:IBC","category":"tree","type":"tree","importance":0.0,"icon":"","visiting_time":0.0,"opening_hours":"ok","opening_days":"ok","rating":0,"photo_url":"http://online.ibc.regione.emilia-romagna.it/mtrees/image/5491.jpg","description":null,"www":null},{"place_id":"Un Pioppo bianco Cervia Pisignano Via Crociarone, 8 768","geometry":{"type":"Point","coordinates":[12.26915948,44.2464469]},"display_name":"Un Pioppo bianco Cervia Pisignano Via Crociarone, 8,from:IBC","category":"tree","type":"tree","importance":0.0,"icon":"","visiting_time":0.0,"opening_hours":"ok","opening_days":"ok","rating":0,"photo_url":"http://online.ibc.regione.emilia-romagna.it/mtrees/image/1256.jpg","description":null,"www":null},{"place_id":"Due Platani Castel Bolognese Via Serra 943","geometry":{"type":"Point","coordinates":[12.35525573,44.24591084]},"display_name":"Due Platani Castel Bolognese Via Serra,from:IBC","category":"tree","type":"tree","importance":0.0,"icon":"","visiting_time":0.0,"opening_hours":"ok","opening_days":"ok","rating":0,"photo_url":"http://online.ibc.regione.emilia-romagna.it/mtrees/image/9864.jpg","description":null,"www":null}]