[{"place_id":"43,8961495","geometry":{"type":"Point","coordinates":[12.3433365,43.8961495]},"display_name":"Comune di San Leo,from:IBC","category":"attractions","type":"HolderOfArchives","importance":0.0,"icon":"","visiting_time":0.0,"opening_hours":"ok","opening_days":"ok","rating":0,"photo_url":null,"description":null,"www":"http://www.comune.san-leo.rn.it"},{"place_id":"43,90505","geometry":{"type":"Point","coordinates":[12.28593,43.90505]},"display_name":"Comune di Talamello,from:IBC","category":"attractions","type":"HolderOfArchives","importance":0.0,"icon":"","visiting_time":0.0,"opening_hours":"ok","opening_days":"ok","rating":0,"photo_url":null,"description":null,"www":"http://www.comune.talamello.rn.it"},{"place_id":"43,87353721735830","geometry":{"type":"Point","coordinates":[12.310544427,43.873537217]},"display_name":"Comune di Maiolo,from:IBC","category":"attractions","type":"HolderOfArchives","importance":0.0,"icon":"","visiting_time":0.0,"opening_hours":"ok","opening_days":"ok","rating":0,"photo_url":null,"description":null,"www":"http://www.comune.maiolo.rn.it"},{"place_id":"43,89530657931260","geometry":{"type":"Point","coordinates":[12.290212074,43.895306579]},"display_name":"Comune di Novafeltria,from:IBC","category":"attractions","type":"HolderOfArchives","importance":0.0,"icon":"","visiting_time":0.0,"opening_hours":"ok","opening_days":"ok","rating":0,"photo_url":null,"description":null,"www":"http://www.comune.novafeltria.rn.it"},{"place_id":"43,89413581230450","geometry":{"type":"Point","coordinates":[12.290770017,43.894135812]},"display_name":"Biblioteca comunale,from:IBC","category":"attractions","type":"Library","importance":0.0,"icon":"","visiting_time":0.0,"opening_hours":"ok","opening_days":"ok","rating":0,"photo_url":null,"description":null,"www":"http://dati.emilia-romagna.it/id/ibc/condition/IT-PU0141_orari"},{"place_id":"43,90274553342830","geometry":{"type":"Point","coordinates":[12.281852035,43.902745533]},"display_name":"Museo Gualtieri,from:IBC","category":"attractions","type":"Museum","importance":0.0,"icon":"","visiting_time":0.0,"opening_hours":"ok","opening_days":"ok","rating":0,"photo_url":null,"description":null,"www":"http://www.gualtierimuseum.it/"}]