[{"place_id":"13964","geometry":{"type":"Point","coordinates":[10.9952974,44.669912456]},"display_name":"Ponte Vecchio sul Panaro a Navicello,from:MIBACT","category":"attractions","type":"Ponte","importance":0.9,"icon":"","visiting_time":0.0,"opening_hours":"ok","opening_days":"ok","rating":0,"photo_url":null,"description":null,"www":null},{"place_id":"1477","geometry":{"type":"Point","coordinates":[11.034390536,44.674635749]},"display_name":"Villa Sacerdoti detta Villa Emma e pertinenze,from:MIBACT","category":"attractions","type":"Villa","importance":0.7,"icon":"","visiting_time":0.0,"opening_hours":"ok","opening_days":"ok","rating":0,"photo_url":null,"description":null,"www":"\"http://vincoliinrete.beniculturali.it/VincoliInRete/vir/bene/dettagliobene265009,http://vincoliinrete.beniculturali.it/VincoliInRete/vir/bene/dettagliobene266023\""},{"place_id":"1451","geometry":{"type":"Point","coordinates":[11.043389108,44.67872993]},"display_name":"Chiesetta di S. Filomena,from:MIBACT","category":"attractions","type":"Chiesa","importance":0.7,"icon":"","visiting_time":0.0,"opening_hours":"ok","opening_days":"ok","rating":0,"photo_url":null,"description":null,"www":null},{"place_id":"1579","geometry":{"type":"Point","coordinates":[11.005122357,44.713678518]},"display_name":"Chiesa della Madonna delle Grazie di San Clemente e pertinenze,from:MIBACT","category":"attractions","type":"Chiesa","importance":0.7,"icon":"","visiting_time":0.0,"opening_hours":"ok","opening_days":"ok","rating":0,"photo_url":null,"description":null,"www":"\"http://vincoliinrete.beniculturali.it/VincoliInRete/vir/bene/dettagliobene27142,http://vincoliinrete.beniculturali.it/VincoliInRete/vir/bene/dettagliobene93598,http://vincoliinrete.beniculturali.it/VincoliInRete/vir/bene/dettagliobene227671\""},{"place_id":"1470","geometry":{"type":"Point","coordinates":[11.043097134,44.677733559]},"display_name":"Abbazia di San Silvestro e pertinenze,from:MIBACT","category":"attractions","type":"Chiesa","importance":0.9,"icon":"","visiting_time":0.0,"opening_hours":"ok","opening_days":"ok","rating":0,"photo_url":null,"description":null,"www":"\"http://vincoliinrete.beniculturali.it/VincoliInRete/vir/bene/dettagliobene180614,http://vincoliinrete.beniculturali.it/VincoliInRete/vir/bene/dettagliobene141015,http://vincoliinrete.beniculturali.it/VincoliInRete/vir/bene/dettagliobene194951,http://vincoliinrete.beniculturali.it/VincoliInRete/vir/bene/dettagliobene276935,http://vincoliinrete.beniculturali.it/VincoliInRete/vir/bene/dettagliobene323436,http://vincoliinrete.beniculturali.it/VincoliInRete/vir/bene/dettagliobene132448\""},{"place_id":"1464","geometry":{"type":"Point","coordinates":[11.041158428,44.678145444]},"display_name":"Torre dell'Orologio,from:MIBACT","category":"attractions","type":"Torre","importance":0.7,"icon":"","visiting_time":0.0,"opening_hours":"ok","opening_days":"ok","rating":0,"photo_url":null,"description":null,"www":"http://vincoliinrete.beniculturali.it/VincoliInRete/vir/bene/dettagliobene273263"},{"place_id":"1462","geometry":{"type":"Point","coordinates":[11.044142171,44.676839854]},"display_name":"Torre del Cassero o Salimbeni,from:MIBACT","category":"attractions","type":"Torre","importance":0.7,"icon":"","visiting_time":0.0,"opening_hours":"ok","opening_days":"ok","rating":0,"photo_url":null,"description":null,"www":"\"http://vincoliinrete.beniculturali.it/VincoliInRete/vir/bene/dettagliobene273268,http://vincoliinrete.beniculturali.it/VincoliInRete/vir/bene/dettagliobene273261\""},{"place_id":"1444","geometry":{"type":"Point","coordinates":[11.044779306,44.679903407]},"display_name":"Pieve di San Michele Arcangelo e pertinenze,from:MIBACT","category":"attractions","type":"Chiesa","importance":0.7,"icon":"","visiting_time":0.0,"opening_hours":"ok","opening_days":"ok","rating":0,"photo_url":null,"description":null,"www":"http://vincoliinrete.beniculturali.it/VincoliInRete/vir/bene/dettagliobene138569"}]