[{"place_id":"2182","geometry":{"type":"Point","coordinates":[10.652976738,44.922470343]},"display_name":"Corso Garibaldi,from:MIBACT","category":"attractions","type":"Strada","importance":0.7,"icon":"","visiting_time":0.0,"opening_hours":"ok","opening_days":"ok","rating":0,"photo_url":null,"description":null,"www":"http://vincoliinrete.beniculturali.it/VincoliInRete/vir/bene/dettagliobene169031"},{"place_id":"2131","geometry":{"type":"Point","coordinates":[10.64016676,44.88538259]},"display_name":"\"Botte Bentivoglio, costruzione idraulica\",from:MIBACT","category":"attractions","type":"Mulino","importance":0.4,"icon":"","visiting_time":0.0,"opening_hours":"ok","opening_days":"ok","rating":0,"photo_url":null,"description":null,"www":null},{"place_id":"2129","geometry":{"type":"Point","coordinates":[10.65248447,44.921524812]},"display_name":"Biblioteca Maldotti,from:MIBACT","category":"attractions","type":"Palazzo","importance":0.7,"icon":"","visiting_time":0.0,"opening_hours":"ok","opening_days":"ok","rating":0,"photo_url":null,"description":null,"www":"http://vincoliinrete.beniculturali.it/VincoliInRete/vir/bene/dettagliobene228233"},{"place_id":"1952","geometry":{"type":"Point","coordinates":[10.651314681,44.921344074]},"display_name":"Chiesa conventuale del Santissimo Crocefisso (o delle Cappuccine),from:MIBACT","category":"attractions","type":"Chiesa","importance":0.7,"icon":"","visiting_time":0.0,"opening_hours":"ok","opening_days":"ok","rating":0,"photo_url":null,"description":null,"www":"\"http://vincoliinrete.beniculturali.it/VincoliInRete/vir/bene/dettagliobene137484,http://vincoliinrete.beniculturali.it/VincoliInRete/vir/bene/dettagliobene27322\""},{"place_id":"1956","geometry":{"type":"Point","coordinates":[10.654544857,44.919910417]},"display_name":"Chiesa di S. Francesco,from:MIBACT","category":"attractions","type":"Chiesa","importance":0.7,"icon":"","visiting_time":0.0,"opening_hours":"ok","opening_days":"ok","rating":0,"photo_url":null,"description":null,"www":"http://vincoliinrete.beniculturali.it/VincoliInRete/vir/bene/dettagliobene147877"},{"place_id":"1959","geometry":{"type":"Point","coordinates":[10.652224486,44.919685592]},"display_name":"Torre civica,from:MIBACT","category":"attractions","type":"Torre","importance":0.7,"icon":"","visiting_time":0.0,"opening_hours":"ok","opening_days":"ok","rating":0,"photo_url":null,"description":null,"www":"http://vincoliinrete.beniculturali.it/VincoliInRete/vir/bene/dettagliobene272644"},{"place_id":"1961","geometry":{"type":"Point","coordinates":[10.652548682,44.918425941]},"display_name":"Santuario della B. V. della Porta,from:MIBACT","category":"attractions","type":"Chiesa","importance":0.7,"icon":"","visiting_time":0.0,"opening_hours":"ok","opening_days":"ok","rating":0,"photo_url":null,"description":null,"www":"\"http://vincoliinrete.beniculturali.it/VincoliInRete/vir/bene/dettagliobene27660,http://vincoliinrete.beniculturali.it/VincoliInRete/vir/bene/dettagliobene137613\""},{"place_id":"1966","geometry":{"type":"Point","coordinates":[10.664364811,44.913699796]},"display_name":"Chiesa della B. V. del Rosario,from:MIBACT","category":"attractions","type":"Chiesa","importance":0.7,"icon":"","visiting_time":0.0,"opening_hours":"ok","opening_days":"ok","rating":0,"photo_url":null,"description":null,"www":"\"http://vincoliinrete.beniculturali.it/VincoliInRete/vir/bene/dettagliobene137469,http://vincoliinrete.beniculturali.it/VincoliInRete/vir/bene/dettagliobene27682\""},{"place_id":"1975","geometry":{"type":"Point","coordinates":[10.670138477,44.864323925]},"display_name":"Chiesa parrocchiale di San Bernardino,from:MIBACT","category":"attractions","type":"Chiesa","importance":0.7,"icon":"","visiting_time":0.0,"opening_hours":"ok","opening_days":"ok","rating":0,"photo_url":null,"description":null,"www":"http://vincoliinrete.beniculturali.it/VincoliInRete/vir/bene/dettagliobene27214"},{"place_id":"2061","geometry":{"type":"Point","coordinates":[10.653181505,44.920846873]},"display_name":"\"Teatro comunale \"\"Ruggero Ruggeri\"\"\",from:MIBACT","category":"attractions","type":"Teatro","importance":0.7,"icon":"","visiting_time":0.0,"opening_hours":"ok","opening_days":"ok","rating":0,"photo_url":null,"description":null,"www":"http://vincoliinrete.beniculturali.it/VincoliInRete/vir/bene/dettagliobene231764"},{"place_id":"2125","geometry":{"type":"Point","coordinates":[10.636870386,44.854314832]},"display_name":"Palazzo Greppi e pertinenze,from:MIBACT","category":"attractions","type":"Palazzo","importance":0.7,"icon":"","visiting_time":0.0,"opening_hours":"ok","opening_days":"ok","rating":0,"photo_url":null,"description":null,"www":null},{"place_id":"2211","geometry":{"type":"Point","coordinates":[10.629595918,44.905023216]},"display_name":"Torre Civica,from:MIBACT","category":"attractions","type":"Torre","importance":0.7,"icon":"","visiting_time":0.0,"opening_hours":"ok","opening_days":"ok","rating":0,"photo_url":null,"description":null,"www":"\"http://vincoliinrete.beniculturali.it/VincoliInRete/vir/bene/dettagliobene501333,http://vincoliinrete.beniculturali.it/VincoliInRete/vir/bene/dettagliobene100036\""},{"place_id":"17209","geometry":{"type":"Point","coordinates":[10.630228387,44.90501039]},"display_name":"Piazza Bentivoglio,from:MIBACT","category":"attractions","type":"Piazza","importance":1.0,"icon":"","visiting_time":0.0,"opening_hours":"ok","opening_days":"ok","rating":0,"photo_url":null,"description":null,"www":null},{"place_id":"2176","geometry":{"type":"Point","coordinates":[10.654247049,44.922540746]},"display_name":"Statua in bronzo di Ferdinando Gonzaga,from:MIBACT","category":"attractions","type":"Elemento","importance":0.7,"icon":"","visiting_time":0.0,"opening_hours":"ok","opening_days":"ok","rating":0,"photo_url":null,"description":null,"www":"http://vincoliinrete.beniculturali.it/VincoliInRete/vir/bene/dettagliobene194717"},{"place_id":"2110","geometry":{"type":"Point","coordinates":[10.630863234,44.904874652]},"display_name":"Palazzo Bentivoglio,from:MIBACT","category":"attractions","type":"Palazzo","importance":0.7,"icon":"","visiting_time":0.0,"opening_hours":"ok","opening_days":"ok","rating":0,"photo_url":null,"description":null,"www":"\"http://vincoliinrete.beniculturali.it/VincoliInRete/vir/bene/dettagliobene339590,http://vincoliinrete.beniculturali.it/VincoliInRete/vir/bene/dettagliobene100260\""},{"place_id":"2052","geometry":{"type":"Point","coordinates":[10.654397509,44.922451976]},"display_name":"Palazzo Gonzaga,from:MIBACT","category":"attractions","type":"Palazzo","importance":0.7,"icon":"","visiting_time":0.0,"opening_hours":"ok","opening_days":"ok","rating":0,"photo_url":null,"description":null,"www":"\"http://vincoliinrete.beniculturali.it/VincoliInRete/vir/bene/dettagliobene339596,http://vincoliinrete.beniculturali.it/VincoliInRete/vir/bene/dettagliobene457028\""},{"place_id":"1960","geometry":{"type":"Point","coordinates":[10.652653619,44.920809566]},"display_name":"Chiesa della Beata Vergine della Concezione,from:MIBACT","category":"attractions","type":"Chiesa","importance":0.7,"icon":"","visiting_time":0.0,"opening_hours":"ok","opening_days":"ok","rating":0,"photo_url":null,"description":null,"www":"\"http://vincoliinrete.beniculturali.it/VincoliInRete/vir/bene/dettagliobene27200,http://vincoliinrete.beniculturali.it/VincoliInRete/vir/bene/dettagliobene227463\""},{"place_id":"1955","geometry":{"type":"Point","coordinates":[10.653641459,44.922932357]},"display_name":"Chiesa cattedrale,from:MIBACT","category":"attractions","type":"Chiesa","importance":0.9,"icon":"","visiting_time":0.0,"opening_hours":"ok","opening_days":"ok","rating":0,"photo_url":null,"description":null,"www":"\"http://vincoliinrete.beniculturali.it/VincoliInRete/vir/bene/dettagliobene137621,http://vincoliinrete.beniculturali.it/VincoliInRete/vir/bene/dettagliobene27422\""},{"place_id":"1953","geometry":{"type":"Point","coordinates":[10.655980389,44.92134804]},"display_name":"Chiesa dei Servi,from:MIBACT","category":"attractions","type":"Chiesa","importance":0.7,"icon":"","visiting_time":0.0,"opening_hours":"ok","opening_days":"ok","rating":0,"photo_url":null,"description":null,"www":"\"http://vincoliinrete.beniculturali.it/VincoliInRete/vir/bene/dettagliobene27436,http://vincoliinrete.beniculturali.it/VincoliInRete/vir/bene/dettagliobene147120\""},{"place_id":"1948","geometry":{"type":"Point","coordinates":[10.630514715,44.904569587]},"display_name":"Chiesa Collegiata di S. Maria della Neve e annessa canonica,from:MIBACT","category":"attractions","type":"Chiesa","importance":0.7,"icon":"","visiting_time":0.0,"opening_hours":"ok","opening_days":"ok","rating":0,"photo_url":null,"description":null,"www":"http://vincoliinrete.beniculturali.it/VincoliInRete/vir/bene/dettagliobene137515"},{"place_id":"1950","geometry":{"type":"Point","coordinates":[10.670328486,44.92330531]},"display_name":"Oratorio di S. Giorgio,from:MIBACT","category":"attractions","type":"Chiesa","importance":0.7,"icon":"","visiting_time":0.0,"opening_hours":"ok","opening_days":"ok","rating":0,"photo_url":null,"description":null,"www":"http://vincoliinrete.beniculturali.it/VincoliInRete/vir/bene/dettagliobene226006"},{"place_id":"1965","geometry":{"type":"Point","coordinates":[10.663579748,44.914698462]},"display_name":"Chiesa di S. Pietro Apostolo,from:MIBACT","category":"attractions","type":"Chiesa","importance":0.9,"icon":"","visiting_time":0.0,"opening_hours":"ok","opening_days":"ok","rating":0,"photo_url":null,"description":null,"www":"\"http://vincoliinrete.beniculturali.it/VincoliInRete/vir/bene/dettagliobene27688,http://vincoliinrete.beniculturali.it/VincoliInRete/vir/bene/dettagliobene148561\""}]