[{"place_id":"44,74543280557370","geometry":{"type":"Point","coordinates":[11.940782165,44.745432806]},"display_name":"Comune di Ostellato,from:IBC","category":"attractions","type":"HolderOfArchives","importance":0.0,"icon":"","visiting_time":0.0,"opening_hours":"ok","opening_days":"ok","rating":0,"photo_url":null,"description":null,"www":"http://www.comune.ostellato.fe.it"},{"place_id":"44,7581404","geometry":{"type":"Point","coordinates":[11.7506938,44.7581404]},"display_name":"Comune di Voghiera,from:IBC","category":"attractions","type":"HolderOfArchives","importance":0.0,"icon":"","visiting_time":0.0,"opening_hours":"ok","opening_days":"ok","rating":0,"photo_url":null,"description":null,"www":"http://www.comune.voghiera.fe.it"},{"place_id":"44,69591994960850","geometry":{"type":"Point","coordinates":[11.807748567,44.69591995]},"display_name":"Comune di Portomaggiore,from:IBC","category":"attractions","type":"HolderOfArchives","importance":0.0,"icon":"","visiting_time":0.0,"opening_hours":"ok","opening_days":"ok","rating":0,"photo_url":null,"description":null,"www":"http://www.portoinrete.com"},{"place_id":"44,7581111","geometry":{"type":"Point","coordinates":[11.7509506,44.7581111]},"display_name":"Biblioteca comunale L. Chiappini,from:IBC","category":"attractions","type":"Library","importance":0.0,"icon":"","visiting_time":0.0,"opening_hours":"ok","opening_days":"ok","rating":0,"photo_url":null,"description":null,"www":"http://www.comune.voghiera.fe.it/116/biblioteca"},{"place_id":"44,74330771149500","geometry":{"type":"Point","coordinates":[11.93933302,44.743307711]},"display_name":"Biblioteca comunale Mario Soldati,from:IBC","category":"attractions","type":"Library","importance":0.0,"icon":"","visiting_time":0.0,"opening_hours":"ok","opening_days":"ok","rating":0,"photo_url":null,"description":null,"www":"http://195.62.166.21/ostellato/common/AmvSezione.do?MVPD=0&MVSZ=11"},{"place_id":"44,69591994960850","geometry":{"type":"Point","coordinates":[11.807748567,44.69591995]},"display_name":"Biblioteca comunale,from:IBC","category":"attractions","type":"Library","importance":0.0,"icon":"","visiting_time":0.0,"opening_hours":"ok","opening_days":"ok","rating":0,"photo_url":null,"description":null,"www":"http://www.bibliotecaportomaggiore.com"},{"place_id":"44,75279662297470","geometry":{"type":"Point","coordinates":[11.755924037,44.752796623]},"display_name":"Museo Civico di Belriguardo,from:IBC","category":"attractions","type":"Museum","importance":0.0,"icon":"","visiting_time":0.0,"opening_hours":"ok","opening_days":"ok","rating":0,"photo_url":null,"description":null,"www":"http://www.voghieraonline.it/199/museo-civico-di-belriguardo"},{"place_id":"44,74224694658240","geometry":{"type":"Point","coordinates":[11.941935289,44.742246947]},"display_name":"Museo Civico del Territorio,from:IBC","category":"attractions","type":"Museum","importance":0.0,"icon":"","visiting_time":0.0,"opening_hours":"ok","opening_days":"ok","rating":0,"photo_url":null,"description":null,"www":"http://dati.emilia-romagna.it/id/ibc/condition/IT-ER-FE052"},{"place_id":"44,74119923249940","geometry":{"type":"Point","coordinates":[11.815607171,44.741199232]},"display_name":"Mostra permanente Mors inmatura. Il sepolcreto dei Fadieni,from:IBC","category":"attractions","type":"Museum","importance":0.0,"icon":"","visiting_time":0.0,"opening_hours":"ok","opening_days":"ok","rating":0,"photo_url":null,"description":null,"www":"http://dati.emilia-romagna.it/id/ibc/condition/IT-ER-FE055"}]