[{"place_id":"celi368","geometry":{"type":"Point","coordinates":[12.3640228,44.2503663]},"display_name":"Ca' D'oro","category":"eating","type":"celiachia","importance":0.1,"icon":"","visiting_time":0.0,"opening_hours":"ok","opening_days":"ok","rating":0,"photo_url":null,"description":"Glutine","www":"www.hotelcadoro.net"},{"place_id":"celi379","geometry":{"type":"Point","coordinates":[12.3802,44.22669]},"display_name":"Ranch","category":"eating","type":"celiachia","importance":0.1,"icon":"","visiting_time":0.0,"opening_hours":"ok","opening_days":"ok","rating":0,"photo_url":null,"description":"Glutine","www":"www.ranchristorante.it"},{"place_id":"celi8684","geometry":{"type":"Point","coordinates":[12.313,44.231]},"display_name":"Casa La Camillona","category":"eating","type":"celiachia","importance":0.1,"icon":"","visiting_time":0.0,"opening_hours":"ok","opening_days":"ok","rating":0,"photo_url":null,"description":"Glutine","www":"www.casalacamillona.it"},{"place_id":"celi6938","geometry":{"type":"Point","coordinates":[12.3469827,44.2827828]},"display_name":"Hotel Fenice","category":"eating","type":"celiachia","importance":0.1,"icon":"","visiting_time":0.0,"opening_hours":"ok","opening_days":"ok","rating":0,"photo_url":null,"description":"Glutine","www":"www.hotelfenicemilanomarittima.it."},{"place_id":"celi10839","geometry":{"type":"Point","coordinates":[12.358578,44.262093]},"display_name":"L'Altra Piadina del Mare","category":"eating","type":"celiachia","importance":0.1,"icon":"","visiting_time":0.0,"opening_hours":"ok","opening_days":"ok","rating":0,"photo_url":null,"description":"Glutine","www":"www.piadinadelmare.it"},{"place_id":"celi6396","geometry":{"type":"Point","coordinates":[12.260652,44.261718]},"display_name":"Gli Angeli","category":"eating","type":"celiachia","importance":0.1,"icon":"","visiting_time":0.0,"opening_hours":"ok","opening_days":"ok","rating":0,"photo_url":null,"description":"Glutine","www":"www.bebgliangeli.it"},{"place_id":"celi3300","geometry":{"type":"Point","coordinates":[12.357324,44.263844]},"display_name":"Re Sale e Regina Salina","category":"eating","type":"celiachia","importance":0.1,"icon":"","visiting_time":0.0,"opening_hours":"ok","opening_days":"ok","rating":0,"photo_url":null,"description":"Glutine","www":"www.resaleristorante.com"},{"place_id":"celi10432","geometry":{"type":"Point","coordinates":[12.3450531,44.3045824]},"display_name":"Piadineria dalla Ciurma","category":"eating","type":"celiachia","importance":0.1,"icon":"","visiting_time":0.0,"opening_hours":"ok","opening_days":"ok","rating":0,"photo_url":null,"description":"Glutine","www":"null"},{"place_id":"celi3575","geometry":{"type":"Point","coordinates":[12.3521409,44.2642436]},"display_name":"Borgomarina","category":"eating","type":"celiachia","importance":0.1,"icon":"","visiting_time":0.0,"opening_hours":"ok","opening_days":"ok","rating":0,"photo_url":null,"description":"Glutine","www":"null"}]