[{"place_id":"44,89534120320790","geometry":{"type":"Point","coordinates":[11.826396367,44.895341203]},"display_name":"Comune di Copparo,from:IBC","category":"attractions","type":"HolderOfArchives","importance":0.0,"icon":"","visiting_time":0.0,"opening_hours":"ok","opening_days":"ok","rating":0,"photo_url":null,"description":null,"www":"http://www.comune.copparo.fe.it"},{"place_id":"44,88519749082100","geometry":{"type":"Point","coordinates":[11.976802878,44.885197491]},"display_name":"Comune di Jolanda di Savoia,from:IBC","category":"attractions","type":"HolderOfArchives","importance":0.0,"icon":"","visiting_time":0.0,"opening_hours":"ok","opening_days":"ok","rating":0,"photo_url":null,"description":null,"www":"http://www.comune.jolandadisavoia.fe.it"},{"place_id":"44,84243435479800","geometry":{"type":"Point","coordinates":[11.858685117,44.842434355]},"display_name":"Comune di Formignana,from:IBC","category":"attractions","type":"HolderOfArchives","importance":0.0,"icon":"","visiting_time":0.0,"opening_hours":"ok","opening_days":"ok","rating":0,"photo_url":null,"description":null,"www":"http://www.comune.formignana.fe.it"},{"place_id":"44,94536650564510","geometry":{"type":"Point","coordinates":[11.764850207,44.945366506]},"display_name":"Comune di Ro,from:IBC","category":"attractions","type":"HolderOfArchives","importance":0.0,"icon":"","visiting_time":0.0,"opening_hours":"ok","opening_days":"ok","rating":0,"photo_url":null,"description":null,"www":"http://www.comune.ro.fe.it"},{"place_id":"44,88480773598720","geometry":{"type":"Point","coordinates":[11.977600491,44.884807736]},"display_name":"Biblioteca comunale,from:IBC","category":"attractions","type":"Library","importance":0.0,"icon":"","visiting_time":0.0,"opening_hours":"ok","opening_days":"ok","rating":0,"photo_url":null,"description":null,"www":"http://www.comune.jolandadisavoia.fe.it"},{"place_id":"44,89565709593630","geometry":{"type":"Point","coordinates":[11.827419322,44.895657096]},"display_name":"Biblioteca comunale,from:IBC","category":"attractions","type":"Library","importance":0.0,"icon":"","visiting_time":0.0,"opening_hours":"ok","opening_days":"ok","rating":0,"photo_url":null,"description":null,"www":"http://www.bibliotecacomunaledicopparo.it"},{"place_id":"44,94678563576470","geometry":{"type":"Point","coordinates":[11.761370162,44.946785636]},"display_name":"Biblioteca comunale Riccardo Bacchelli,from:IBC","category":"attractions","type":"Library","importance":0.0,"icon":"","visiting_time":0.0,"opening_hours":"ok","opening_days":"ok","rating":0,"photo_url":null,"description":null,"www":"http://www.comune.ro.fe.it/biblioteca.php"},{"place_id":"44,84229135577530","geometry":{"type":"Point","coordinates":[11.858968023,44.842291356]},"display_name":"Biblioteca comunale,from:IBC","category":"attractions","type":"Library","importance":0.0,"icon":"","visiting_time":0.0,"opening_hours":"ok","opening_days":"ok","rating":0,"photo_url":null,"description":null,"www":"http://dati.emilia-romagna.it/id/ibc/condition/IT-FE0037_orari"},{"place_id":"44,90022477196340","geometry":{"type":"Point","coordinates":[11.832835077,44.900224772]},"display_name":"Museo delle Tradizioni e della Cultura Materiale del Copparese La Tratta,from:IBC","category":"attractions","type":"Museum","importance":0.0,"icon":"","visiting_time":0.0,"opening_hours":"ok","opening_days":"ok","rating":0,"photo_url":null,"description":null,"www":"http://www.comune.copparo.fe.it/nqcontent.cfm?a_id=1"},{"place_id":"Olmo campestre Viconovo Poss. Bosco 355","geometry":{"type":"Point","coordinates":[11.75930296,44.85805749]},"display_name":"Olmo campestre Viconovo Poss. Bosco,from:IBC","category":"tree","type":"tree","importance":0.0,"icon":"","visiting_time":0.0,"opening_hours":"ok","opening_days":"ok","rating":0,"photo_url":"http://online.ibc.regione.emilia-romagna.it/mtrees/image/217.jpg","description":null,"www":null}]