[{"place_id":"44,59926937884660","geometry":{"type":"Point","coordinates":[10.688104652,44.599269379]},"display_name":"Comune di Scandiano,from:IBC","category":"attractions","type":"HolderOfArchives","importance":0.0,"icon":"","visiting_time":0.0,"opening_hours":"ok","opening_days":"ok","rating":0,"photo_url":null,"description":null,"www":"http://www.comune.scandiano.re.it"},{"place_id":"44,58821738571090","geometry":{"type":"Point","coordinates":[10.73803757,44.588217386]},"display_name":"Comune di Casalgrande,from:IBC","category":"attractions","type":"HolderOfArchives","importance":0.0,"icon":"","visiting_time":0.0,"opening_hours":"ok","opening_days":"ok","rating":0,"photo_url":null,"description":null,"www":"http://www.comune.casalgrande.re.it"},{"place_id":"44,58948257465420","geometry":{"type":"Point","coordinates":[10.73829594,44.589482575]},"display_name":"Biblioteca comunale Sognalibro,from:IBC","category":"attractions","type":"Library","importance":0.0,"icon":"","visiting_time":0.0,"opening_hours":"ok","opening_days":"ok","rating":0,"photo_url":null,"description":null,"www":"http://dati.emilia-romagna.it/id/ibc/condition/IT-RE0021_orari"},{"place_id":"44,59690855756090","geometry":{"type":"Point","coordinates":[10.685403556,44.596908558]},"display_name":"Biblioteca comunale Gaetano Salvemini,from:IBC","category":"attractions","type":"Library","importance":0.0,"icon":"","visiting_time":0.0,"opening_hours":"ok","opening_days":"ok","rating":0,"photo_url":null,"description":null,"www":"http://biblioteche.provincia.re.it/scandiano"},{"place_id":"Una Roverella Scandiano S. Ruffino Via 3 Croci 26","geometry":{"type":"Point","coordinates":[10.69738053,44.57992786]},"display_name":"Una Roverella Scandiano S. Ruffino Via 3 Croci,from:IBC","category":"tree","type":"tree","importance":0.0,"icon":"","visiting_time":0.0,"opening_hours":"ok","opening_days":"ok","rating":0,"photo_url":"http://online.ibc.regione.emilia-romagna.it/mtrees/image/2414.jpg","description":null,"www":null},{"place_id":"Un filare di 3 Roverelle Scandiano Rondinara 127","geometry":{"type":"Point","coordinates":[10.65664731,44.55248394]},"display_name":"Un filare di 3 Roverelle Scandiano Rondinara,from:IBC","category":"tree","type":"tree","importance":0.0,"icon":"","visiting_time":0.0,"opening_hours":"ok","opening_days":"ok","rating":0,"photo_url":null,"description":null,"www":null},{"place_id":"Due Roverelle Scandiano Rondinara Via della Riva 150","geometry":{"type":"Point","coordinates":[10.67164348,44.54330804]},"display_name":"Due Roverelle Scandiano Rondinara Via della Riva,from:IBC","category":"tree","type":"tree","importance":0.0,"icon":"","visiting_time":0.0,"opening_hours":"ok","opening_days":"ok","rating":0,"photo_url":null,"description":null,"www":null},{"place_id":"Due Farnie Scandiano Fellegara - Via delle Querce, 4 450","geometry":{"type":"Point","coordinates":[10.68539063,44.60785946]},"display_name":"Due Farnie Scandiano Fellegara - Via delle Querce, 4,from:IBC","category":"tree","type":"tree","importance":0.0,"icon":"","visiting_time":0.0,"opening_hours":"ok","opening_days":"ok","rating":0,"photo_url":"http://online.ibc.regione.emilia-romagna.it/mtrees/image/11026.jpg","description":null,"www":null},{"place_id":"Un Cerro Albinea Borzano Via Mattaiano, 7 524","geometry":{"type":"Point","coordinates":[10.63733487,44.5883937]},"display_name":"Un Cerro Albinea Borzano Via Mattaiano, 7,from:IBC","category":"tree","type":"tree","importance":0.0,"icon":"","visiting_time":0.0,"opening_hours":"ok","opening_days":"ok","rating":0,"photo_url":"http://online.ibc.regione.emilia-romagna.it/mtrees/image/2429.jpg","description":null,"www":null},{"place_id":"Un filare di 3 Roverelle Scandiano Rondinara 623","geometry":{"type":"Point","coordinates":[10.65659953,44.55257466]},"display_name":"Un filare di 3 Roverelle Scandiano Rondinara,from:IBC","category":"tree","type":"tree","importance":0.0,"icon":"","visiting_time":0.0,"opening_hours":"ok","opening_days":"ok","rating":0,"photo_url":null,"description":null,"www":null},{"place_id":"Una Roverella Scandiano Rondinara Via del Monte 693","geometry":{"type":"Point","coordinates":[10.66437807,44.56486675]},"display_name":"Una Roverella Scandiano Rondinara Via del Monte,from:IBC","category":"tree","type":"tree","importance":0.0,"icon":"","visiting_time":0.0,"opening_hours":"ok","opening_days":"ok","rating":0,"photo_url":"http://online.ibc.regione.emilia-romagna.it/mtrees/image/2420.jpg","description":null,"www":null},{"place_id":"Una Roverella Canossa Borzano 745","geometry":{"type":"Point","coordinates":[10.63659576,44.60334807]},"display_name":"Una Roverella Canossa Borzano,from:IBC","category":"tree","type":"tree","importance":0.0,"icon":"","visiting_time":0.0,"opening_hours":"ok","opening_days":"ok","rating":0,"photo_url":"http://online.ibc.regione.emilia-romagna.it/mtrees/image/2405.jpg","description":null,"www":null},{"place_id":"Due Roverelle Scandiano Rondinara Via della Riva 935","geometry":{"type":"Point","coordinates":[10.67144371,44.54336498]},"display_name":"Due Roverelle Scandiano Rondinara Via della Riva,from:IBC","category":"tree","type":"tree","importance":0.0,"icon":"","visiting_time":0.0,"opening_hours":"ok","opening_days":"ok","rating":0,"photo_url":null,"description":null,"www":null},{"place_id":"Due Farnie Scandiano Fellegara - Via delle Querce, 4 1032","geometry":{"type":"Point","coordinates":[10.68466311,44.60710501]},"display_name":"Due Farnie Scandiano Fellegara - Via delle Querce, 4,from:IBC","category":"tree","type":"tree","importance":0.0,"icon":"","visiting_time":0.0,"opening_hours":"ok","opening_days":"ok","rating":0,"photo_url":"http://online.ibc.regione.emilia-romagna.it/mtrees/image/11024.jpg","description":null,"www":null}]