[{"place_id":"celi8549","geometry":{"type":"Point","coordinates":[12.4471064,44.0632041]},"display_name":"La Cantina","category":"eating","type":"celiachia","importance":0.1,"icon":"","visiting_time":0.0,"opening_hours":"ok","opening_days":"ok","rating":0,"photo_url":null,"description":"Glutine","www":"www.lacantinasantarcangelo.it"},{"place_id":"celi396","geometry":{"type":"Point","coordinates":[12.6183215,44.0334858]},"display_name":"Albergo Sabrina","category":"eating","type":"celiachia","importance":0.1,"icon":"","visiting_time":0.0,"opening_hours":"ok","opening_days":"ok","rating":0,"photo_url":null,"description":"Glutine","www":"www.albergosabrina.it"},{"place_id":"celi406","geometry":{"type":"Point","coordinates":[12.5343603,44.0906857]},"display_name":"Aurora","category":"eating","type":"celiachia","importance":0.1,"icon":"","visiting_time":0.0,"opening_hours":"ok","opening_days":"ok","rating":0,"photo_url":null,"description":"Glutine","www":"www.haurora.it"},{"place_id":"celi407","geometry":{"type":"Point","coordinates":[12.5271309,44.0956046]},"display_name":"Cadiz","category":"eating","type":"celiachia","importance":0.1,"icon":"","visiting_time":0.0,"opening_hours":"ok","opening_days":"ok","rating":0,"photo_url":null,"description":"Glutine","www":"www.hotelcadiz.it"},{"place_id":"celi11242","geometry":{"type":"Point","coordinates":[12.5844676,44.0646174]},"display_name":"Rosso Pomodoro","category":"eating","type":"celiachia","importance":0.1,"icon":"","visiting_time":0.0,"opening_hours":"ok","opening_days":"ok","rating":0,"photo_url":null,"description":"Glutine","www":"www.rossopomodoro.it"},{"place_id":"celi3113","geometry":{"type":"Point","coordinates":[12.57223,44.053517]},"display_name":"Da Biagio","category":"eating","type":"celiachia","importance":0.1,"icon":"","visiting_time":0.0,"opening_hours":"ok","opening_days":"ok","rating":0,"photo_url":null,"description":"Glutine","www":"www.pizzeriadabiagio.it"},{"place_id":"celi8833","geometry":{"type":"Point","coordinates":[12.5831293,44.0671674]},"display_name":"America Graffiti","category":"eating","type":"celiachia","importance":0.1,"icon":"","visiting_time":0.0,"opening_hours":"ok","opening_days":"ok","rating":0,"photo_url":null,"description":"Glutine","www":"null"},{"place_id":"celi4545","geometry":{"type":"Point","coordinates":[12.5881686,44.0394154]},"display_name":"F.lli La Bufala/Chiquita Bar","category":"eating","type":"celiachia","importance":0.1,"icon":"","visiting_time":0.0,"opening_hours":"ok","opening_days":"ok","rating":0,"photo_url":null,"description":"Glutine","www":"fratellilabufala.eu"},{"place_id":"celi5876","geometry":{"type":"Point","coordinates":[12.5528018,44.0541299]},"display_name":"La Brocca","category":"eating","type":"celiachia","importance":0.1,"icon":"","visiting_time":0.0,"opening_hours":"ok","opening_days":"ok","rating":0,"photo_url":null,"description":"Glutine","www":"www.labroccarimini.com"},{"place_id":"celi3273","geometry":{"type":"Point","coordinates":[12.5218877,43.9901115]},"display_name":"Pizz'Osteria da Mazza","category":"eating","type":"celiachia","importance":0.1,"icon":"","visiting_time":0.0,"opening_hours":"ok","opening_days":"ok","rating":0,"photo_url":null,"description":"Glutine","www":"null"},{"place_id":"celi2811","geometry":{"type":"Point","coordinates":[12.5760718,44.0740818]},"display_name":"Bikini","category":"eating","type":"celiachia","importance":0.1,"icon":"","visiting_time":0.0,"opening_hours":"ok","opening_days":"ok","rating":0,"photo_url":null,"description":"Glutine","www":"www.hotelbikini.com"},{"place_id":"celi12957","geometry":{"type":"Point","coordinates":[12.4829949,43.969409]},"display_name":"Senza glutine By Royal","category":"eating","type":"celiachia","importance":0.1,"icon":"","visiting_time":0.0,"opening_hours":"ok","opening_days":"ok","rating":0,"photo_url":null,"description":"Glutine","www":"null"},{"place_id":"celi10275","geometry":{"type":"Point","coordinates":[12.571499,44.061167]},"display_name":"Caffè Pat.4","category":"eating","type":"celiachia","importance":0.1,"icon":"","visiting_time":0.0,"opening_hours":"ok","opening_days":"ok","rating":0,"photo_url":null,"description":"Glutine","www":"null"},{"place_id":"celi2976","geometry":{"type":"Point","coordinates":[12.5843297,44.0648928]},"display_name":"Corallo","category":"eating","type":"celiachia","importance":0.1,"icon":"","visiting_time":0.0,"opening_hours":"ok","opening_days":"ok","rating":0,"photo_url":null,"description":"Glutine","www":"www.hotelcorallorimini.com"},{"place_id":"celi13536","geometry":{"type":"Point","coordinates":[12.5523704,44.0678787]},"display_name":"Celle's Pizza","category":"eating","type":"celiachia","importance":0.1,"icon":"","visiting_time":0.0,"opening_hours":"ok","opening_days":"ok","rating":0,"photo_url":null,"description":"Glutine","www":"null"},{"place_id":"celi12163","geometry":{"type":"Point","coordinates":[12.5847248,44.0635441]},"display_name":"Hotel King","category":"eating","type":"celiachia","importance":0.1,"icon":"","visiting_time":0.0,"opening_hours":"ok","opening_days":"ok","rating":0,"photo_url":null,"description":"Glutine","www":"www.hotelkingrimini.com"},{"place_id":"celi7023","geometry":{"type":"Point","coordinates":[12.6173208,44.0350682]},"display_name":"Hotel Carlo","category":"eating","type":"celiachia","importance":0.1,"icon":"","visiting_time":0.0,"opening_hours":"ok","opening_days":"ok","rating":0,"photo_url":null,"description":"Glutine","www":"www.hotelcarlo.it"},{"place_id":"celi7042","geometry":{"type":"Point","coordinates":[12.4570037,44.0633313]},"display_name":"Bio Pizza","category":"eating","type":"celiachia","importance":0.1,"icon":"","visiting_time":0.0,"opening_hours":"ok","opening_days":"ok","rating":0,"photo_url":null,"description":"Glutine","www":"null"},{"place_id":"celi12186","geometry":{"type":"Point","coordinates":[12.4451913,44.0638057]},"display_name":"Macelleria Enogastronomia Magret da Filippo","category":"eating","type":"celiachia","importance":0.1,"icon":"","visiting_time":0.0,"opening_hours":"ok","opening_days":"ok","rating":0,"photo_url":null,"description":"Glutine","www":"www.enogastronomiamagret.com"},{"place_id":"celi10513","geometry":{"type":"Point","coordinates":[12.620499,44.029363]},"display_name":"Villa Irma","category":"eating","type":"celiachia","importance":0.1,"icon":"","visiting_time":0.0,"opening_hours":"ok","opening_days":"ok","rating":0,"photo_url":null,"description":"Glutine","www":"www.hotelvillairma.it"},{"place_id":"celi11847","geometry":{"type":"Point","coordinates":[12.4688405,44.0312626]},"display_name":"La Butega de Pes","category":"eating","type":"celiachia","importance":0.1,"icon":"","visiting_time":0.0,"opening_hours":"ok","opening_days":"ok","rating":0,"photo_url":null,"description":"Glutine","www":"www.labutegadepes.it"},{"place_id":"celi13657","geometry":{"type":"Point","coordinates":[12.5086639,43.9846011]},"display_name":"Replay cafè","category":"eating","type":"celiachia","importance":0.1,"icon":"","visiting_time":0.0,"opening_hours":"ok","opening_days":"ok","rating":0,"photo_url":null,"description":"Glutine","www":"www.replay-cafe.com"},{"place_id":"celi13600","geometry":{"type":"Point","coordinates":[12.568355,43.982255]},"display_name":"La buona carne","category":"eating","type":"celiachia","importance":0.1,"icon":"","visiting_time":0.0,"opening_hours":"ok","opening_days":"ok","rating":0,"photo_url":null,"description":"Glutine","www":"null"},{"place_id":"celi7134","geometry":{"type":"Point","coordinates":[12.5188995,44.0753967]},"display_name":"Tradizioni di Famiglia","category":"eating","type":"celiachia","importance":0.1,"icon":"","visiting_time":0.0,"opening_hours":"ok","opening_days":"ok","rating":0,"photo_url":null,"description":"Glutine","www":"www.tradizionidifamiglia.it"},{"place_id":"celi7135","geometry":{"type":"Point","coordinates":[12.6188739,44.0306826]},"display_name":"La Dolcetteria","category":"eating","type":"celiachia","importance":0.1,"icon":"","visiting_time":0.0,"opening_hours":"ok","opening_days":"ok","rating":0,"photo_url":null,"description":"Glutine","www":"www.ladolcetteria.altervista.org"}]