[{"place_id":"17301","geometry":{"type":"Point","coordinates":[9.527949406,44.942446557]},"display_name":"Santuario della Beata Vergine del Pilastrello,from:MIBACT","category":"attractions","type":"Chiesa","importance":0.7,"icon":"","visiting_time":0.0,"opening_hours":"ok","opening_days":"ok","rating":0,"photo_url":null,"description":null,"www":null},{"place_id":"12106","geometry":{"type":"Point","coordinates":[9.59756287,44.911586087]},"display_name":"Chiesa Parrocchiale di S. Agata,from:MIBACT","category":"attractions","type":"Chiesa","importance":0.7,"icon":"","visiting_time":0.0,"opening_hours":"ok","opening_days":"ok","rating":0,"photo_url":null,"description":null,"www":"http://vincoliinrete.beniculturali.it/VincoliInRete/vir/bene/dettagliobene140381"},{"place_id":"12076","geometry":{"type":"Point","coordinates":[9.545337173,44.955959378]},"display_name":"Chiesa Parrocchiale di S. Lorenzo Martire,from:MIBACT","category":"attractions","type":"Chiesa","importance":0.7,"icon":"","visiting_time":0.0,"opening_hours":"ok","opening_days":"ok","rating":0,"photo_url":null,"description":null,"www":"http://vincoliinrete.beniculturali.it/VincoliInRete/vir/bene/dettagliobene140356"},{"place_id":"10270","geometry":{"type":"Point","coordinates":[9.515556664,44.912921684]},"display_name":"Castello di Rezzanello e parco annesso,from:MIBACT","category":"attractions","type":"Rocca","importance":0.7,"icon":"","visiting_time":0.0,"opening_hours":"ok","opening_days":"ok","rating":0,"photo_url":null,"description":null,"www":"http://vincoliinrete.beniculturali.it/VincoliInRete/vir/bene/dettagliobene206090"},{"place_id":"12103","geometry":{"type":"Point","coordinates":[9.596993384,44.911600453]},"display_name":"Villa Anguissola Scotti e parco,from:MIBACT","category":"attractions","type":"Villa","importance":0.7,"icon":"","visiting_time":0.0,"opening_hours":"ok","opening_days":"ok","rating":0,"photo_url":null,"description":null,"www":"http://vincoliinrete.beniculturali.it/VincoliInRete/vir/bene/dettagliobene264684"},{"place_id":"10168","geometry":{"type":"Point","coordinates":[9.591027277,44.950224458]},"display_name":"Castello e Borgo di Rivalta,from:MIBACT","category":"attractions","type":"Rocca","importance":0.9,"icon":"","visiting_time":0.0,"opening_hours":"ok","opening_days":"ok","rating":0,"photo_url":null,"description":null,"www":"http://vincoliinrete.beniculturali.it/VincoliInRete/vir/bene/dettagliobene199140"},{"place_id":"10329","geometry":{"type":"Point","coordinates":[9.546950864,44.959078861]},"display_name":"\"Castello Anguissola, giardino e pertinenze\",from:MIBACT","category":"attractions","type":"Rocca","importance":0.7,"icon":"","visiting_time":0.0,"opening_hours":"ok","opening_days":"ok","rating":0,"photo_url":null,"description":null,"www":"http://vincoliinrete.beniculturali.it/VincoliInRete/vir/bene/dettagliobene206891"},{"place_id":"10697","geometry":{"type":"Point","coordinates":[9.522641376,44.946664006]},"display_name":"Castello e Rocca Anguissola,from:MIBACT","category":"attractions","type":"Rocca","importance":0.7,"icon":"","visiting_time":0.0,"opening_hours":"ok","opening_days":"ok","rating":0,"photo_url":null,"description":null,"www":"\"http://vincoliinrete.beniculturali.it/VincoliInRete/vir/bene/dettagliobene197776,http://vincoliinrete.beniculturali.it/VincoliInRete/vir/bene/dettagliobene345785\""},{"place_id":"10567","geometry":{"type":"Point","coordinates":[9.535182731,44.949052332]},"display_name":"Castello di Lisignano e pertinenze,from:MIBACT","category":"attractions","type":"Rocca","importance":0.9,"icon":"","visiting_time":0.0,"opening_hours":"ok","opening_days":"ok","rating":0,"photo_url":null,"description":null,"www":"http://vincoliinrete.beniculturali.it/VincoliInRete/vir/bene/dettagliobene207014"},{"place_id":"10086","geometry":{"type":"Point","coordinates":[9.585180874,44.909762327]},"display_name":"\"Castello Caracciolo-Anguissola Scotti, giardino e pertinenze\",from:MIBACT","category":"attractions","type":"Rocca","importance":0.7,"icon":"","visiting_time":0.0,"opening_hours":"ok","opening_days":"ok","rating":0,"photo_url":null,"description":null,"www":null},{"place_id":"10224","geometry":{"type":"Point","coordinates":[9.591363287,44.949953542]},"display_name":"Chiesa Parrocchiale di S. Martino,from:MIBACT","category":"attractions","type":"Chiesa","importance":0.7,"icon":"","visiting_time":0.0,"opening_hours":"ok","opening_days":"ok","rating":0,"photo_url":null,"description":null,"www":"http://vincoliinrete.beniculturali.it/VincoliInRete/vir/bene/dettagliobene138033"},{"place_id":"12109","geometry":{"type":"Point","coordinates":[9.597818445,44.909564867]},"display_name":"Santuario della Beata Vergine delle Grazie al Castello,from:MIBACT","category":"attractions","type":"Chiesa","importance":0.7,"icon":"","visiting_time":0.0,"opening_hours":"ok","opening_days":"ok","rating":0,"photo_url":null,"description":null,"www":"http://vincoliinrete.beniculturali.it/VincoliInRete/vir/bene/dettagliobene347355"}]