[{"place_id":"82969669","geometry":{"type":"Point","coordinates":[9.448523677,44.41378135]},"display_name":"Laghetto del Bocco, SP27 di Cassego, Mezzanego, GE, LIG, Italia","category":"attractions","type":"attraction","importance":0.001,"icon":"http://nominatim.openstreetmap.org/images/mapicons/poi_point_of_interest.p.20.png","visiting_time":30.0,"opening_hours":null,"opening_days":null,"rating":0,"photo_url":null,"description":null,"www":null},{"place_id":"52959818","geometry":{"type":"Point","coordinates":[9.4751851,44.4713213]},"display_name":"Alta Via dei Monti Liguri, Tornolo, GE, LIG, Italia","category":"attractions","type":"viewpoint","importance":0.001,"icon":"http://nominatim.openstreetmap.org/images/mapicons/tourist_view_point.p.20.png","visiting_time":10.0,"opening_hours":null,"opening_days":null,"rating":0,"photo_url":null,"description":null,"www":null},{"place_id":"54965253","geometry":{"type":"Point","coordinates":[9.501933,44.480849]},"display_name":"871, Cà dei Folli, Tornolo, PR, EMR, 43059, Italia","category":"attractions","type":"viewpoint","importance":0.001,"icon":"http://nominatim.openstreetmap.org/images/mapicons/tourist_view_point.p.20.png","visiting_time":10.0,"opening_hours":null,"opening_days":null,"rating":0,"photo_url":null,"description":null,"www":null},{"place_id":"18022581","geometry":{"type":"Point","coordinates":[9.6356169,44.4438113]},"display_name":"Strada Provinciale del Colle di Centocroci, Albareto, SP, LIG, 43051, Italia","category":"attractions","type":"viewpoint","importance":0.001,"icon":"http://nominatim.openstreetmap.org/images/mapicons/tourist_view_point.p.20.png","visiting_time":10.0,"opening_hours":null,"opening_days":null,"rating":0,"photo_url":null,"description":null,"www":null},{"place_id":"26273956","geometry":{"type":"Point","coordinates":[9.4403342,44.4772204]},"display_name":"Alta Via dei Monti Liguri, Santo Stefano d'Aveto, GE, LIG, Italia","category":"attractions","type":"viewpoint","importance":0.001,"icon":"http://nominatim.openstreetmap.org/images/mapicons/tourist_view_point.p.20.png","visiting_time":10.0,"opening_hours":null,"opening_days":null,"rating":0,"photo_url":null,"description":null,"www":null},{"place_id":"17773854","geometry":{"type":"Point","coordinates":[9.6236113,44.4211903]},"display_name":"Passo di cento croci, Strada Provinciale del Colle di Centocroci, Megotto, Varese Ligure, SP, LIG, Italia","category":"attractions","type":"viewpoint","importance":0.001,"icon":"http://nominatim.openstreetmap.org/images/mapicons/tourist_view_point.p.20.png","visiting_time":10.0,"opening_hours":null,"opening_days":null,"rating":0,"photo_url":null,"description":null,"www":null},{"place_id":"6709723","geometry":{"type":"Point","coordinates":[9.442121,44.415511]},"display_name":"Strada Provinciale 26bis, Malga di Vallepiana, Borzonasca, GE, LIG, Italia","category":"eating","type":"restaurant","importance":0.001,"icon":"http://nominatim.openstreetmap.org/images/mapicons/food_restaurant.p.20.png","visiting_time":60.0,"opening_hours":null,"opening_days":null,"rating":0,"photo_url":null,"description":null,"www":null},{"place_id":"7683072","geometry":{"type":"Point","coordinates":[9.4431004,44.4152398]},"display_name":"SP27 di Cassego, Mezzanego, GE, LIG, Italia","category":"eating","type":"restaurant","importance":0.001,"icon":"http://nominatim.openstreetmap.org/images/mapicons/food_restaurant.p.20.png","visiting_time":60.0,"opening_hours":null,"opening_days":null,"rating":0,"photo_url":null,"description":null,"www":null},{"place_id":"55303636","geometry":{"type":"Point","coordinates":[9.6442147,44.4881272]},"display_name":"Canada - stella sul fiume, 18, Strada Isola Premassato (via Dottor Milani), Premassato, Compiano, PR, EMR, 43053, Italia","category":"eating","type":"restaurant","importance":0.001,"icon":"http://nominatim.openstreetmap.org/images/mapicons/food_restaurant.p.20.png","visiting_time":60.0,"opening_hours":null,"opening_days":null,"rating":0,"photo_url":null,"description":null,"www":null},{"place_id":"56671154","geometry":{"type":"Point","coordinates":[9.4925491,44.4325792]},"display_name":"Ristorante Alpino, Piazza Risorgimento, Tornolo, PR, EMR, 43059, Italia","category":"eating","type":"restaurant","importance":0.001,"icon":"http://nominatim.openstreetmap.org/images/mapicons/food_restaurant.p.20.png","visiting_time":60.0,"opening_hours":null,"opening_days":null,"rating":0,"photo_url":null,"description":null,"www":null},{"place_id":"56652240","geometry":{"type":"Point","coordinates":[9.5392294,44.4284857]},"display_name":"I Bordighi, 12, Strada Statale 593, Case Lau, Tornolo, PR, EMR, 43059, Italia","category":"eating","type":"restaurant","importance":0.001,"icon":"http://nominatim.openstreetmap.org/images/mapicons/food_restaurant.p.20.png","visiting_time":60.0,"opening_hours":null,"opening_days":null,"rating":0,"photo_url":null,"description":null,"www":null},{"place_id":"56520865","geometry":{"type":"Point","coordinates":[9.6148551,44.4860666]},"display_name":"Bar Ristorante Dirce, 38, SP3, Cà Cervieri, Bedonia, PR, EMR, 43041, Italia","category":"eating","type":"restaurant","importance":0.001,"icon":"http://nominatim.openstreetmap.org/images/mapicons/food_restaurant.p.20.png","visiting_time":60.0,"opening_hours":null,"opening_days":null,"rating":0,"photo_url":null,"description":null,"www":null},{"place_id":"7021900","geometry":{"type":"Point","coordinates":[9.6261452,44.419061]},"display_name":"Locanda Ranch Camillo, Strada Provinciale del Colle di Centocroci, Case Schiappacasse, Varese Ligure, SP, LIG, 19028, Italia","category":"eating","type":"restaurant","importance":0.001,"icon":"http://nominatim.openstreetmap.org/images/mapicons/food_restaurant.p.20.png","visiting_time":60.0,"opening_hours":null,"opening_days":null,"rating":0,"photo_url":null,"description":null,"www":null},{"place_id":"6709723","geometry":{"type":"Point","coordinates":[9.442121,44.415511]},"display_name":"Strada Provinciale 26bis, Malga di Vallepiana, Borzonasca, GE, LIG, Italia","category":"eating","type":"restaurant","importance":0.001,"icon":"http://nominatim.openstreetmap.org/images/mapicons/food_restaurant.p.20.png","visiting_time":60.0,"opening_hours":null,"opening_days":null,"rating":0,"photo_url":null,"description":null,"www":null},{"place_id":"7683072","geometry":{"type":"Point","coordinates":[9.4431004,44.4152398]},"display_name":"SP27 di Cassego, Mezzanego, GE, LIG, Italia","category":"eating","type":"restaurant","importance":0.001,"icon":"http://nominatim.openstreetmap.org/images/mapicons/food_restaurant.p.20.png","visiting_time":60.0,"opening_hours":null,"opening_days":null,"rating":0,"photo_url":null,"description":null,"www":null},{"place_id":"55303636","geometry":{"type":"Point","coordinates":[9.6442147,44.4881272]},"display_name":"Canada - stella sul fiume, 18, Strada Isola Premassato (via Dottor Milani), Premassato, Compiano, PR, EMR, 43053, Italia","category":"eating","type":"restaurant","importance":0.001,"icon":"http://nominatim.openstreetmap.org/images/mapicons/food_restaurant.p.20.png","visiting_time":60.0,"opening_hours":null,"opening_days":null,"rating":0,"photo_url":null,"description":null,"www":null},{"place_id":"56671154","geometry":{"type":"Point","coordinates":[9.4925491,44.4325792]},"display_name":"Ristorante Alpino, Piazza Risorgimento, Tornolo, PR, EMR, 43059, Italia","category":"eating","type":"restaurant","importance":0.001,"icon":"http://nominatim.openstreetmap.org/images/mapicons/food_restaurant.p.20.png","visiting_time":60.0,"opening_hours":null,"opening_days":null,"rating":0,"photo_url":null,"description":null,"www":null},{"place_id":"56652240","geometry":{"type":"Point","coordinates":[9.5392294,44.4284857]},"display_name":"I Bordighi, 12, Strada Statale 593, Case Lau, Tornolo, PR, EMR, 43059, Italia","category":"eating","type":"restaurant","importance":0.001,"icon":"http://nominatim.openstreetmap.org/images/mapicons/food_restaurant.p.20.png","visiting_time":60.0,"opening_hours":null,"opening_days":null,"rating":0,"photo_url":null,"description":null,"www":null},{"place_id":"56520865","geometry":{"type":"Point","coordinates":[9.6148551,44.4860666]},"display_name":"Bar Ristorante Dirce, 38, SP3, Cà Cervieri, Bedonia, PR, EMR, 43041, Italia","category":"eating","type":"restaurant","importance":0.001,"icon":"http://nominatim.openstreetmap.org/images/mapicons/food_restaurant.p.20.png","visiting_time":60.0,"opening_hours":null,"opening_days":null,"rating":0,"photo_url":null,"description":null,"www":null},{"place_id":"7021900","geometry":{"type":"Point","coordinates":[9.6261452,44.419061]},"display_name":"Locanda Ranch Camillo, Strada Provinciale del Colle di Centocroci, Case Schiappacasse, Varese Ligure, SP, LIG, 19028, Italia","category":"eating","type":"restaurant","importance":0.001,"icon":"http://nominatim.openstreetmap.org/images/mapicons/food_restaurant.p.20.png","visiting_time":60.0,"opening_hours":null,"opening_days":null,"rating":0,"photo_url":null,"description":null,"www":null},{"place_id":"55441463","geometry":{"type":"Point","coordinates":[9.6289953,44.4848731]},"display_name":"Bar Maiò, via Cà Maiò, i Cerri, Tornolo, PR, EMR, 43041, Italia","category":"lifestyle","type":"bar","importance":0.101,"icon":"http://nominatim.openstreetmap.org/images/mapicons/food_bar.p.20.png","visiting_time":10.0,"opening_hours":null,"opening_days":null,"rating":0,"photo_url":null,"description":null,"www":null},{"place_id":"54734400","geometry":{"type":"Point","coordinates":[9.6256289,44.4853306]},"display_name":"Bar Scarsella, via della Torre, i Cerri, Tornolo, PR, EMR, 43041, Italia","category":"lifestyle","type":"bar","importance":0.101,"icon":"http://nominatim.openstreetmap.org/images/mapicons/food_bar.p.20.png","visiting_time":10.0,"opening_hours":null,"opening_days":null,"rating":0,"photo_url":null,"description":null,"www":null},{"place_id":"55943169","geometry":{"type":"Point","coordinates":[9.6249461,44.4849809]},"display_name":"via Roma, i Cerri, Tornolo, PR, EMR, 43041, Italia","category":"lifestyle","type":"bar","importance":0.001,"icon":"http://nominatim.openstreetmap.org/images/mapicons/food_bar.p.20.png","visiting_time":10.0,"opening_hours":null,"opening_days":null,"rating":0,"photo_url":null,"description":null,"www":null},{"place_id":"55298452","geometry":{"type":"Point","coordinates":[9.4920555,44.43258]},"display_name":"Piazza Risorgimento, Tornolo, PR, EMR, 43059, Italia","category":"lifestyle","type":"bar","importance":0.001,"icon":"http://nominatim.openstreetmap.org/images/mapicons/food_bar.p.20.png","visiting_time":10.0,"opening_hours":null,"opening_days":null,"rating":0,"photo_url":null,"description":null,"www":null},{"place_id":"54778515","geometry":{"type":"Point","coordinates":[9.4952171,44.4323033]},"display_name":"Strada Statale 593, Case Lau, Tornolo, PR, EMR, 43059, Italia","category":"lifestyle","type":"bar","importance":0.001,"icon":"http://nominatim.openstreetmap.org/images/mapicons/food_bar.p.20.png","visiting_time":10.0,"opening_hours":null,"opening_days":null,"rating":0,"photo_url":null,"description":null,"www":null},{"place_id":"55570396","geometry":{"type":"Point","coordinates":[9.491945,44.4327054]},"display_name":"Gelateria, Piazza Risorgimento, Tornolo, PR, EMR, 43059, Italia","category":"lifestyle","type":"bar","importance":0.001,"icon":"http://nominatim.openstreetmap.org/images/mapicons/food_bar.p.20.png","visiting_time":10.0,"opening_hours":null,"opening_days":null,"rating":0,"photo_url":null,"description":null,"www":null},{"place_id":"55943169","geometry":{"type":"Point","coordinates":[9.6249461,44.4849809]},"display_name":"via Roma, i Cerri, Tornolo, PR, EMR, 43041, Italia","category":"lifestyle","type":"bar","importance":0.001,"icon":"http://nominatim.openstreetmap.org/images/mapicons/food_bar.p.20.png","visiting_time":90.0,"opening_hours":null,"opening_days":null,"rating":0,"photo_url":null,"description":null,"www":null},{"place_id":"55298452","geometry":{"type":"Point","coordinates":[9.4920555,44.43258]},"display_name":"Piazza Risorgimento, Tornolo, PR, EMR, 43059, Italia","category":"lifestyle","type":"bar","importance":0.001,"icon":"http://nominatim.openstreetmap.org/images/mapicons/food_bar.p.20.png","visiting_time":90.0,"opening_hours":null,"opening_days":null,"rating":0,"photo_url":null,"description":null,"www":null},{"place_id":"54778515","geometry":{"type":"Point","coordinates":[9.4952171,44.4323033]},"display_name":"Strada Statale 593, Case Lau, Tornolo, PR, EMR, 43059, Italia","category":"lifestyle","type":"bar","importance":0.001,"icon":"http://nominatim.openstreetmap.org/images/mapicons/food_bar.p.20.png","visiting_time":90.0,"opening_hours":null,"opening_days":null,"rating":0,"photo_url":null,"description":null,"www":null},{"place_id":"55441463","geometry":{"type":"Point","coordinates":[9.6289953,44.4848731]},"display_name":"Bar Maiò, via Cà Maiò, i Cerri, Tornolo, PR, EMR, 43041, Italia","category":"lifestyle","type":"bar","importance":0.001,"icon":"http://nominatim.openstreetmap.org/images/mapicons/food_bar.p.20.png","visiting_time":90.0,"opening_hours":null,"opening_days":null,"rating":0,"photo_url":null,"description":null,"www":null},{"place_id":"55570396","geometry":{"type":"Point","coordinates":[9.491945,44.4327054]},"display_name":"Gelateria, Piazza Risorgimento, Tornolo, PR, EMR, 43059, Italia","category":"lifestyle","type":"bar","importance":0.001,"icon":"http://nominatim.openstreetmap.org/images/mapicons/food_bar.p.20.png","visiting_time":90.0,"opening_hours":null,"opening_days":null,"rating":0,"photo_url":null,"description":null,"www":null},{"place_id":"54734400","geometry":{"type":"Point","coordinates":[9.6256289,44.4853306]},"display_name":"Bar Scarsella, via della Torre, i Cerri, Tornolo, PR, EMR, 43041, Italia","category":"lifestyle","type":"bar","importance":0.001,"icon":"http://nominatim.openstreetmap.org/images/mapicons/food_bar.p.20.png","visiting_time":90.0,"opening_hours":null,"opening_days":null,"rating":0,"photo_url":null,"description":null,"www":null},{"place_id":"180169053","geometry":{"type":"Point","coordinates":[-8.3350726,43.2233149]},"display_name":"Abegondo, Galicia, CAFE, España","category":"lifestyle","type":"postcode","importance":0.2125,"icon":null,"visiting_time":10.0,"opening_hours":null,"opening_days":null,"rating":0,"photo_url":null,"description":null,"www":null},{"place_id":"56334614","geometry":{"type":"Point","coordinates":[9.6249486,44.4848223]},"display_name":"via Roma, i Cerri, Tornolo, PR, EMR, 43041, Italia","category":"attractions","type":"monument","importance":0.001,"icon":"http://nominatim.openstreetmap.org/images/mapicons/tourist_monument.p.20.png","visiting_time":10.0,"opening_hours":null,"opening_days":null,"rating":0,"photo_url":null,"description":null,"www":null},{"place_id":"55612404","geometry":{"type":"Point","coordinates":[9.493347,44.4327346]},"display_name":"Piazzale Luigi Squeri, Tornolo, PR, EMR, 43059, Italia","category":"attractions","type":"monument","importance":0.001,"icon":"http://nominatim.openstreetmap.org/images/mapicons/tourist_monument.p.20.png","visiting_time":10.0,"opening_hours":null,"opening_days":null,"rating":0,"photo_url":null,"description":null,"www":null},{"place_id":"4216536","geometry":{"type":"Point","coordinates":[9.4929103,44.4813194]},"display_name":"Madonna di San Marco, 871, Cà dei Folli, Tornolo, PR, EMR, 43059, Italia","category":"attractions","type":"monument","importance":0.001,"icon":"http://nominatim.openstreetmap.org/images/mapicons/tourist_monument.p.20.png","visiting_time":10.0,"opening_hours":null,"opening_days":null,"rating":0,"photo_url":null,"description":null,"www":null},{"place_id":"178693435","geometry":{"type":"Point","coordinates":[9.444847994,44.4832913]},"display_name":"Parco naturale regionale dell'Aveto, Rezzoaglio, GE, LIG, Italia","category":"parks","type":"park","importance":0.31490776,"icon":null,"visiting_time":90.0,"opening_hours":null,"opening_days":null,"rating":0,"photo_url":null,"description":null,"www":null},{"place_id":"178693373","geometry":{"type":"Point","coordinates":[9.452475228,44.41524315]},"display_name":"Aveto, Malga di Vallepiana, Borzonasca, GE, LIG, Italia","category":"parks","type":"park","importance":0.15,"icon":null,"visiting_time":90.0,"opening_hours":null,"opening_days":null,"rating":0,"photo_url":null,"description":null,"www":null},{"place_id":"165927408","geometry":{"type":"Point","coordinates":[9.493504563,44.43275625]},"display_name":"Tornolo, PR, EMR, Italia","category":"parks","type":"park","importance":0.15,"icon":null,"visiting_time":90.0,"opening_hours":null,"opening_days":null,"rating":0,"photo_url":null,"description":null,"www":null},{"place_id":"20084667","geometry":{"type":"Point","coordinates":[9.4581905,44.4730205]},"display_name":"Ai Caduti della Balconia, Perlezzi-Monte Aiona, Malga Zanoni, Borzonasca, GE, LIG, Italia","category":"attractions","type":"place_of_worship","importance":0.001,"icon":"http://nominatim.openstreetmap.org/images/mapicons/place_of_worship_unknown3.p.20.png","visiting_time":30.0,"opening_hours":null,"opening_days":null,"rating":0,"photo_url":null,"description":null,"www":null},{"place_id":"117510340","geometry":{"type":"Point","coordinates":[9.453540891,44.41669185]},"display_name":"Strada Provinciale 26bis, Malga di Vallepiana, Borzonasca, GE, LIG, Italia","category":"attractions","type":"place_of_worship","importance":0.001,"icon":"http://nominatim.openstreetmap.org/images/mapicons/place_of_worship_unknown3.p.20.png","visiting_time":30.0,"opening_hours":null,"opening_days":null,"rating":0,"photo_url":null,"description":null,"www":null},{"place_id":"112684821","geometry":{"type":"Point","coordinates":[9.602807953,44.4877477]},"display_name":"SP3, Cà Baste, Tornolo, PR, EMR, 43041, Italia","category":"attractions","type":"place_of_worship","importance":0.001,"icon":"http://nominatim.openstreetmap.org/images/mapicons/place_of_worship_unknown3.p.20.png","visiting_time":30.0,"opening_hours":null,"opening_days":null,"rating":0,"photo_url":null,"description":null,"www":null},{"place_id":"175499832","geometry":{"type":"Point","coordinates":[9.49293965,44.4813198]},"display_name":"Cappelletta del Monte Penna, 871, Cà dei Folli, Tornolo, PR, EMR, 43059, Italia","category":"attractions","type":"place_of_worship","importance":0.001,"icon":"http://nominatim.openstreetmap.org/images/mapicons/place_of_worship_unknown3.p.20.png","visiting_time":30.0,"opening_hours":null,"opening_days":null,"rating":0,"photo_url":null,"description":null,"www":null},{"place_id":"111116153","geometry":{"type":"Point","coordinates":[9.625761341,44.48550425]},"display_name":"via Roma, i Cerri, Tornolo, PR, EMR, 43041, Italia","category":"attractions","type":"place_of_worship","importance":0.001,"icon":"http://nominatim.openstreetmap.org/images/mapicons/place_of_worship_unknown3.p.20.png","visiting_time":30.0,"opening_hours":null,"opening_days":null,"rating":0,"photo_url":null,"description":null,"www":null},{"place_id":"110788816","geometry":{"type":"Point","coordinates":[9.538561805,44.42828405]},"display_name":"Strada Statale 593, Case Lau, Tornolo, PR, EMR, 43059, Italia","category":"attractions","type":"place_of_worship","importance":0.001,"icon":"http://nominatim.openstreetmap.org/images/mapicons/place_of_worship_unknown3.p.20.png","visiting_time":30.0,"opening_hours":null,"opening_days":null,"rating":0,"photo_url":null,"description":null,"www":null},{"place_id":"113168880","geometry":{"type":"Point","coordinates":[9.49143924,44.4326917]},"display_name":"Piazza Berto Lusardi, Tornolo, PR, EMR, 43059, Italia","category":"attractions","type":"place_of_worship","importance":0.001,"icon":"http://nominatim.openstreetmap.org/images/mapicons/place_of_worship_unknown3.p.20.png","visiting_time":30.0,"opening_hours":null,"opening_days":null,"rating":0,"photo_url":null,"description":null,"www":null},{"place_id":"4216525","geometry":{"type":"Point","coordinates":[9.4929103,44.4813194]},"display_name":"Madonna di San Marco, 871, Cà dei Folli, Tornolo, PR, EMR, 43059, Italia","category":"attractions","type":"place_of_worship","importance":0.001,"icon":"http://nominatim.openstreetmap.org/images/mapicons/place_of_worship_unknown3.p.20.png","visiting_time":30.0,"opening_hours":null,"opening_days":null,"rating":0,"photo_url":null,"description":null,"www":null},{"place_id":"49115924","geometry":{"type":"Point","coordinates":[9.6061269,44.4354461]},"display_name":"Madonna degli alpini, Strada Provinciale del Colle di Centocroci, Albareto, SP, LIG, 43051, Italia","category":"attractions","type":"place_of_worship","importance":0.001,"icon":"http://nominatim.openstreetmap.org/images/mapicons/place_of_worship_unknown3.p.20.png","visiting_time":30.0,"opening_hours":null,"opening_days":null,"rating":0,"photo_url":null,"description":null,"www":null},{"place_id":"116747048","geometry":{"type":"Point","coordinates":[9.625428589,44.41919115]},"display_name":"Strada Provinciale del Colle di Centocroci, Case Schiappacasse, Varese Ligure, SP, LIG, 19028, Italia","category":"attractions","type":"place_of_worship","importance":0.001,"icon":"http://nominatim.openstreetmap.org/images/mapicons/place_of_worship_unknown3.p.20.png","visiting_time":30.0,"opening_hours":null,"opening_days":null,"rating":0,"photo_url":null,"description":null,"www":null},{"place_id":"20084667","geometry":{"type":"Point","coordinates":[9.4581905,44.4730205]},"display_name":"Ai Caduti della Balconia, Perlezzi-Monte Aiona, Malga Zanoni, Borzonasca, GE, LIG, Italia","category":"attractions","type":"place_of_worship","importance":0.001,"icon":"http://nominatim.openstreetmap.org/images/mapicons/place_of_worship_unknown3.p.20.png","visiting_time":30.0,"opening_hours":null,"opening_days":null,"rating":0,"photo_url":null,"description":null,"www":null},{"place_id":"117510340","geometry":{"type":"Point","coordinates":[9.453540891,44.41669185]},"display_name":"Strada Provinciale 26bis, Malga di Vallepiana, Borzonasca, GE, LIG, Italia","category":"attractions","type":"place_of_worship","importance":0.001,"icon":"http://nominatim.openstreetmap.org/images/mapicons/place_of_worship_unknown3.p.20.png","visiting_time":30.0,"opening_hours":null,"opening_days":null,"rating":0,"photo_url":null,"description":null,"www":null},{"place_id":"112684821","geometry":{"type":"Point","coordinates":[9.602807953,44.4877477]},"display_name":"SP3, Cà Baste, Tornolo, PR, EMR, 43041, Italia","category":"attractions","type":"place_of_worship","importance":0.001,"icon":"http://nominatim.openstreetmap.org/images/mapicons/place_of_worship_unknown3.p.20.png","visiting_time":30.0,"opening_hours":null,"opening_days":null,"rating":0,"photo_url":null,"description":null,"www":null},{"place_id":"175499832","geometry":{"type":"Point","coordinates":[9.49293965,44.4813198]},"display_name":"Cappelletta del Monte Penna, 871, Cà dei Folli, Tornolo, PR, EMR, 43059, Italia","category":"attractions","type":"place_of_worship","importance":0.001,"icon":"http://nominatim.openstreetmap.org/images/mapicons/place_of_worship_unknown3.p.20.png","visiting_time":30.0,"opening_hours":null,"opening_days":null,"rating":0,"photo_url":null,"description":null,"www":null},{"place_id":"111116153","geometry":{"type":"Point","coordinates":[9.625761341,44.48550425]},"display_name":"via Roma, i Cerri, Tornolo, PR, EMR, 43041, Italia","category":"attractions","type":"place_of_worship","importance":0.001,"icon":"http://nominatim.openstreetmap.org/images/mapicons/place_of_worship_unknown3.p.20.png","visiting_time":30.0,"opening_hours":null,"opening_days":null,"rating":0,"photo_url":null,"description":null,"www":null},{"place_id":"110788816","geometry":{"type":"Point","coordinates":[9.538561805,44.42828405]},"display_name":"Strada Statale 593, Case Lau, Tornolo, PR, EMR, 43059, Italia","category":"attractions","type":"place_of_worship","importance":0.001,"icon":"http://nominatim.openstreetmap.org/images/mapicons/place_of_worship_unknown3.p.20.png","visiting_time":30.0,"opening_hours":null,"opening_days":null,"rating":0,"photo_url":null,"description":null,"www":null},{"place_id":"113168880","geometry":{"type":"Point","coordinates":[9.49143924,44.4326917]},"display_name":"Piazza Berto Lusardi, Tornolo, PR, EMR, 43059, Italia","category":"attractions","type":"place_of_worship","importance":0.001,"icon":"http://nominatim.openstreetmap.org/images/mapicons/place_of_worship_unknown3.p.20.png","visiting_time":30.0,"opening_hours":null,"opening_days":null,"rating":0,"photo_url":null,"description":null,"www":null},{"place_id":"4216525","geometry":{"type":"Point","coordinates":[9.4929103,44.4813194]},"display_name":"Madonna di San Marco, 871, Cà dei Folli, Tornolo, PR, EMR, 43059, Italia","category":"attractions","type":"place_of_worship","importance":0.001,"icon":"http://nominatim.openstreetmap.org/images/mapicons/place_of_worship_unknown3.p.20.png","visiting_time":30.0,"opening_hours":null,"opening_days":null,"rating":0,"photo_url":null,"description":null,"www":null},{"place_id":"49115924","geometry":{"type":"Point","coordinates":[9.6061269,44.4354461]},"display_name":"Madonna degli alpini, Strada Provinciale del Colle di Centocroci, Albareto, SP, LIG, 43051, Italia","category":"attractions","type":"place_of_worship","importance":0.001,"icon":"http://nominatim.openstreetmap.org/images/mapicons/place_of_worship_unknown3.p.20.png","visiting_time":30.0,"opening_hours":null,"opening_days":null,"rating":0,"photo_url":null,"description":null,"www":null},{"place_id":"116747048","geometry":{"type":"Point","coordinates":[9.625428589,44.41919115]},"display_name":"Strada Provinciale del Colle di Centocroci, Case Schiappacasse, Varese Ligure, SP, LIG, 19028, Italia","category":"attractions","type":"place_of_worship","importance":0.001,"icon":"http://nominatim.openstreetmap.org/images/mapicons/place_of_worship_unknown3.p.20.png","visiting_time":30.0,"opening_hours":null,"opening_days":null,"rating":0,"photo_url":null,"description":null,"www":null},{"place_id":"116655687","geometry":{"type":"Point","coordinates":[9.442237649,44.41548145]},"display_name":"Strada Provinciale 26bis, Malga di Vallepiana, Borzonasca, GE, LIG, Italia","category":"resting","type":"hotel","importance":0.001,"icon":"http://nominatim.openstreetmap.org/images/mapicons/accommodation_hotel2.p.20.png","visiting_time":10.0,"opening_hours":null,"opening_days":null,"rating":0,"photo_url":null,"description":null,"www":null},{"place_id":"56646447","geometry":{"type":"Point","coordinates":[9.5570195,44.4396319]},"display_name":"Agriturismo il Pellegrino, Strada Statale 593, Case Lau, Tornolo, PR, EMR, 43059, Italia","category":"resting","type":"hotel","importance":0.001,"icon":"http://nominatim.openstreetmap.org/images/mapicons/accommodation_hotel2.p.20.png","visiting_time":10.0,"opening_hours":null,"opening_days":null,"rating":0,"photo_url":null,"description":null,"www":null},{"place_id":"18338261","geometry":{"type":"Point","coordinates":[9.6232331,44.4475459]},"display_name":"SP24, i Cerri, Tornolo, PR, EMR, 43041, Italia","category":"resting","type":"hotel","importance":0.001,"icon":"http://nominatim.openstreetmap.org/images/mapicons/accommodation_hotel2.p.20.png","visiting_time":10.0,"opening_hours":null,"opening_days":null,"rating":0,"photo_url":null,"description":null,"www":null},{"place_id":"18022601","geometry":{"type":"Point","coordinates":[9.6348666,44.4380226]},"display_name":"Strada Provinciale del Colle di Centocroci, Albareto, SP, LIG, 43051, Italia","category":"resting","type":"hotel","importance":0.001,"icon":"http://nominatim.openstreetmap.org/images/mapicons/accommodation_hotel2.p.20.png","visiting_time":10.0,"opening_hours":null,"opening_days":null,"rating":0,"photo_url":null,"description":null,"www":null}]