[{"place_id":"44,51166962610040","geometry":{"type":"Point","coordinates":[10.500426971,44.511669626]},"display_name":"Comune di Casina,from:IBC","category":"attractions","type":"HolderOfArchives","importance":0.0,"icon":"","visiting_time":0.0,"opening_hours":"ok","opening_days":"ok","rating":0,"photo_url":null,"description":null,"www":"http://www.comune.casina.re.it"},{"place_id":"44,51021714293170","geometry":{"type":"Point","coordinates":[10.5006574,44.510217143]},"display_name":"Biblioteca comunale Sincero Bresciani,from:IBC","category":"attractions","type":"Library","importance":0.0,"icon":"","visiting_time":0.0,"opening_hours":"ok","opening_days":"ok","rating":0,"photo_url":null,"description":null,"www":"http://biblioteche.provincia.re.it/casina"},{"place_id":"Una Roverella Casina Paullo (Chiesa) 31","geometry":{"type":"Point","coordinates":[10.50556754,44.54953441]},"display_name":"Una Roverella Casina Paullo (Chiesa),from:IBC","category":"tree","type":"tree","importance":0.0,"icon":"","visiting_time":0.0,"opening_hours":"ok","opening_days":"ok","rating":0,"photo_url":"http://online.ibc.regione.emilia-romagna.it/mtrees/image/1834.jpg","description":null,"www":null},{"place_id":"Due Roverelle Casina Giandeto (La Villa) 337","geometry":{"type":"Point","coordinates":[10.53096704,44.50321242]},"display_name":"Due Roverelle Casina Giandeto (La Villa),from:IBC","category":"tree","type":"tree","importance":0.0,"icon":"","visiting_time":0.0,"opening_hours":"ok","opening_days":"ok","rating":0,"photo_url":"http://online.ibc.regione.emilia-romagna.it/mtrees/image/6441.jpg","description":null,"www":null},{"place_id":"Due Roverelle Casina Giandeto (La Villa) 908","geometry":{"type":"Point","coordinates":[10.53070461,44.50327896]},"display_name":"Due Roverelle Casina Giandeto (La Villa),from:IBC","category":"tree","type":"tree","importance":0.0,"icon":"","visiting_time":0.0,"opening_hours":"ok","opening_days":"ok","rating":0,"photo_url":"http://online.ibc.regione.emilia-romagna.it/mtrees/image/6437.jpg","description":null,"www":null},{"place_id":"Due Roverelle Casina Leguigno Via del Monte 965","geometry":{"type":"Point","coordinates":[10.45112164,44.51268098]},"display_name":"Due Roverelle Casina Leguigno Via del Monte,from:IBC","category":"tree","type":"tree","importance":0.0,"icon":"","visiting_time":0.0,"opening_hours":"ok","opening_days":"ok","rating":0,"photo_url":"http://online.ibc.regione.emilia-romagna.it/mtrees/image/14050.jpg","description":null,"www":null},{"place_id":"Due Roverelle Casina Leguigno Via del Monte 1014","geometry":{"type":"Point","coordinates":[10.45142909,44.51290214]},"display_name":"Due Roverelle Casina Leguigno Via del Monte,from:IBC","category":"tree","type":"tree","importance":0.0,"icon":"","visiting_time":0.0,"opening_hours":"ok","opening_days":"ok","rating":0,"photo_url":"http://online.ibc.regione.emilia-romagna.it/mtrees/image/14054.jpg","description":null,"www":null}]