[{"place_id":"17182","geometry":{"type":"Point","coordinates":[10.518249402,44.569574383]},"display_name":"Chiesa di San Michele Arcangelo,from:MIBACT","category":"attractions","type":"Chiesa","importance":0.4,"icon":"","visiting_time":0.0,"opening_hours":"ok","opening_days":"ok","rating":0,"photo_url":null,"description":null,"www":"http://vincoliinrete.beniculturali.it/VincoliInRete/vir/bene/dettagliobene2813947"},{"place_id":"4768","geometry":{"type":"Point","coordinates":[10.505736665,44.54934006]},"display_name":"Chiesa Parrocchiale di S. Bartolomeo apostolo,from:MIBACT","category":"attractions","type":"Chiesa","importance":0.7,"icon":"","visiting_time":0.0,"opening_hours":"ok","opening_days":"ok","rating":0,"photo_url":null,"description":null,"www":"\"http://vincoliinrete.beniculturali.it/VincoliInRete/vir/bene/dettagliobene137559,http://vincoliinrete.beniculturali.it/VincoliInRete/vir/bene/dettagliobene599130\""},{"place_id":"4771","geometry":{"type":"Point","coordinates":[10.536290812,44.498022623]},"display_name":"Chiesa Parrocchiale della Conversione di S. Paolo,from:MIBACT","category":"attractions","type":"Chiesa","importance":0.7,"icon":"","visiting_time":0.0,"opening_hours":"ok","opening_days":"ok","rating":0,"photo_url":null,"description":null,"www":"http://vincoliinrete.beniculturali.it/VincoliInRete/vir/bene/dettagliobene137655"},{"place_id":"17183","geometry":{"type":"Point","coordinates":[10.48388387,44.561267799]},"display_name":"Oratorio della Decollazione di San Giovanni Battista,from:MIBACT","category":"attractions","type":"Oratorio","importance":0.7,"icon":"","visiting_time":0.0,"opening_hours":"ok","opening_days":"ok","rating":0,"photo_url":null,"description":null,"www":"http://vincoliinrete.beniculturali.it/VincoliInRete/vir/bene/dettagliobene227480"},{"place_id":"17184","geometry":{"type":"Point","coordinates":[10.491060153,44.521740164]},"display_name":"Santuario della Madonna del Carrobbio e pertinenze,from:MIBACT","category":"attractions","type":"Chiesa","importance":0.7,"icon":"","visiting_time":0.0,"opening_hours":"ok","opening_days":"ok","rating":0,"photo_url":null,"description":null,"www":"http://vincoliinrete.beniculturali.it/VincoliInRete/vir/bene/dettagliobene347201"},{"place_id":"17677","geometry":{"type":"Point","coordinates":[10.51476153,44.48456183]},"display_name":"Chiesa di San Martino Vescovo,from:MIBACT","category":"attractions","type":"Chiesa","importance":0.7,"icon":"","visiting_time":0.0,"opening_hours":"ok","opening_days":"ok","rating":0,"photo_url":null,"description":null,"www":"http://vincoliinrete.beniculturali.it/VincoliInRete/vir/bene/dettagliobene137456"},{"place_id":"4767","geometry":{"type":"Point","coordinates":[10.490509515,44.517375355]},"display_name":"Castello di Sarzano e relative pertinenze,from:MIBACT","category":"attractions","type":"Rocca","importance":0.7,"icon":"","visiting_time":0.0,"opening_hours":"ok","opening_days":"ok","rating":0,"photo_url":null,"description":null,"www":null},{"place_id":"4765","geometry":{"type":"Point","coordinates":[10.452198103,44.518477962]},"display_name":"Castello di Leguigno,from:MIBACT","category":"attractions","type":"Rocca","importance":0.7,"icon":"","visiting_time":0.0,"opening_hours":"ok","opening_days":"ok","rating":0,"photo_url":null,"description":null,"www":null},{"place_id":"4764","geometry":{"type":"Point","coordinates":[10.461559666,44.493943546]},"display_name":"Oratorio di S. Michele in Beleo,from:MIBACT","category":"attractions","type":"Oratorio","importance":0.7,"icon":"","visiting_time":0.0,"opening_hours":"ok","opening_days":"ok","rating":0,"photo_url":null,"description":null,"www":"\"http://vincoliinrete.beniculturali.it/VincoliInRete/vir/bene/dettagliobene599101,http://vincoliinrete.beniculturali.it/VincoliInRete/vir/bene/dettagliobene227464\""}]