[{"place_id":"19881","geometry":{"type":"Point","coordinates":[11.844278832,44.359559436]},"display_name":"Museo civico della Confraternita della SS. Annunziata,from:MIBACT","category":"attractions","type":"Chiesa","importance":0.7,"icon":"","visiting_time":0.0,"opening_hours":"ok","opening_days":"ok","rating":0,"photo_url":null,"description":null,"www":"http://vincoliinrete.beniculturali.it/VincoliInRete/vir/bene/dettagliobene137788"},{"place_id":"9019","geometry":{"type":"Point","coordinates":[11.798893285,44.326552885]},"display_name":"Oratorio Bragaldi,from:MIBACT","category":"attractions","type":"Oratorio","importance":0.7,"icon":"","visiting_time":0.0,"opening_hours":"ok","opening_days":"ok","rating":0,"photo_url":null,"description":null,"www":"http://vincoliinrete.beniculturali.it/VincoliInRete/vir/bene/dettagliobene112503"},{"place_id":"19880","geometry":{"type":"Point","coordinates":[11.844425315,44.359843269]},"display_name":"Chiesa di Santa Maria Assunta,from:MIBACT","category":"attractions","type":"Chiesa","importance":0.7,"icon":"","visiting_time":0.0,"opening_hours":"ok","opening_days":"ok","rating":0,"photo_url":null,"description":null,"www":null},{"place_id":"15677","geometry":{"type":"Point","coordinates":[11.79900949,44.318936715]},"display_name":"Palazzo del Comune,from:MIBACT","category":"attractions","type":"Palazzo","importance":0.7,"icon":"","visiting_time":0.0,"opening_hours":"ok","opening_days":"ok","rating":0,"photo_url":null,"description":null,"www":"http://vincoliinrete.beniculturali.it/VincoliInRete/vir/bene/dettagliobene339852"},{"place_id":"18197","geometry":{"type":"Point","coordinates":[11.835631642,44.291329588]},"display_name":"Chiesa di San Giovanni Battista Decollato della Celle,from:MIBACT","category":"attractions","type":"Chiesa","importance":0.0,"icon":"","visiting_time":0.0,"opening_hours":"ok","opening_days":"ok","rating":0,"photo_url":null,"description":null,"www":"http://vincoliinrete.beniculturali.it/VincoliInRete/vir/bene/dettagliobene90351"},{"place_id":"8114","geometry":{"type":"Point","coordinates":[11.799317235,44.319448035]},"display_name":"Chiesa di San Francesco e Santa Lucia e pertinenze,from:MIBACT","category":"attractions","type":"Chiesa","importance":0.7,"icon":"","visiting_time":0.0,"opening_hours":"ok","opening_days":"ok","rating":0,"photo_url":null,"description":null,"www":"\"http://vincoliinrete.beniculturali.it/VincoliInRete/vir/bene/dettagliobene137724,http://vincoliinrete.beniculturali.it/VincoliInRete/vir/bene/dettagliobene139743,http://vincoliinrete.beniculturali.it/VincoliInRete/vir/bene/dettagliobene112564\""},{"place_id":"8922","geometry":{"type":"Point","coordinates":[11.798987242,44.319582671]},"display_name":"Palazzo Ginnasi,from:MIBACT","category":"attractions","type":"Palazzo","importance":0.7,"icon":"","visiting_time":0.0,"opening_hours":"ok","opening_days":"ok","rating":0,"photo_url":null,"description":null,"www":"\"http://vincoliinrete.beniculturali.it/VincoliInRete/vir/bene/dettagliobene87631,http://vincoliinrete.beniculturali.it/VincoliInRete/vir/bene/dettagliobene344732\""},{"place_id":"9013","geometry":{"type":"Point","coordinates":[11.768060161,44.296416545]},"display_name":"Ruderi della pieve di Sant'Angelo,from:MIBACT","category":"attractions","type":"Chiesa","importance":0.7,"icon":"","visiting_time":0.0,"opening_hours":"ok","opening_days":"ok","rating":0,"photo_url":null,"description":null,"www":"http://vincoliinrete.beniculturali.it/VincoliInRete/vir/bene/dettagliobene19865"},{"place_id":"15680","geometry":{"type":"Point","coordinates":[11.798841987,44.320045228]},"display_name":"Chiesa di Santa Maria della Misericordia,from:MIBACT","category":"attractions","type":"Chiesa","importance":0.7,"icon":"","visiting_time":0.0,"opening_hours":"ok","opening_days":"ok","rating":0,"photo_url":null,"description":null,"www":"http://vincoliinrete.beniculturali.it/VincoliInRete/vir/bene/dettagliobene88899"},{"place_id":"19888","geometry":{"type":"Point","coordinates":[11.799885039,44.319568807]},"display_name":"Convento della Santissima Trinità e Chiesa della Santissima Trinità,from:MIBACT","category":"attractions","type":"Convento","importance":0.7,"icon":"","visiting_time":0.0,"opening_hours":"ok","opening_days":"ok","rating":0,"photo_url":null,"description":null,"www":"http://vincoliinrete.beniculturali.it/VincoliInRete/vir/bene/dettagliobene112536"},{"place_id":"20045","geometry":{"type":"Point","coordinates":[11.798808338,44.318272428]},"display_name":"Chiesa di San Petronio Vescovo,from:MIBACT","category":"attractions","type":"Chiesa","importance":0.7,"icon":"","visiting_time":0.0,"opening_hours":"ok","opening_days":"ok","rating":0,"photo_url":null,"description":null,"www":"\"http://vincoliinrete.beniculturali.it/VincoliInRete/vir/bene/dettagliobene216884,http://vincoliinrete.beniculturali.it/VincoliInRete/vir/bene/dettagliobene112574,http://vincoliinrete.beniculturali.it/VincoliInRete/vir/bene/dettagliobene112576\""},{"place_id":"20049","geometry":{"type":"Point","coordinates":[11.794522491,44.317969648]},"display_name":"Chiesa del Convento dei Cappuccini,from:MIBACT","category":"attractions","type":"Chiesa","importance":0.7,"icon":"","visiting_time":0.0,"opening_hours":"ok","opening_days":"ok","rating":0,"photo_url":null,"description":null,"www":null},{"place_id":"19886","geometry":{"type":"Point","coordinates":[11.843866496,44.360526928]},"display_name":"Ruderi della Rocca Manfrediana,from:MIBACT","category":"attractions","type":"Rocca","importance":0.7,"icon":"","visiting_time":0.0,"opening_hours":"ok","opening_days":"ok","rating":0,"photo_url":null,"description":null,"www":"http://vincoliinrete.beniculturali.it/VincoliInRete/vir/bene/dettagliobene279592"},{"place_id":"19887","geometry":{"type":"Point","coordinates":[11.792716643,44.322177987]},"display_name":"Chiesa di San Sebastiano e di San Rocco,from:MIBACT","category":"attractions","type":"Chiesa","importance":0.7,"icon":"","visiting_time":0.0,"opening_hours":"ok","opening_days":"ok","rating":0,"photo_url":null,"description":null,"www":"\"http://vincoliinrete.beniculturali.it/VincoliInRete/vir/bene/dettagliobene112566,http://vincoliinrete.beniculturali.it/VincoliInRete/vir/bene/dettagliobene137723\""},{"place_id":"20050","geometry":{"type":"Point","coordinates":[11.812417865,44.331992177]},"display_name":"Mulino Scodellino,from:MIBACT","category":"attractions","type":"Mulino","importance":0.9,"icon":"","visiting_time":0.0,"opening_hours":"ok","opening_days":"ok","rating":0,"photo_url":null,"description":null,"www":"\"http://vincoliinrete.beniculturali.it/VincoliInRete/vir/bene/dettagliobene330940,http://vincoliinrete.beniculturali.it/VincoliInRete/vir/bene/dettagliobene112612\""},{"place_id":"15676","geometry":{"type":"Point","coordinates":[11.801202026,44.319869929]},"display_name":"Resti della rocca e delle mura,from:MIBACT","category":"attractions","type":"Rocca","importance":0.4,"icon":"","visiting_time":0.0,"opening_hours":"ok","opening_days":"ok","rating":0,"photo_url":null,"description":null,"www":"\"http://vincoliinrete.beniculturali.it/VincoliInRete/vir/bene/dettagliobene112510,http://vincoliinrete.beniculturali.it/VincoliInRete/vir/bene/dettagliobene112514,http://vincoliinrete.beniculturali.it/VincoliInRete/vir/bene/dettagliobene112512,http://vincoliinrete.beniculturali.it/VincoliInRete/vir/bene/dettagliobene88907,http://vincoliinrete.beniculturali.it/VincoliInRete/vir/bene/dettagliobene165985,http://vincoliinrete.beniculturali.it/VincoliInRete/vir/bene/dettagliobene112506,http://vincoliinrete.beniculturali.it/VincoliInRete/vir/bene/dettagliobene279568,http://vincoliinrete.beniculturali.it/VincoliInRete/vir/bene/dettagliobene112508\""}]