[{"place_id":"14290","geometry":{"type":"Point","coordinates":[9.691083734,45.049556687]},"display_name":"Via San Siro,from:MIBACT","category":"attractions","type":"Strada","importance":0.4,"icon":"","visiting_time":0.0,"opening_hours":"ok","opening_days":"ok","rating":0,"photo_url":null,"description":null,"www":null},{"place_id":"14286","geometry":{"type":"Point","coordinates":[9.692612493,45.047535789]},"display_name":"Via Giordani,from:MIBACT","category":"attractions","type":"Strada","importance":0.4,"icon":"","visiting_time":0.0,"opening_hours":"ok","opening_days":"ok","rating":0,"photo_url":null,"description":null,"www":null},{"place_id":"14098","geometry":{"type":"Point","coordinates":[9.698645278,45.048632741]},"display_name":"Via Scalabrini,from:MIBACT","category":"attractions","type":"Strada","importance":0.7,"icon":"","visiting_time":0.0,"opening_hours":"ok","opening_days":"ok","rating":0,"photo_url":null,"description":null,"www":"http://vincoliinrete.beniculturali.it/VincoliInRete/vir/bene/dettagliobene169048"},{"place_id":"13974","geometry":{"type":"Point","coordinates":[9.692081148,45.051920382]},"display_name":"Facciata dell'ex chiesa di S. Ilario,from:MIBACT","category":"attractions","type":"Elemento","importance":0.7,"icon":"","visiting_time":0.0,"opening_hours":"ok","opening_days":"ok","rating":0,"photo_url":null,"description":null,"www":"http://vincoliinrete.beniculturali.it/VincoliInRete/vir/bene/dettagliobene140420"},{"place_id":"17704","geometry":{"type":"Point","coordinates":[9.723142867,45.046506051]},"display_name":"Cimitero di Piacenza,from:MIBACT","category":"attractions","type":"Cimitero","importance":0.7,"icon":"","visiting_time":0.0,"opening_hours":"ok","opening_days":"ok","rating":0,"photo_url":null,"description":null,"www":null},{"place_id":"17703","geometry":{"type":"Point","coordinates":[9.681670569,45.033074862]},"display_name":"Parco della Galleana,from:MIBACT","category":"parks","type":"Parco","importance":0.7,"icon":"","visiting_time":0.0,"opening_hours":"ok","opening_days":"ok","rating":0,"photo_url":null,"description":null,"www":null},{"place_id":"17702","geometry":{"type":"Point","coordinates":[9.693546011,45.052460968]},"display_name":"Monumento a Gian Domenico Romagnosi,from:MIBACT","category":"attractions","type":"Elemento","importance":0.7,"icon":"","visiting_time":0.0,"opening_hours":"ok","opening_days":"ok","rating":0,"photo_url":null,"description":null,"www":null},{"place_id":"17237","geometry":{"type":"Point","coordinates":[9.725677289,45.036090582]},"display_name":"Palazzo Portici e Chiesa di San Lazzaro,from:MIBACT","category":"attractions","type":"Palazzo","importance":0.7,"icon":"","visiting_time":0.0,"opening_hours":"ok","opening_days":"ok","rating":0,"photo_url":null,"description":null,"www":"http://vincoliinrete.beniculturali.it/VincoliInRete/vir/bene/dettagliobene2934088"},{"place_id":"15419","geometry":{"type":"Point","coordinates":[9.6903468,45.052556729]},"display_name":"Palazzo della Provincia,from:MIBACT","category":"attractions","type":"Palazzo","importance":0.4,"icon":"","visiting_time":0.0,"opening_hours":"ok","opening_days":"ok","rating":0,"photo_url":null,"description":null,"www":null},{"place_id":"14291","geometry":{"type":"Point","coordinates":[9.698008587,45.056002427]},"display_name":"Viale Risorgimento,from:MIBACT","category":"attractions","type":"Strada","importance":0.7,"icon":"","visiting_time":0.0,"opening_hours":"ok","opening_days":"ok","rating":0,"photo_url":null,"description":null,"www":null},{"place_id":"14093","geometry":{"type":"Point","coordinates":[9.70543621,45.051735379]},"display_name":"Piazzale Marconi,from:MIBACT","category":"attractions","type":"Piazza","importance":0.4,"icon":"","visiting_time":0.0,"opening_hours":"ok","opening_days":"ok","rating":0,"photo_url":null,"description":null,"www":null},{"place_id":"12006","geometry":{"type":"Point","coordinates":[9.633487694,45.055752873]},"display_name":"Ponte sul Torrente Trebbia,from:MIBACT","category":"attractions","type":"Ponte","importance":0.7,"icon":"","visiting_time":0.0,"opening_hours":"ok","opening_days":"ok","rating":0,"photo_url":null,"description":null,"www":null},{"place_id":"10763","geometry":{"type":"Point","coordinates":[9.692995449,45.051454216]},"display_name":"Chiesa parrocchiale di San Donnino Martire e pertinenze,from:MIBACT","category":"attractions","type":"Chiesa","importance":0.7,"icon":"","visiting_time":0.0,"opening_hours":"ok","opening_days":"ok","rating":0,"photo_url":null,"description":null,"www":"\"http://vincoliinrete.beniculturali.it/VincoliInRete/vir/bene/dettagliobene470635,http://vincoliinrete.beniculturali.it/VincoliInRete/vir/bene/dettagliobene138021\""},{"place_id":"10685","geometry":{"type":"Point","coordinates":[9.6962796,45.050297824]},"display_name":"Palazzo Chiapponi,from:MIBACT","category":"attractions","type":"Palazzo","importance":0.7,"icon":"","visiting_time":0.0,"opening_hours":"ok","opening_days":"ok","rating":0,"photo_url":null,"description":null,"www":"\"http://vincoliinrete.beniculturali.it/VincoliInRete/vir/bene/dettagliobene500175,http://vincoliinrete.beniculturali.it/VincoliInRete/vir/bene/dettagliobene345671\""},{"place_id":"10671","geometry":{"type":"Point","coordinates":[9.696633897,45.049053954]},"display_name":"\"Palazzo Mancassola di Valconasso, Pallastrelli, Arcelli Fontana\",from:MIBACT","category":"attractions","type":"Palazzo","importance":0.4,"icon":"","visiting_time":0.0,"opening_hours":"ok","opening_days":"ok","rating":0,"photo_url":null,"description":null,"www":null},{"place_id":"10651","geometry":{"type":"Point","coordinates":[9.692288043,45.048746448]},"display_name":"Galleria d'Arte Moderna Ricci-Oddi e resti del Convento di S. Siro,from:MIBACT","category":"attractions","type":"Palazzo","importance":1.0,"icon":"","visiting_time":0.0,"opening_hours":"ok","opening_days":"ok","rating":0,"photo_url":null,"description":null,"www":"http://vincoliinrete.beniculturali.it/VincoliInRete/vir/bene/dettagliobene275621"},{"place_id":"10646","geometry":{"type":"Point","coordinates":[9.701045759,45.048083321]},"display_name":"\"Palazzo del Seminario Vescovile, cappella di S. Opilio e palazzo Barattieri\",from:MIBACT","category":"attractions","type":"Palazzo","importance":0.7,"icon":"","visiting_time":0.0,"opening_hours":"ok","opening_days":"ok","rating":0,"photo_url":null,"description":null,"www":"http://vincoliinrete.beniculturali.it/VincoliInRete/vir/bene/dettagliobene175150"},{"place_id":"10633","geometry":{"type":"Point","coordinates":[9.706038451,45.05214376]},"display_name":"Fabbricato Viaggiatori della Stazione Ferroviaria,from:MIBACT","category":"attractions","type":"Stazione","importance":0.7,"icon":"","visiting_time":0.0,"opening_hours":"ok","opening_days":"ok","rating":0,"photo_url":null,"description":null,"www":null},{"place_id":"10602","geometry":{"type":"Point","coordinates":[9.693961689,45.051781729]},"display_name":"Piazza Plebiscito,from:MIBACT","category":"attractions","type":"Piazza","importance":0.7,"icon":"","visiting_time":0.0,"opening_hours":"ok","opening_days":"ok","rating":0,"photo_url":null,"description":null,"www":"http://vincoliinrete.beniculturali.it/VincoliInRete/vir/bene/dettagliobene169140"},{"place_id":"10582","geometry":{"type":"Point","coordinates":[9.693430184,45.04956952]},"display_name":"Teatro municipale,from:MIBACT","category":"attractions","type":"Teatro","importance":0.9,"icon":"","visiting_time":0.0,"opening_hours":"ok","opening_days":"ok","rating":0,"photo_url":null,"description":null,"www":"http://vincoliinrete.beniculturali.it/VincoliInRete/vir/bene/dettagliobene231772"},{"place_id":"10574","geometry":{"type":"Point","coordinates":[9.683558363,45.054152235]},"display_name":"Presidio ospedaliero Guglielmo da Saliceto,from:MIBACT","category":"attractions","type":"Ospedale","importance":0.7,"icon":"","visiting_time":0.0,"opening_hours":"ok","opening_days":"ok","rating":0,"photo_url":null,"description":null,"www":"\"http://vincoliinrete.beniculturali.it/VincoliInRete/vir/bene/dettagliobene225008,http://vincoliinrete.beniculturali.it/VincoliInRete/vir/bene/dettagliobene140517\""},{"place_id":"10573","geometry":{"type":"Point","coordinates":[9.688921715,45.053348971]},"display_name":"Chiesa parrocchiale di S. Brigida,from:MIBACT","category":"attractions","type":"Chiesa","importance":0.7,"icon":"","visiting_time":0.0,"opening_hours":"ok","opening_days":"ok","rating":0,"photo_url":null,"description":null,"www":"http://vincoliinrete.beniculturali.it/VincoliInRete/vir/bene/dettagliobene138152"},{"place_id":"10479","geometry":{"type":"Point","coordinates":[9.694784063,45.050236555]},"display_name":"Palazzo delle Poste e pertinenze,from:MIBACT","category":"attractions","type":"Palazzo","importance":0.7,"icon":"","visiting_time":0.0,"opening_hours":"ok","opening_days":"ok","rating":0,"photo_url":null,"description":null,"www":"\"http://vincoliinrete.beniculturali.it/VincoliInRete/vir/bene/dettagliobene445266,http://vincoliinrete.beniculturali.it/VincoliInRete/vir/bene/dettagliobene345568\""},{"place_id":"10464","geometry":{"type":"Point","coordinates":[9.690109099,45.054196213]},"display_name":"Palazzo della Cassa di Risparmio,from:MIBACT","category":"attractions","type":"Palazzo","importance":0.4,"icon":"","visiting_time":0.0,"opening_hours":"ok","opening_days":"ok","rating":0,"photo_url":null,"description":null,"www":null},{"place_id":"10417","geometry":{"type":"Point","coordinates":[9.788861466,44.999198736]},"display_name":"Chiesa Parrocchiale di S. Pietro Apostolo,from:MIBACT","category":"attractions","type":"Chiesa","importance":0.7,"icon":"","visiting_time":0.0,"opening_hours":"ok","opening_days":"ok","rating":0,"photo_url":null,"description":null,"www":"http://vincoliinrete.beniculturali.it/VincoliInRete/vir/bene/dettagliobene140414"},{"place_id":"10413","geometry":{"type":"Point","coordinates":[9.703516625,45.051042377]},"display_name":"Giardino Margherita e Monumento a Garibaldi,from:MIBACT","category":"parks","type":"Parco","importance":0.7,"icon":"","visiting_time":0.0,"opening_hours":"ok","opening_days":"ok","rating":0,"photo_url":null,"description":null,"www":"http://vincoliinrete.beniculturali.it/VincoliInRete/vir/bene/dettagliobene176351"},{"place_id":"10368","geometry":{"type":"Point","coordinates":[9.697723728,45.050649546]},"display_name":"Palazzo Vescovile,from:MIBACT","category":"attractions","type":"Palazzo","importance":0.7,"icon":"","visiting_time":0.0,"opening_hours":"ok","opening_days":"ok","rating":0,"photo_url":null,"description":null,"www":"http://vincoliinrete.beniculturali.it/VincoliInRete/vir/bene/dettagliobene345809"},{"place_id":"10337","geometry":{"type":"Point","coordinates":[9.693422205,45.05421696]},"display_name":"Chiesa di S. Dalmazio,from:MIBACT","category":"attractions","type":"Chiesa","importance":0.7,"icon":"","visiting_time":0.0,"opening_hours":"ok","opening_days":"ok","rating":0,"photo_url":null,"description":null,"www":"http://vincoliinrete.beniculturali.it/VincoliInRete/vir/bene/dettagliobene140617"},{"place_id":"10334","geometry":{"type":"Point","coordinates":[9.693672731,45.049806938]},"display_name":"Chiesa di S. Maria in Cortina,from:MIBACT","category":"attractions","type":"Chiesa","importance":0.9,"icon":"","visiting_time":0.0,"opening_hours":"ok","opening_days":"ok","rating":0,"photo_url":null,"description":null,"www":"http://vincoliinrete.beniculturali.it/VincoliInRete/vir/bene/dettagliobene397443"},{"place_id":"10296","geometry":{"type":"Point","coordinates":[9.687746429,45.051601628]},"display_name":"Chiesa ed ex Convento di S. Giovanni in Canale,from:MIBACT","category":"attractions","type":"Chiesa","importance":0.9,"icon":"","visiting_time":0.0,"opening_hours":"ok","opening_days":"ok","rating":0,"photo_url":null,"description":null,"www":"http://vincoliinrete.beniculturali.it/VincoliInRete/vir/bene/dettagliobene140319"},{"place_id":"10282","geometry":{"type":"Point","coordinates":[9.690983014,45.054768265]},"display_name":"Palazzo Scotti da Montalbo,from:MIBACT","category":"attractions","type":"Palazzo","importance":0.7,"icon":"","visiting_time":0.0,"opening_hours":"ok","opening_days":"ok","rating":0,"photo_url":null,"description":null,"www":"http://vincoliinrete.beniculturali.it/VincoliInRete/vir/bene/dettagliobene345688"},{"place_id":"10249","geometry":{"type":"Point","coordinates":[9.694044893,45.051478757]},"display_name":"Basilica di San Francesco e Canonica,from:MIBACT","category":"attractions","type":"Chiesa","importance":0.9,"icon":"","visiting_time":0.0,"opening_hours":"ok","opening_days":"ok","rating":0,"photo_url":null,"description":null,"www":"http://vincoliinrete.beniculturali.it/VincoliInRete/vir/bene/dettagliobene146526"},{"place_id":"10236","geometry":{"type":"Point","coordinates":[9.694847613,45.049319928]},"display_name":"\"Basilica Collegiata di Sant' Antonino Martire, chiostro e pertinenze\",from:MIBACT","category":"attractions","type":"Chiesa","importance":1.0,"icon":"","visiting_time":0.0,"opening_hours":"ok","opening_days":"ok","rating":0,"photo_url":null,"description":null,"www":"\"http://vincoliinrete.beniculturali.it/VincoliInRete/vir/bene/dettagliobene639782,http://vincoliinrete.beniculturali.it/VincoliInRete/vir/bene/dettagliobene157046\""},{"place_id":"10220","geometry":{"type":"Point","coordinates":[9.698839317,45.046647695]},"display_name":"Chiesa e convento di San Bernardino,from:MIBACT","category":"attractions","type":"Chiesa","importance":0.9,"icon":"","visiting_time":0.0,"opening_hours":"ok","opening_days":"ok","rating":0,"photo_url":null,"description":null,"www":"http://vincoliinrete.beniculturali.it/VincoliInRete/vir/bene/dettagliobene140387"},{"place_id":"10209","geometry":{"type":"Point","coordinates":[9.696198012,45.047302347]},"display_name":"Palazzo Landi di Chiavenna,from:MIBACT","category":"attractions","type":"Palazzo","importance":0.7,"icon":"","visiting_time":0.0,"opening_hours":"ok","opening_days":"ok","rating":0,"photo_url":null,"description":null,"www":"http://vincoliinrete.beniculturali.it/VincoliInRete/vir/bene/dettagliobene345559"},{"place_id":"10176","geometry":{"type":"Point","coordinates":[9.690924145,45.054908928]},"display_name":"Palazzo Ricci Oddi già Paveri Fontana,from:MIBACT","category":"attractions","type":"Palazzo","importance":0.7,"icon":"","visiting_time":0.0,"opening_hours":"ok","opening_days":"ok","rating":0,"photo_url":null,"description":null,"www":"http://vincoliinrete.beniculturali.it/VincoliInRete/vir/bene/dettagliobene345585"},{"place_id":"10181","geometry":{"type":"Point","coordinates":[9.699177981,45.051244172]},"display_name":"Palazzo Costa,from:MIBACT","category":"attractions","type":"Palazzo","importance":0.9,"icon":"","visiting_time":0.0,"opening_hours":"ok","opening_days":"ok","rating":0,"photo_url":null,"description":null,"www":"http://vincoliinrete.beniculturali.it/VincoliInRete/vir/bene/dettagliobene345523"},{"place_id":"10185","geometry":{"type":"Point","coordinates":[9.697020601,45.048948448]},"display_name":"Palazzo Gragnani,from:MIBACT","category":"attractions","type":"Palazzo","importance":0.4,"icon":"","visiting_time":0.0,"opening_hours":"ok","opening_days":"ok","rating":0,"photo_url":null,"description":null,"www":"http://vincoliinrete.beniculturali.it/VincoliInRete/vir/bene/dettagliobene383776"},{"place_id":"10189","geometry":{"type":"Point","coordinates":[9.725801194,45.035568364]},"display_name":"Collegio Alberoni,from:MIBACT","category":"attractions","type":"Palazzo","importance":0.9,"icon":"","visiting_time":0.0,"opening_hours":"ok","opening_days":"ok","rating":0,"photo_url":null,"description":null,"www":"http://vincoliinrete.beniculturali.it/VincoliInRete/vir/bene/dettagliobene229313"},{"place_id":"10198","geometry":{"type":"Point","coordinates":[9.696378004,45.052946357]},"display_name":"Chiesa di S. Martino in Foro e Collegio delle Orsoline,from:MIBACT","category":"attractions","type":"Chiesa","importance":0.4,"icon":"","visiting_time":0.0,"opening_hours":"ok","opening_days":"ok","rating":0,"photo_url":null,"description":null,"www":"http://vincoliinrete.beniculturali.it/VincoliInRete/vir/bene/dettagliobene140599"},{"place_id":"10233","geometry":{"type":"Point","coordinates":[9.692729233,45.055205503]},"display_name":"Ex Chiesa del Carmine,from:MIBACT","category":"attractions","type":"Chiesa","importance":0.7,"icon":"","visiting_time":0.0,"opening_hours":"ok","opening_days":"ok","rating":0,"photo_url":null,"description":null,"www":"http://vincoliinrete.beniculturali.it/VincoliInRete/vir/bene/dettagliobene146520"},{"place_id":"10252","geometry":{"type":"Point","coordinates":[9.701998609,45.050325112]},"display_name":"Chiesa parrocchiale di S. Savino,from:MIBACT","category":"attractions","type":"Chiesa","importance":1.0,"icon":"","visiting_time":0.0,"opening_hours":"ok","opening_days":"ok","rating":0,"photo_url":null,"description":null,"www":"\"http://vincoliinrete.beniculturali.it/VincoliInRete/vir/bene/dettagliobene317490,http://vincoliinrete.beniculturali.it/VincoliInRete/vir/bene/dettagliobene157049\""},{"place_id":"10259","geometry":{"type":"Point","coordinates":[9.692629888,45.051941532]},"display_name":"Palazzo del Collegio dei Mercanti,from:MIBACT","category":"attractions","type":"Palazzo","importance":0.4,"icon":"","visiting_time":0.0,"opening_hours":"ok","opening_days":"ok","rating":0,"photo_url":null,"description":null,"www":"http://vincoliinrete.beniculturali.it/VincoliInRete/vir/bene/dettagliobene345806"},{"place_id":"10275","geometry":{"type":"Point","coordinates":[9.695754855,45.04901504]},"display_name":"Chiesa di S.Vincenzo,from:MIBACT","category":"attractions","type":"Chiesa","importance":0.7,"icon":"","visiting_time":0.0,"opening_hours":"ok","opening_days":"ok","rating":0,"photo_url":null,"description":null,"www":"http://vincoliinrete.beniculturali.it/VincoliInRete/vir/bene/dettagliobene140396"},{"place_id":"10280","geometry":{"type":"Point","coordinates":[9.68954092,45.051930355]},"display_name":"Palazzo Douglas Scotti di Vigoleno,from:MIBACT","category":"attractions","type":"Palazzo","importance":0.9,"icon":"","visiting_time":0.0,"opening_hours":"ok","opening_days":"ok","rating":0,"photo_url":null,"description":null,"www":"http://vincoliinrete.beniculturali.it/VincoliInRete/vir/bene/dettagliobene340558"},{"place_id":"10285","geometry":{"type":"Point","coordinates":[9.702470126,45.047569374]},"display_name":"\"Chiesa di S. Anna, casa canonica e pertinenze\",from:MIBACT","category":"attractions","type":"Chiesa","importance":0.7,"icon":"","visiting_time":0.0,"opening_hours":"ok","opening_days":"ok","rating":0,"photo_url":null,"description":null,"www":"http://vincoliinrete.beniculturali.it/VincoliInRete/vir/bene/dettagliobene140305"},{"place_id":"10298","geometry":{"type":"Point","coordinates":[9.688728282,45.055545099]},"display_name":"Palazzo Biella,from:MIBACT","category":"attractions","type":"Palazzo","importance":0.7,"icon":"","visiting_time":0.0,"opening_hours":"ok","opening_days":"ok","rating":0,"photo_url":null,"description":null,"www":"http://vincoliinrete.beniculturali.it/VincoliInRete/vir/bene/dettagliobene345561"},{"place_id":"10308","geometry":{"type":"Point","coordinates":[9.699767262,45.050781888]},"display_name":"Palazzo Anguissola di Grazzano,from:MIBACT","category":"attractions","type":"Palazzo","importance":0.7,"icon":"","visiting_time":0.0,"opening_hours":"ok","opening_days":"ok","rating":0,"photo_url":null,"description":null,"www":"http://vincoliinrete.beniculturali.it/VincoliInRete/vir/bene/dettagliobene345528"},{"place_id":"10344","geometry":{"type":"Point","coordinates":[9.696702899,45.053902767]},"display_name":"Palazzo già Chiappini detto Palazzo di Città,from:MIBACT","category":"attractions","type":"Palazzo","importance":0.7,"icon":"","visiting_time":0.0,"opening_hours":"ok","opening_days":"ok","rating":0,"photo_url":null,"description":null,"www":"http://vincoliinrete.beniculturali.it/VincoliInRete/vir/bene/dettagliobene345672"},{"place_id":"10373","geometry":{"type":"Point","coordinates":[9.689392788,45.054586989]},"display_name":"Palazzo Rota Pisaroni,from:MIBACT","category":"attractions","type":"Palazzo","importance":0.7,"icon":"","visiting_time":0.0,"opening_hours":"ok","opening_days":"ok","rating":0,"photo_url":null,"description":null,"www":"http://vincoliinrete.beniculturali.it/VincoliInRete/vir/bene/dettagliobene345643"},{"place_id":"10376","geometry":{"type":"Point","coordinates":[9.697487358,45.048748056]},"display_name":"Palazzo Lusardi - Sforza,from:MIBACT","category":"attractions","type":"Palazzo","importance":0.7,"icon":"","visiting_time":0.0,"opening_hours":"ok","opening_days":"ok","rating":0,"photo_url":null,"description":null,"www":null},{"place_id":"10378","geometry":{"type":"Point","coordinates":[9.688082031,45.055296126]},"display_name":"Palazzo dell'Istituto Gazzola,from:MIBACT","category":"attractions","type":"Palazzo","importance":0.7,"icon":"","visiting_time":0.0,"opening_hours":"ok","opening_days":"ok","rating":0,"photo_url":null,"description":null,"www":"http://vincoliinrete.beniculturali.it/VincoliInRete/vir/bene/dettagliobene345717"},{"place_id":"10386","geometry":{"type":"Point","coordinates":[9.699906076,45.052781473]},"display_name":"\"Cittadella giudiziaria costituita da palazzo Madama, palazzo Barborino e palazzina Ottocentesca\",from:MIBACT","category":"attractions","type":"Palazzo","importance":0.7,"icon":"","visiting_time":0.0,"opening_hours":"ok","opening_days":"ok","rating":0,"photo_url":null,"description":null,"www":"http://vincoliinrete.beniculturali.it/VincoliInRete/vir/bene/dettagliobene273828"},{"place_id":"10395","geometry":{"type":"Point","coordinates":[9.700418216,45.053419203]},"display_name":"Ex Chiesa ed ex Convento delle Benedettine,from:MIBACT","category":"attractions","type":"Chiesa","importance":0.7,"icon":"","visiting_time":0.0,"opening_hours":"ok","opening_days":"ok","rating":0,"photo_url":null,"description":null,"www":"http://vincoliinrete.beniculturali.it/VincoliInRete/vir/bene/dettagliobene138064"},{"place_id":"10403","geometry":{"type":"Point","coordinates":[9.690875324,45.051334716]},"display_name":"Palazzo Malvicini Fontana - Fogliani d'Aragona,from:MIBACT","category":"attractions","type":"Palazzo","importance":0.7,"icon":"","visiting_time":0.0,"opening_hours":"ok","opening_days":"ok","rating":0,"photo_url":null,"description":null,"www":"http://vincoliinrete.beniculturali.it/VincoliInRete/vir/bene/dettagliobene345529"},{"place_id":"10407","geometry":{"type":"Point","coordinates":[9.684052775,45.05399601]},"display_name":"Palazzo Barattieri,from:MIBACT","category":"attractions","type":"Palazzo","importance":0.7,"icon":"","visiting_time":0.0,"opening_hours":"ok","opening_days":"ok","rating":0,"photo_url":null,"description":null,"www":"http://vincoliinrete.beniculturali.it/VincoliInRete/vir/bene/dettagliobene345715"},{"place_id":"10412","geometry":{"type":"Point","coordinates":[9.696141277,45.049213999]},"display_name":"Palazzo Appiani d'Aragona Borromeo,from:MIBACT","category":"attractions","type":"Palazzo","importance":0.7,"icon":"","visiting_time":0.0,"opening_hours":"ok","opening_days":"ok","rating":0,"photo_url":null,"description":null,"www":"http://vincoliinrete.beniculturali.it/VincoliInRete/vir/bene/dettagliobene345570"},{"place_id":"10416","geometry":{"type":"Point","coordinates":[9.693842279,45.049153964]},"display_name":"Palazzo Anguissola di Cimafava Rocca,from:MIBACT","category":"attractions","type":"Palazzo","importance":0.9,"icon":"","visiting_time":0.0,"opening_hours":"ok","opening_days":"ok","rating":0,"photo_url":null,"description":null,"www":"\"http://vincoliinrete.beniculturali.it/VincoliInRete/vir/bene/dettagliobene345771,http://vincoliinrete.beniculturali.it/VincoliInRete/vir/bene/dettagliobene340516\""},{"place_id":"10426","geometry":{"type":"Point","coordinates":[9.684516881,45.054147709]},"display_name":"ex Chiesa di S. Nazario e Celso,from:MIBACT","category":"attractions","type":"Chiesa","importance":0.7,"icon":"","visiting_time":0.0,"opening_hours":"ok","opening_days":"ok","rating":0,"photo_url":null,"description":null,"www":"\"http://vincoliinrete.beniculturali.it/VincoliInRete/vir/bene/dettagliobene155582,http://vincoliinrete.beniculturali.it/VincoliInRete/vir/bene/dettagliobene138040\""},{"place_id":"10500","geometry":{"type":"Point","coordinates":[9.691187394,45.04779262]},"display_name":"Palazzo Cella ex Pallavicini con l'annesso terreno,from:MIBACT","category":"attractions","type":"Palazzo","importance":0.7,"icon":"","visiting_time":0.0,"opening_hours":"ok","opening_days":"ok","rating":0,"photo_url":null,"description":null,"www":"\"http://vincoliinrete.beniculturali.it/VincoliInRete/vir/bene/dettagliobene345701,http://vincoliinrete.beniculturali.it/VincoliInRete/vir/bene/dettagliobene345537\""},{"place_id":"10509","geometry":{"type":"Point","coordinates":[9.689357714,45.049620739]},"display_name":"Chiesa parrocchiale di S. Teresa,from:MIBACT","category":"attractions","type":"Chiesa","importance":0.7,"icon":"","visiting_time":0.0,"opening_hours":"ok","opening_days":"ok","rating":0,"photo_url":null,"description":null,"www":"http://vincoliinrete.beniculturali.it/VincoliInRete/vir/bene/dettagliobene140445"},{"place_id":"10518","geometry":{"type":"Point","coordinates":[9.693033879,45.053098358]},"display_name":"Palazzo del Governatore,from:MIBACT","category":"attractions","type":"Palazzo","importance":0.7,"icon":"","visiting_time":0.0,"opening_hours":"ok","opening_days":"ok","rating":0,"photo_url":null,"description":null,"www":"http://vincoliinrete.beniculturali.it/VincoliInRete/vir/bene/dettagliobene386447"},{"place_id":"10523","geometry":{"type":"Point","coordinates":[9.693179457,45.052563323]},"display_name":"Statue equestri dei Farnese e Piazza dei Cavalli,from:MIBACT","category":"attractions","type":"Elemento","importance":1.0,"icon":"","visiting_time":0.0,"opening_hours":"ok","opening_days":"ok","rating":0,"photo_url":null,"description":null,"www":"\"http://vincoliinrete.beniculturali.it/VincoliInRete/vir/bene/dettagliobene169141,http://vincoliinrete.beniculturali.it/VincoliInRete/vir/bene/dettagliobene169139\""},{"place_id":"10527","geometry":{"type":"Point","coordinates":[9.695471057,45.051813086]},"display_name":"\"Palazzo Ferrari, Sacchini, Calciati, Costa\",from:MIBACT","category":"attractions","type":"Palazzo","importance":0.7,"icon":"","visiting_time":0.0,"opening_hours":"ok","opening_days":"ok","rating":0,"photo_url":null,"description":null,"www":"http://vincoliinrete.beniculturali.it/VincoliInRete/vir/bene/dettagliobene345780"},{"place_id":"10534","geometry":{"type":"Point","coordinates":[9.68663782,45.056385538]},"display_name":"Chiesa di S. Bartolomeo,from:MIBACT","category":"attractions","type":"Chiesa","importance":0.7,"icon":"","visiting_time":0.0,"opening_hours":"ok","opening_days":"ok","rating":0,"photo_url":null,"description":null,"www":"http://vincoliinrete.beniculturali.it/VincoliInRete/vir/bene/dettagliobene138072"},{"place_id":"10538","geometry":{"type":"Point","coordinates":[9.69338149,45.048422595]},"display_name":"Palazzo Scotti,from:MIBACT","category":"attractions","type":"Palazzo","importance":0.9,"icon":"","visiting_time":0.0,"opening_hours":"ok","opening_days":"ok","rating":0,"photo_url":null,"description":null,"www":"http://vincoliinrete.beniculturali.it/VincoliInRete/vir/bene/dettagliobene345681"},{"place_id":"10551","geometry":{"type":"Point","coordinates":[9.697798391,45.048701426]},"display_name":"Palazzo Giandemaria,from:MIBACT","category":"attractions","type":"Palazzo","importance":0.7,"icon":"","visiting_time":0.0,"opening_hours":"ok","opening_days":"ok","rating":0,"photo_url":null,"description":null,"www":"http://vincoliinrete.beniculturali.it/VincoliInRete/vir/bene/dettagliobene340492"},{"place_id":"10558","geometry":{"type":"Point","coordinates":[9.684580269,45.053965547]},"display_name":"Palazzo Cavazzi della Somaglia,from:MIBACT","category":"attractions","type":"Palazzo","importance":0.7,"icon":"","visiting_time":0.0,"opening_hours":"ok","opening_days":"ok","rating":0,"photo_url":null,"description":null,"www":"http://vincoliinrete.beniculturali.it/VincoliInRete/vir/bene/dettagliobene340509"},{"place_id":"10564","geometry":{"type":"Point","coordinates":[9.689049016,45.04814817]},"display_name":"Ex Convento di S. Chiara e pertinenze,from:MIBACT","category":"attractions","type":"Convento","importance":0.7,"icon":"","visiting_time":0.0,"opening_hours":"ok","opening_days":"ok","rating":0,"photo_url":null,"description":null,"www":"http://vincoliinrete.beniculturali.it/VincoliInRete/vir/bene/dettagliobene224980"},{"place_id":"10592","geometry":{"type":"Point","coordinates":[9.697257253,45.053093003]},"display_name":"Oratorio di S. Cristoforo (o della Morte) e fabbricato annesso,from:MIBACT","category":"attractions","type":"Chiesa","importance":0.7,"icon":"","visiting_time":0.0,"opening_hours":"ok","opening_days":"ok","rating":0,"photo_url":null,"description":null,"www":"http://vincoliinrete.beniculturali.it/VincoliInRete/vir/bene/dettagliobene140309"},{"place_id":"10607","geometry":{"type":"Point","coordinates":[9.689830243,45.053108267]},"display_name":"Palazzo Volpe Landi - Scribani Rossi,from:MIBACT","category":"attractions","type":"Palazzo","importance":0.7,"icon":"","visiting_time":0.0,"opening_hours":"ok","opening_days":"ok","rating":0,"photo_url":null,"description":null,"www":"http://vincoliinrete.beniculturali.it/VincoliInRete/vir/bene/dettagliobene328437"},{"place_id":"10616","geometry":{"type":"Point","coordinates":[9.689224615,45.051612319]},"display_name":"Palazzo Marliani Anguissola,from:MIBACT","category":"attractions","type":"Palazzo","importance":0.7,"icon":"","visiting_time":0.0,"opening_hours":"ok","opening_days":"ok","rating":0,"photo_url":null,"description":null,"www":"http://vincoliinrete.beniculturali.it/VincoliInRete/vir/bene/dettagliobene345505"},{"place_id":"10637","geometry":{"type":"Point","coordinates":[9.693083064,45.054420934]},"display_name":"Palazzo Mandelli,from:MIBACT","category":"attractions","type":"Palazzo","importance":0.9,"icon":"","visiting_time":0.0,"opening_hours":"ok","opening_days":"ok","rating":0,"photo_url":null,"description":null,"www":"http://vincoliinrete.beniculturali.it/VincoliInRete/vir/bene/dettagliobene345600"},{"place_id":"10647","geometry":{"type":"Point","coordinates":[9.695391224,45.049379901]},"display_name":"Palazzo Giacometti,from:MIBACT","category":"attractions","type":"Palazzo","importance":0.7,"icon":"","visiting_time":0.0,"opening_hours":"ok","opening_days":"ok","rating":0,"photo_url":null,"description":null,"www":"http://vincoliinrete.beniculturali.it/VincoliInRete/vir/bene/dettagliobene340579"},{"place_id":"10652","geometry":{"type":"Point","coordinates":[9.701835076,45.048091939]},"display_name":"Ex Caserma della Neve già Convento delle Monache Benedettine di S. Maria della Neve,from:MIBACT","category":"attractions","type":"Convento","importance":0.7,"icon":"","visiting_time":0.0,"opening_hours":"ok","opening_days":"ok","rating":0,"photo_url":null,"description":null,"www":"http://vincoliinrete.beniculturali.it/VincoliInRete/vir/bene/dettagliobene321403"},{"place_id":"10655","geometry":{"type":"Point","coordinates":[9.688657255,45.054408167]},"display_name":"Palazzo Casati,from:MIBACT","category":"attractions","type":"Palazzo","importance":0.7,"icon":"","visiting_time":0.0,"opening_hours":"ok","opening_days":"ok","rating":0,"photo_url":null,"description":null,"www":"http://vincoliinrete.beniculturali.it/VincoliInRete/vir/bene/dettagliobene345808"},{"place_id":"10656","geometry":{"type":"Point","coordinates":[9.69713144,45.048758936]},"display_name":"Chiesa di S. Stefano e fabbricato annesso,from:MIBACT","category":"attractions","type":"Chiesa","importance":0.7,"icon":"","visiting_time":0.0,"opening_hours":"ok","opening_days":"ok","rating":0,"photo_url":null,"description":null,"www":"http://vincoliinrete.beniculturali.it/VincoliInRete/vir/bene/dettagliobene138024"},{"place_id":"10683","geometry":{"type":"Point","coordinates":[9.700102113,45.048131264]},"display_name":"Chiesa parrocchiale di S. Paolo Apostolo,from:MIBACT","category":"attractions","type":"Chiesa","importance":0.7,"icon":"","visiting_time":0.0,"opening_hours":"ok","opening_days":"ok","rating":0,"photo_url":null,"description":null,"www":"http://vincoliinrete.beniculturali.it/VincoliInRete/vir/bene/dettagliobene138171"},{"place_id":"10722","geometry":{"type":"Point","coordinates":[9.694195297,45.054695203]},"display_name":"Chiesa di S. Fermo,from:MIBACT","category":"attractions","type":"Chiesa","importance":0.7,"icon":"","visiting_time":0.0,"opening_hours":"ok","opening_days":"ok","rating":0,"photo_url":null,"description":null,"www":"http://vincoliinrete.beniculturali.it/VincoliInRete/vir/bene/dettagliobene146047"},{"place_id":"10733","geometry":{"type":"Point","coordinates":[9.691380745,45.055601578]},"display_name":"Chiesa di S. Eufemia e parte ex convento annesso,from:MIBACT","category":"attractions","type":"Chiesa","importance":0.9,"icon":"","visiting_time":0.0,"opening_hours":"ok","opening_days":"ok","rating":0,"photo_url":null,"description":null,"www":"http://vincoliinrete.beniculturali.it/VincoliInRete/vir/bene/dettagliobene140405"},{"place_id":"10786","geometry":{"type":"Point","coordinates":[9.691631919,45.047736849]},"display_name":"\"Palazzo Anguissola da Podenzano,  Salvatico e Palazzina Breviglieri\",from:MIBACT","category":"attractions","type":"Palazzo","importance":0.7,"icon":"","visiting_time":0.0,"opening_hours":"ok","opening_days":"ok","rating":0,"photo_url":null,"description":null,"www":null},{"place_id":"10223","geometry":{"type":"Point","coordinates":[9.695937394,45.055531117]},"display_name":"Palazzo Farnese,from:MIBACT","category":"attractions","type":"Palazzo","importance":0.9,"icon":"","visiting_time":0.0,"opening_hours":"ok","opening_days":"ok","rating":0,"photo_url":null,"description":null,"www":"http://vincoliinrete.beniculturali.it/VincoliInRete/vir/bene/dettagliobene162156"},{"place_id":"10243","geometry":{"type":"Point","coordinates":[9.692903562,45.057260852]},"display_name":"Chiesa parrocchiale di S. Sisto,from:MIBACT","category":"attractions","type":"Chiesa","importance":1.0,"icon":"","visiting_time":0.0,"opening_hours":"ok","opening_days":"ok","rating":0,"photo_url":null,"description":null,"www":"http://vincoliinrete.beniculturali.it/VincoliInRete/vir/bene/dettagliobene140475"},{"place_id":"10289","geometry":{"type":"Point","coordinates":[9.693639671,45.047431882]},"display_name":"Ex chiesa e Monastero di S. Agostino e pertinenze,from:MIBACT","category":"attractions","type":"Chiesa","importance":0.9,"icon":"","visiting_time":0.0,"opening_hours":"ok","opening_days":"ok","rating":0,"photo_url":null,"description":null,"www":"http://vincoliinrete.beniculturali.it/VincoliInRete/vir/bene/dettagliobene147717"},{"place_id":"10349","geometry":{"type":"Point","coordinates":[9.685621249,45.05406676]},"display_name":"Palazzo Scotti da Fombio ora Collegio Maschile,from:MIBACT","category":"attractions","type":"Palazzo","importance":0.7,"icon":"","visiting_time":0.0,"opening_hours":"ok","opening_days":"ok","rating":0,"photo_url":null,"description":null,"www":"http://vincoliinrete.beniculturali.it/VincoliInRete/vir/bene/dettagliobene340421"},{"place_id":"10353","geometry":{"type":"Point","coordinates":[9.692316832,45.047483992]},"display_name":"Palazzo Salvatico,from:MIBACT","category":"attractions","type":"Palazzo","importance":0.7,"icon":"","visiting_time":0.0,"opening_hours":"ok","opening_days":"ok","rating":0,"photo_url":null,"description":null,"www":null},{"place_id":"10473","geometry":{"type":"Point","coordinates":[9.696125127,45.052484373]},"display_name":"Biblioteca Comunale Passerini Landi,from:MIBACT","category":"attractions","type":"Palazzo","importance":0.9,"icon":"","visiting_time":0.0,"opening_hours":"ok","opening_days":"ok","rating":0,"photo_url":null,"description":null,"www":null},{"place_id":"10490","geometry":{"type":"Point","coordinates":[9.690464137,45.051730196]},"display_name":"Palazzo Mulazzani,from:MIBACT","category":"attractions","type":"Palazzo","importance":0.7,"icon":"","visiting_time":0.0,"opening_hours":"ok","opening_days":"ok","rating":0,"photo_url":null,"description":null,"www":"http://vincoliinrete.beniculturali.it/VincoliInRete/vir/bene/dettagliobene133160"},{"place_id":"10501","geometry":{"type":"Point","coordinates":[9.698775153,45.051471382]},"display_name":"Palazzo Landi ora dei Tribunali,from:MIBACT","category":"attractions","type":"Palazzo","importance":1.0,"icon":"","visiting_time":0.0,"opening_hours":"ok","opening_days":"ok","rating":0,"photo_url":null,"description":null,"www":"http://vincoliinrete.beniculturali.it/VincoliInRete/vir/bene/dettagliobene340432"},{"place_id":"10516","geometry":{"type":"Point","coordinates":[9.680052056,45.056456903]},"display_name":"Chiesa di S. Maria di Campagna,from:MIBACT","category":"attractions","type":"Chiesa","importance":1.0,"icon":"","visiting_time":0.0,"opening_hours":"ok","opening_days":"ok","rating":0,"photo_url":null,"description":null,"www":"http://vincoliinrete.beniculturali.it/VincoliInRete/vir/bene/dettagliobene140524"},{"place_id":"10524","geometry":{"type":"Point","coordinates":[9.694643828,45.054435682]},"display_name":"Fabbricato Malvicini,from:MIBACT","category":"attractions","type":"Palazzo","importance":0.7,"icon":"","visiting_time":0.0,"opening_hours":"ok","opening_days":"ok","rating":0,"photo_url":null,"description":null,"www":"http://vincoliinrete.beniculturali.it/VincoliInRete/vir/bene/dettagliobene328432"},{"place_id":"10640","geometry":{"type":"Point","coordinates":[9.693723261,45.056178207]},"display_name":"Ex Convento di S. Sisto e sue pertinenze,from:MIBACT","category":"attractions","type":"Convento","importance":0.4,"icon":"","visiting_time":0.0,"opening_hours":"ok","opening_days":"ok","rating":0,"photo_url":null,"description":null,"www":"http://vincoliinrete.beniculturali.it/VincoliInRete/vir/bene/dettagliobene222201"},{"place_id":"10742","geometry":{"type":"Point","coordinates":[9.695920744,45.052767153]},"display_name":"Chiesa parrocchiale di S. Pietro Apostolo,from:MIBACT","category":"attractions","type":"Chiesa","importance":0.9,"icon":"","visiting_time":0.0,"opening_hours":"ok","opening_days":"ok","rating":0,"photo_url":null,"description":null,"www":"http://vincoliinrete.beniculturali.it/VincoliInRete/vir/bene/dettagliobene140361"},{"place_id":"10770","geometry":{"type":"Point","coordinates":[9.684676384,45.055350148]},"display_name":"Chiesa di S. Sepolcro,from:MIBACT","category":"attractions","type":"Chiesa","importance":0.9,"icon":"","visiting_time":0.0,"opening_hours":"ok","opening_days":"ok","rating":0,"photo_url":null,"description":null,"www":"http://vincoliinrete.beniculturali.it/VincoliInRete/vir/bene/dettagliobene140377"},{"place_id":"10726","geometry":{"type":"Point","coordinates":[9.697878101,45.050117656]},"display_name":"Chiesa cattedrale di Santa Maria Assunta e Santa Giustina e pertinenze,from:MIBACT","category":"attractions","type":"Chiesa","importance":1.0,"icon":"","visiting_time":0.0,"opening_hours":"ok","opening_days":"ok","rating":0,"photo_url":null,"description":null,"www":"\"http://vincoliinrete.beniculturali.it/VincoliInRete/vir/bene/dettagliobene318490,http://vincoliinrete.beniculturali.it/VincoliInRete/vir/bene/dettagliobene180610,http://vincoliinrete.beniculturali.it/VincoliInRete/vir/bene/dettagliobene155578\""},{"place_id":"10504","geometry":{"type":"Point","coordinates":[9.613639425,45.003709576]},"display_name":"Castello di Gossolengo,from:MIBACT","category":"attractions","type":"Rocca","importance":0.7,"icon":"","visiting_time":0.0,"opening_hours":"ok","opening_days":"ok","rating":0,"photo_url":null,"description":null,"www":"http://vincoliinrete.beniculturali.it/VincoliInRete/vir/bene/dettagliobene206034"},{"place_id":"10340","geometry":{"type":"Point","coordinates":[9.692788573,45.052473827]},"display_name":"\"Palazzo del Comune detto \"\"Il Gotico\"\"\",from:MIBACT","category":"attractions","type":"Palazzo","importance":1.0,"icon":"","visiting_time":0.0,"opening_hours":"ok","opening_days":"ok","rating":0,"photo_url":null,"description":null,"www":"http://vincoliinrete.beniculturali.it/VincoliInRete/vir/bene/dettagliobene345788"},{"place_id":"14293","geometry":{"type":"Point","coordinates":[9.694284503,45.04944804]},"display_name":"Piazza Sant' Antonino,from:MIBACT","category":"attractions","type":"Piazza","importance":0.4,"icon":"","visiting_time":0.0,"opening_hours":"ok","opening_days":"ok","rating":0,"photo_url":null,"description":null,"www":null},{"place_id":"10154","geometry":{"type":"Point","coordinates":[9.647848937,45.05438041]},"display_name":"Chiesa parrocchiale di S. Antonio a Trebbia,from:MIBACT","category":"attractions","type":"Chiesa","importance":0.7,"icon":"","visiting_time":0.0,"opening_hours":"ok","opening_days":"ok","rating":0,"photo_url":null,"description":null,"www":"http://vincoliinrete.beniculturali.it/VincoliInRete/vir/bene/dettagliobene216740"},{"place_id":"13961","geometry":{"type":"Point","coordinates":[9.689120649,45.054944035]},"display_name":"Cripta della chiesa di S. Margherita,from:MIBACT","category":"attractions","type":"Chiesa","importance":0.7,"icon":"","visiting_time":0.0,"opening_hours":"ok","opening_days":"ok","rating":0,"photo_url":null,"description":null,"www":"http://vincoliinrete.beniculturali.it/VincoliInRete/vir/bene/dettagliobene180611"}]