[{"place_id":"6383","geometry":{"type":"Point","coordinates":[11.372256274,44.342757445]},"display_name":"Castello di Zena e pertinenze,from:MIBACT","category":"attractions","type":"Rocca","importance":0.7,"icon":"","visiting_time":0.0,"opening_hours":"ok","opening_days":"ok","rating":0,"photo_url":null,"description":null,"www":"\"http://vincoliinrete.beniculturali.it/VincoliInRete/vir/bene/dettagliobene207288,http://vincoliinrete.beniculturali.it/VincoliInRete/vir/bene/dettagliobene601443\""},{"place_id":"6386","geometry":{"type":"Point","coordinates":[11.344341688,44.38440874]},"display_name":"Chiesa e canonica di S. Maria Assunta di Pianoro,from:MIBACT","category":"attractions","type":"Chiesa","importance":0.7,"icon":"","visiting_time":0.0,"opening_hours":"ok","opening_days":"ok","rating":0,"photo_url":null,"description":null,"www":null},{"place_id":"6389","geometry":{"type":"Point","coordinates":[11.38384018,44.428134935]},"display_name":"Chiesa di S. Giovanni Battista e pertinenze,from:MIBACT","category":"attractions","type":"Chiesa","importance":0.7,"icon":"","visiting_time":0.0,"opening_hours":"ok","opening_days":"ok","rating":0,"photo_url":null,"description":null,"www":"\"http://vincoliinrete.beniculturali.it/VincoliInRete/vir/bene/dettagliobene601469,http://vincoliinrete.beniculturali.it/VincoliInRete/vir/bene/dettagliobene146772\""},{"place_id":"6417","geometry":{"type":"Point","coordinates":[11.38743516,44.445220009]},"display_name":"Chiesa e Abbazia di Santa Cecilia e pertinenze,from:MIBACT","category":"attractions","type":"Chiesa","importance":0.7,"icon":"","visiting_time":0.0,"opening_hours":"ok","opening_days":"ok","rating":0,"photo_url":null,"description":null,"www":"\"http://vincoliinrete.beniculturali.it/VincoliInRete/vir/bene/dettagliobene225043,http://vincoliinrete.beniculturali.it/VincoliInRete/vir/bene/dettagliobene141132\""},{"place_id":"6452","geometry":{"type":"Point","coordinates":[11.307765849,44.404938348]},"display_name":"Chiesa Parrocchiale di S. Ansano,from:MIBACT","category":"attractions","type":"Chiesa","importance":0.7,"icon":"","visiting_time":0.0,"opening_hours":"ok","opening_days":"ok","rating":0,"photo_url":null,"description":null,"www":"\"http://vincoliinrete.beniculturali.it/VincoliInRete/vir/bene/dettagliobene601003,http://vincoliinrete.beniculturali.it/VincoliInRete/vir/bene/dettagliobene141237\""},{"place_id":"6448","geometry":{"type":"Point","coordinates":[11.280792868,44.392460126]},"display_name":"Villa Cadestellano,from:MIBACT","category":"attractions","type":"Villa","importance":0.7,"icon":"","visiting_time":0.0,"opening_hours":"ok","opening_days":"ok","rating":0,"photo_url":null,"description":null,"www":"http://vincoliinrete.beniculturali.it/VincoliInRete/vir/bene/dettagliobene265633"},{"place_id":"18620","geometry":{"type":"Point","coordinates":[11.340073323,44.370237347]},"display_name":"Chiesa di San Giacomo Maggiore,from:MIBACT","category":"attractions","type":"Chiesa","importance":0.7,"icon":"","visiting_time":0.0,"opening_hours":"ok","opening_days":"ok","rating":0,"photo_url":null,"description":null,"www":null},{"place_id":"6364","geometry":{"type":"Point","coordinates":[11.422088659,44.366466523]},"display_name":"Chiesa di S.Maria ex abbazia,from:MIBACT","category":"attractions","type":"Chiesa","importance":0.7,"icon":"","visiting_time":0.0,"opening_hours":"ok","opening_days":"ok","rating":0,"photo_url":null,"description":null,"www":"http://vincoliinrete.beniculturali.it/VincoliInRete/vir/bene/dettagliobene214101"}]