[{"place_id":"53039414","geometry":{"type":"Point","coordinates":[11.8448182,44.360247]},"display_name":"Du Butò, Via Beltrani, Solarolo, RA, EMR, 48031, Italia","category":"eating","type":"restaurant","importance":0.001,"icon":"http://nominatim.openstreetmap.org/images/mapicons/food_restaurant.p.20.png","visiting_time":60.0,"opening_hours":null,"opening_days":null,"rating":0,"photo_url":null,"description":null,"www":null},{"place_id":"53208337","geometry":{"type":"Point","coordinates":[11.8496095,44.3586554]},"display_name":"Ustereja de Sol, Via Giuseppe Di Vittorio, Solarolo, RA, EMR, 48031, Italia","category":"eating","type":"restaurant","importance":0.001,"icon":"http://nominatim.openstreetmap.org/images/mapicons/food_restaurant.p.20.png","visiting_time":60.0,"opening_hours":null,"opening_days":null,"rating":0,"photo_url":null,"description":null,"www":null},{"place_id":"53256131","geometry":{"type":"Point","coordinates":[11.8452922,44.3606784]},"display_name":"Pizza da asporto e Kebab, Via Schiavonia, Solarolo, RA, EMR, 48031, Italia","category":"eating","type":"restaurant","importance":0.001,"icon":"http://nominatim.openstreetmap.org/images/mapicons/food_restaurant.p.20.png","visiting_time":60.0,"opening_hours":null,"opening_days":null,"rating":0,"photo_url":null,"description":null,"www":null},{"place_id":"53039414","geometry":{"type":"Point","coordinates":[11.8448182,44.360247]},"display_name":"Du Butò, Via Beltrani, Solarolo, RA, EMR, 48031, Italia","category":"eating","type":"restaurant","importance":0.001,"icon":"http://nominatim.openstreetmap.org/images/mapicons/food_restaurant.p.20.png","visiting_time":60.0,"opening_hours":null,"opening_days":null,"rating":0,"photo_url":null,"description":null,"www":null},{"place_id":"53208337","geometry":{"type":"Point","coordinates":[11.8496095,44.3586554]},"display_name":"Ustereja de Sol, Via Giuseppe Di Vittorio, Solarolo, RA, EMR, 48031, Italia","category":"eating","type":"restaurant","importance":0.001,"icon":"http://nominatim.openstreetmap.org/images/mapicons/food_restaurant.p.20.png","visiting_time":60.0,"opening_hours":null,"opening_days":null,"rating":0,"photo_url":null,"description":null,"www":null},{"place_id":"53256131","geometry":{"type":"Point","coordinates":[11.8452922,44.3606784]},"display_name":"Pizza da asporto e Kebab, Via Schiavonia, Solarolo, RA, EMR, 48031, Italia","category":"eating","type":"restaurant","importance":0.001,"icon":"http://nominatim.openstreetmap.org/images/mapicons/food_restaurant.p.20.png","visiting_time":60.0,"opening_hours":null,"opening_days":null,"rating":0,"photo_url":null,"description":null,"www":null},{"place_id":"53883116","geometry":{"type":"Point","coordinates":[11.8432568,44.3598028]},"display_name":"Bar Mulino, Strada Provinciale Canale di Solarolo, Solarolo, RA, EMR, 48031, Italia","category":"lifestyle","type":"bar","importance":0.101,"icon":"http://nominatim.openstreetmap.org/images/mapicons/food_bar.p.20.png","visiting_time":10.0,"opening_hours":null,"opening_days":null,"rating":0,"photo_url":null,"description":null,"www":null},{"place_id":"54029407","geometry":{"type":"Point","coordinates":[11.8455286,44.3592878]},"display_name":"Bar Casa del Popolo, Via Fossa di Sotto, Solarolo, RA, EMR, 48031, Italia","category":"lifestyle","type":"bar","importance":0.101,"icon":"http://nominatim.openstreetmap.org/images/mapicons/food_bar.p.20.png","visiting_time":10.0,"opening_hours":null,"opening_days":null,"rating":0,"photo_url":null,"description":null,"www":null},{"place_id":"51844442","geometry":{"type":"Point","coordinates":[11.8456457,44.3599148]},"display_name":"Bar Sport, Via Sangiorgi, Solarolo, RA, EMR, 48031, Italia","category":"lifestyle","type":"bar","importance":0.101,"icon":"http://nominatim.openstreetmap.org/images/mapicons/food_bar.p.20.png","visiting_time":10.0,"opening_hours":null,"opening_days":null,"rating":0,"photo_url":null,"description":null,"www":null},{"place_id":"52864418","geometry":{"type":"Point","coordinates":[11.8439906,44.3599283]},"display_name":"Bar Centrale, Piazza Gonzaga, Solarolo, RA, EMR, 48031, Italia","category":"lifestyle","type":"bar","importance":0.101,"icon":"http://nominatim.openstreetmap.org/images/mapicons/food_bar.p.20.png","visiting_time":10.0,"opening_hours":null,"opening_days":null,"rating":0,"photo_url":null,"description":null,"www":null},{"place_id":"53335491","geometry":{"type":"Point","coordinates":[11.8428142,44.36036]},"display_name":"circolo ANSPI, Via Borgo Benoli, Solarolo, RA, EMR, 48031, Italia","category":"lifestyle","type":"bar","importance":0.001,"icon":"http://nominatim.openstreetmap.org/images/mapicons/food_bar.p.20.png","visiting_time":10.0,"opening_hours":null,"opening_days":null,"rating":0,"photo_url":null,"description":null,"www":null},{"place_id":"53883116","geometry":{"type":"Point","coordinates":[11.8432568,44.3598028]},"display_name":"Bar Mulino, Strada Provinciale Canale di Solarolo, Solarolo, RA, EMR, 48031, Italia","category":"lifestyle","type":"bar","importance":0.001,"icon":"http://nominatim.openstreetmap.org/images/mapicons/food_bar.p.20.png","visiting_time":90.0,"opening_hours":null,"opening_days":null,"rating":0,"photo_url":null,"description":null,"www":null},{"place_id":"54029407","geometry":{"type":"Point","coordinates":[11.8455286,44.3592878]},"display_name":"Bar Casa del Popolo, Via Fossa di Sotto, Solarolo, RA, EMR, 48031, Italia","category":"lifestyle","type":"bar","importance":0.001,"icon":"http://nominatim.openstreetmap.org/images/mapicons/food_bar.p.20.png","visiting_time":90.0,"opening_hours":null,"opening_days":null,"rating":0,"photo_url":null,"description":null,"www":null},{"place_id":"51844442","geometry":{"type":"Point","coordinates":[11.8456457,44.3599148]},"display_name":"Bar Sport, Via Sangiorgi, Solarolo, RA, EMR, 48031, Italia","category":"lifestyle","type":"bar","importance":0.001,"icon":"http://nominatim.openstreetmap.org/images/mapicons/food_bar.p.20.png","visiting_time":90.0,"opening_hours":null,"opening_days":null,"rating":0,"photo_url":null,"description":null,"www":null},{"place_id":"52864418","geometry":{"type":"Point","coordinates":[11.8439906,44.3599283]},"display_name":"Bar Centrale, Piazza Gonzaga, Solarolo, RA, EMR, 48031, Italia","category":"lifestyle","type":"bar","importance":0.001,"icon":"http://nominatim.openstreetmap.org/images/mapicons/food_bar.p.20.png","visiting_time":90.0,"opening_hours":null,"opening_days":null,"rating":0,"photo_url":null,"description":null,"www":null},{"place_id":"53335491","geometry":{"type":"Point","coordinates":[11.8428142,44.36036]},"display_name":"circolo ANSPI, Via Borgo Benoli, Solarolo, RA, EMR, 48031, Italia","category":"lifestyle","type":"bar","importance":0.001,"icon":"http://nominatim.openstreetmap.org/images/mapicons/food_bar.p.20.png","visiting_time":90.0,"opening_hours":null,"opening_days":null,"rating":0,"photo_url":null,"description":null,"www":null},{"place_id":"180169053","geometry":{"type":"Point","coordinates":[-8.3350726,43.2233149]},"display_name":"Abegondo, Galicia, CAFE, España","category":"lifestyle","type":"postcode","importance":0.2125,"icon":null,"visiting_time":10.0,"opening_hours":null,"opening_days":null,"rating":0,"photo_url":null,"description":null,"www":null},{"place_id":"53268418","geometry":{"type":"Point","coordinates":[11.8673155,44.3508735]},"display_name":"Eccidio di Felisio, Strada Provinciale Felisio, Solarolo, RA, EMR, Italia","category":"attractions","type":"memorial","importance":0.001,"icon":"http://nominatim.openstreetmap.org/images/mapicons/tourist_monument.p.20.png","visiting_time":10.0,"opening_hours":null,"opening_days":null,"rating":0,"photo_url":null,"description":null,"www":null},{"place_id":"52852227","geometry":{"type":"Point","coordinates":[11.8674439,44.3513454]},"display_name":"Chiesa di Felisio, Via Corriera, Cotignola, RA, EMR, Italia","category":"attractions","type":"monument","importance":0.001,"icon":"http://nominatim.openstreetmap.org/images/mapicons/tourist_monument.p.20.png","visiting_time":10.0,"opening_hours":null,"opening_days":null,"rating":0,"photo_url":null,"description":null,"www":null},{"place_id":"51843712","geometry":{"type":"Point","coordinates":[11.8405266,44.3426696]},"display_name":"Chiesa di Gaiano, Via Gaiano Casanola, Solarolo, RA, EMR, 48031, Italia","category":"attractions","type":"monument","importance":0.001,"icon":"http://nominatim.openstreetmap.org/images/mapicons/tourist_monument.p.20.png","visiting_time":10.0,"opening_hours":null,"opening_days":null,"rating":0,"photo_url":null,"description":null,"www":null},{"place_id":"53248256","geometry":{"type":"Point","coordinates":[11.8577106,44.3693175]},"display_name":"Santuario Madonna della Salute, Via Padrina, Solarolo, RA, EMR, 48031, Italia","category":"attractions","type":"monument","importance":0.001,"icon":"http://nominatim.openstreetmap.org/images/mapicons/tourist_monument.p.20.png","visiting_time":10.0,"opening_hours":null,"opening_days":null,"rating":0,"photo_url":null,"description":null,"www":null},{"place_id":"53254397","geometry":{"type":"Point","coordinates":[11.8341531,44.3370448]},"display_name":"Chiesa di Casanola, Via Gaiano Casanola, Solarolo, RA, EMR, 48031, Italia","category":"attractions","type":"monument","importance":0.001,"icon":"http://nominatim.openstreetmap.org/images/mapicons/tourist_monument.p.20.png","visiting_time":10.0,"opening_hours":null,"opening_days":null,"rating":0,"photo_url":null,"description":null,"www":null},{"place_id":"53505376","geometry":{"type":"Point","coordinates":[11.8444692,44.359809]},"display_name":"Chiesa Arcipretale S.Maria assunta, Piazza Gonzaga, Solarolo, RA, EMR, 48031, Italia","category":"attractions","type":"monument","importance":0.001,"icon":"http://nominatim.openstreetmap.org/images/mapicons/tourist_monument.p.20.png","visiting_time":10.0,"opening_hours":null,"opening_days":null,"rating":0,"photo_url":null,"description":null,"www":null},{"place_id":"53498011","geometry":{"type":"Point","coordinates":[11.8361233,44.3631115]},"display_name":"Chiesa di San Mauro, Strada Provinciale San Mauro Pilastrino, Solarolo, RA, EMR, 48031, Italia","category":"attractions","type":"monument","importance":0.001,"icon":"http://nominatim.openstreetmap.org/images/mapicons/tourist_monument.p.20.png","visiting_time":10.0,"opening_hours":null,"opening_days":null,"rating":0,"photo_url":null,"description":null,"www":null},{"place_id":"53268418","geometry":{"type":"Point","coordinates":[11.8673155,44.3508735]},"display_name":"Eccidio di Felisio, Strada Provinciale Felisio, Solarolo, RA, EMR, Italia","category":"attractions","type":"memorial","importance":0.001,"icon":"http://nominatim.openstreetmap.org/images/mapicons/tourist_monument.p.20.png","visiting_time":10.0,"opening_hours":null,"opening_days":null,"rating":0,"photo_url":null,"description":null,"www":null},{"place_id":"61319400","geometry":{"type":"Point","coordinates":[11.8113473,44.3843196]},"display_name":"Madonna del Voto, Via Erbosa, Bagnara di Romagna, RA, EMR, 48031, Italia","category":"attractions","type":"monument","importance":0.001,"icon":"http://nominatim.openstreetmap.org/images/mapicons/tourist_monument.p.20.png","visiting_time":10.0,"opening_hours":null,"opening_days":null,"rating":0,"photo_url":null,"description":null,"www":null},{"place_id":"61319392","geometry":{"type":"Point","coordinates":[11.8113473,44.3843196]},"display_name":"Madonna del Voto, Via Erbosa, Bagnara di Romagna, RA, EMR, 48031, Italia","category":"attractions","type":"place_of_worship","importance":0.001,"icon":"http://nominatim.openstreetmap.org/images/mapicons/place_of_worship_unknown3.p.20.png","visiting_time":30.0,"opening_hours":null,"opening_days":null,"rating":0,"photo_url":null,"description":null,"www":null},{"place_id":"61319392","geometry":{"type":"Point","coordinates":[11.8113473,44.3843196]},"display_name":"Madonna del Voto, Via Erbosa, Bagnara di Romagna, RA, EMR, 48031, Italia","category":"attractions","type":"place_of_worship","importance":0.001,"icon":"http://nominatim.openstreetmap.org/images/mapicons/place_of_worship_unknown3.p.20.png","visiting_time":30.0,"opening_hours":null,"opening_days":null,"rating":0,"photo_url":null,"description":null,"www":null}]