[{"place_id":"44703275","geometry":{"type":"Point","coordinates":[12.0702535,43.9055582]},"display_name":"Cippo di montalto, Cippo, Sarsina, FC, EMR, Italia","category":"attractions","type":"attraction","importance":0.001,"icon":"http://nominatim.openstreetmap.org/images/mapicons/poi_point_of_interest.p.20.png","visiting_time":30.0,"opening_hours":null,"opening_days":null,"rating":0,"photo_url":null,"description":null,"www":null},{"place_id":"25787020","geometry":{"type":"Point","coordinates":[12.1088119,43.9919092]},"display_name":"Valle dell'eco, Sentiero del fosso, Maiavolo, Mercato Saraceno, FC, EMR, Italia","category":"attractions","type":"viewpoint","importance":0.001,"icon":"http://nominatim.openstreetmap.org/images/mapicons/tourist_view_point.p.20.png","visiting_time":10.0,"opening_hours":null,"opening_days":null,"rating":0,"photo_url":null,"description":null,"www":null},{"place_id":"25818524","geometry":{"type":"Point","coordinates":[12.1111072,43.9907357]},"display_name":"Selva dei castagni, Senza segnavia, Maiavolo, Mercato Saraceno, FC, EMR, Italia","category":"attractions","type":"viewpoint","importance":0.001,"icon":"http://nominatim.openstreetmap.org/images/mapicons/tourist_view_point.p.20.png","visiting_time":10.0,"opening_hours":null,"opening_days":null,"rating":0,"photo_url":null,"description":null,"www":null},{"place_id":"115900702","geometry":{"type":"Point","coordinates":[12.086999053,43.89170645]},"display_name":"Ristorante al Lago, Via 21 Marzo, Massa, Sarsina, FC, EMR, 47027, Italia","category":"eating","type":"restaurant","importance":0.001,"icon":"http://nominatim.openstreetmap.org/images/mapicons/food_restaurant.p.20.png","visiting_time":60.0,"opening_hours":null,"opening_days":null,"rating":0,"photo_url":null,"description":null,"www":null},{"place_id":"23025496","geometry":{"type":"Point","coordinates":[12.0529628,43.8628779]},"display_name":"Agriturismo Incisa, CAI 149, Verghereto, FC, EMR, Italia","category":"eating","type":"restaurant","importance":0.001,"icon":"http://nominatim.openstreetmap.org/images/mapicons/food_restaurant.p.20.png","visiting_time":60.0,"opening_hours":null,"opening_days":null,"rating":0,"photo_url":null,"description":null,"www":null},{"place_id":"23851341","geometry":{"type":"Point","coordinates":[12.1072764,43.9945643]},"display_name":"Pasa l'òsc, Strada Valleripa Castagneto, Maiavolo, Mercato Saraceno, FC, EMR, Italia","category":"eating","type":"restaurant","importance":0.001,"icon":"http://nominatim.openstreetmap.org/images/mapicons/food_restaurant.p.20.png","visiting_time":60.0,"opening_hours":null,"opening_days":null,"rating":0,"photo_url":null,"description":null,"www":null},{"place_id":"126736532","geometry":{"type":"Point","coordinates":[12.09580963,43.9837707]},"display_name":"Agriturismo Il Mulino D'Ortano, Via Linaro, Maiavolo, Mercato Saraceno, FC, EMR, Italia","category":"eating","type":"restaurant","importance":0.001,"icon":"http://nominatim.openstreetmap.org/images/mapicons/food_restaurant.p.20.png","visiting_time":60.0,"opening_hours":null,"opening_days":null,"rating":0,"photo_url":null,"description":null,"www":null},{"place_id":"115900702","geometry":{"type":"Point","coordinates":[12.086999053,43.89170645]},"display_name":"Ristorante al Lago, Via 21 Marzo, Massa, Sarsina, FC, EMR, 47027, Italia","category":"eating","type":"restaurant","importance":0.001,"icon":"http://nominatim.openstreetmap.org/images/mapicons/food_restaurant.p.20.png","visiting_time":60.0,"opening_hours":null,"opening_days":null,"rating":0,"photo_url":null,"description":null,"www":null},{"place_id":"23025496","geometry":{"type":"Point","coordinates":[12.0529628,43.8628779]},"display_name":"Agriturismo Incisa, CAI 149, Verghereto, FC, EMR, Italia","category":"eating","type":"restaurant","importance":0.001,"icon":"http://nominatim.openstreetmap.org/images/mapicons/food_restaurant.p.20.png","visiting_time":60.0,"opening_hours":null,"opening_days":null,"rating":0,"photo_url":null,"description":null,"www":null},{"place_id":"23851341","geometry":{"type":"Point","coordinates":[12.1072764,43.9945643]},"display_name":"Pasa l'òsc, Strada Valleripa Castagneto, Maiavolo, Mercato Saraceno, FC, EMR, Italia","category":"eating","type":"restaurant","importance":0.001,"icon":"http://nominatim.openstreetmap.org/images/mapicons/food_restaurant.p.20.png","visiting_time":60.0,"opening_hours":null,"opening_days":null,"rating":0,"photo_url":null,"description":null,"www":null},{"place_id":"126736532","geometry":{"type":"Point","coordinates":[12.09580963,43.9837707]},"display_name":"Agriturismo Il Mulino D'Ortano, Via Linaro, Maiavolo, Mercato Saraceno, FC, EMR, Italia","category":"eating","type":"restaurant","importance":0.001,"icon":"http://nominatim.openstreetmap.org/images/mapicons/food_restaurant.p.20.png","visiting_time":60.0,"opening_hours":null,"opening_days":null,"rating":0,"photo_url":null,"description":null,"www":null},{"place_id":"24967627","geometry":{"type":"Point","coordinates":[12.1072874,43.9938102]},"display_name":"Torre, Via Borgo di Linaro, Maiavolo, Mercato Saraceno, FC, EMR, Italia","category":"attractions","type":"castle","importance":0.001,"icon":"http://nominatim.openstreetmap.org/images/mapicons/tourist_castle.p.20.png","visiting_time":120.0,"opening_hours":null,"opening_days":null,"rating":0,"photo_url":null,"description":null,"www":null},{"place_id":"113655010","geometry":{"type":"Point","coordinates":[12.096470632,43.9368149]},"display_name":"Chiesa di Sant'Andrea di Careste, Cammino di S. Vicinio, Careste, Bagno di Romagna, FC, EMR, 47027, Italia","category":"attractions","type":"ruins","importance":0.001,"icon":"http://nominatim.openstreetmap.org/images/mapicons/tourist_ruin.p.20.png","visiting_time":30.0,"opening_hours":null,"opening_days":null,"rating":0,"photo_url":null,"description":null,"www":null},{"place_id":"24967756","geometry":{"type":"Point","coordinates":[12.1065877,43.9940124]},"display_name":"Bar Foschi, Via Borgo di Linaro, Maiavolo, Mercato Saraceno, FC, EMR, Italia","category":"lifestyle","type":"bar","importance":0.101,"icon":"http://nominatim.openstreetmap.org/images/mapicons/food_bar.p.20.png","visiting_time":10.0,"opening_hours":null,"opening_days":null,"rating":0,"photo_url":null,"description":null,"www":null},{"place_id":"24967756","geometry":{"type":"Point","coordinates":[12.1065877,43.9940124]},"display_name":"Bar Foschi, Via Borgo di Linaro, Maiavolo, Mercato Saraceno, FC, EMR, Italia","category":"lifestyle","type":"bar","importance":0.001,"icon":"http://nominatim.openstreetmap.org/images/mapicons/food_bar.p.20.png","visiting_time":90.0,"opening_hours":null,"opening_days":null,"rating":0,"photo_url":null,"description":null,"www":null},{"place_id":"180169053","geometry":{"type":"Point","coordinates":[-8.3350726,43.2233149]},"display_name":"Abegondo, Galicia, CAFE, España","category":"lifestyle","type":"postcode","importance":0.2125,"icon":null,"visiting_time":10.0,"opening_hours":null,"opening_days":null,"rating":0,"photo_url":null,"description":null,"www":null},{"place_id":"112693780","geometry":{"type":"Point","coordinates":[12.069868391,44.00236]},"display_name":"SP134, Eremo, Civitella di Romagna, FC, EMR, 47012, Italia","category":"attractions","type":"monument","importance":0.001,"icon":"http://nominatim.openstreetmap.org/images/mapicons/tourist_monument.p.20.png","visiting_time":10.0,"opening_hours":null,"opening_days":null,"rating":0,"photo_url":null,"description":null,"www":null},{"place_id":"45844686","geometry":{"type":"Point","coordinates":[12.1438161,43.9196534]},"display_name":"Museo archeologico nazionale, Via Cesio Sabino, Sarsina, FC, EMR, 47027, Italia","category":"attractions","type":"museum","importance":0.13061965,"icon":"http://nominatim.openstreetmap.org/images/mapicons/tourist_museum.p.20.png","visiting_time":120.0,"opening_hours":null,"opening_days":null,"rating":0,"photo_url":null,"description":null,"www":null},{"place_id":"39040127","geometry":{"type":"Point","coordinates":[12.0561687,43.8495673]},"display_name":"Parco 11 Settembre, Verghereto, FC, EMR, 47028, Italia","category":"parks","type":"park","importance":0.15,"icon":null,"visiting_time":90.0,"opening_hours":null,"opening_days":null,"rating":0,"photo_url":null,"description":null,"www":null},{"place_id":"148533271","geometry":{"type":"Point","coordinates":[12.143636851,43.9188465]},"display_name":"Basilica di San Vicinio, Via IV Novembre, Sarsina, FC, EMR, 47027, Italia","category":"attractions","type":"place_of_worship","importance":0.15456153,"icon":"http://nominatim.openstreetmap.org/images/mapicons/place_of_worship_unknown3.p.20.png","visiting_time":30.0,"opening_hours":null,"opening_days":null,"rating":0,"photo_url":null,"description":null,"www":null},{"place_id":"124151783","geometry":{"type":"Point","coordinates":[12.171477368,43.9238907]},"display_name":"Via della Pieve, Sant'Agata Feltria, RN, EMR, 47027, Italia","category":"attractions","type":"place_of_worship","importance":0.001,"icon":"http://nominatim.openstreetmap.org/images/mapicons/place_of_worship_unknown3.p.20.png","visiting_time":30.0,"opening_hours":null,"opening_days":null,"rating":0,"photo_url":null,"description":null,"www":null},{"place_id":"122772249","geometry":{"type":"Point","coordinates":[12.161253807,43.8570681]},"display_name":"Cammino di San Vicinio, Sant'Agata Feltria, RN, EMR, Italia","category":"attractions","type":"place_of_worship","importance":0.001,"icon":"http://nominatim.openstreetmap.org/images/mapicons/place_of_worship_unknown3.p.20.png","visiting_time":30.0,"opening_hours":null,"opening_days":null,"rating":0,"photo_url":null,"description":null,"www":null},{"place_id":"113651405","geometry":{"type":"Point","coordinates":[12.097437943,43.9917185]},"display_name":"Monastero, Strada Valleripa Castagneto, Maiavolo, Mercato Saraceno, FC, EMR, Italia","category":"attractions","type":"place_of_worship","importance":0.001,"icon":"http://nominatim.openstreetmap.org/images/mapicons/place_of_worship_unknown3.p.20.png","visiting_time":30.0,"opening_hours":null,"opening_days":null,"rating":0,"photo_url":null,"description":null,"www":null},{"place_id":"113641221","geometry":{"type":"Point","coordinates":[12.139745941,43.98046915]},"display_name":"Parrocchia Santa Maria in Ciola, Via Ciola Castello, Maiavolo, Mercato Saraceno, FC, EMR, 47025, Italia","category":"attractions","type":"place_of_worship","importance":0.001,"icon":"http://nominatim.openstreetmap.org/images/mapicons/place_of_worship_unknown3.p.20.png","visiting_time":30.0,"opening_hours":null,"opening_days":null,"rating":0,"photo_url":null,"description":null,"www":null},{"place_id":"112694036","geometry":{"type":"Point","coordinates":[12.106327877,43.99408125]},"display_name":"Parrocchia San Giacomo Apostolo, Via Borgo di Linaro, Maiavolo, Mercato Saraceno, FC, EMR, Italia","category":"attractions","type":"place_of_worship","importance":0.001,"icon":"http://nominatim.openstreetmap.org/images/mapicons/place_of_worship_unknown3.p.20.png","visiting_time":30.0,"opening_hours":null,"opening_days":null,"rating":0,"photo_url":null,"description":null,"www":null},{"place_id":"112721817","geometry":{"type":"Point","coordinates":[12.094631417,43.98956695]},"display_name":"Convento, Strada Valleripa Castagneto, Maiavolo, Mercato Saraceno, FC, EMR, Italia","category":"attractions","type":"place_of_worship","importance":0.001,"icon":"http://nominatim.openstreetmap.org/images/mapicons/place_of_worship_unknown3.p.20.png","visiting_time":30.0,"opening_hours":null,"opening_days":null,"rating":0,"photo_url":null,"description":null,"www":null},{"place_id":"148533271","geometry":{"type":"Point","coordinates":[12.143636851,43.9188465]},"display_name":"Basilica di San Vicinio, Via IV Novembre, Sarsina, FC, EMR, 47027, Italia","category":"attractions","type":"place_of_worship","importance":0.15456153,"icon":"http://nominatim.openstreetmap.org/images/mapicons/place_of_worship_unknown3.p.20.png","visiting_time":30.0,"opening_hours":null,"opening_days":null,"rating":0,"photo_url":null,"description":null,"www":null},{"place_id":"124151783","geometry":{"type":"Point","coordinates":[12.171477368,43.9238907]},"display_name":"Via della Pieve, Sant'Agata Feltria, RN, EMR, 47027, Italia","category":"attractions","type":"place_of_worship","importance":0.001,"icon":"http://nominatim.openstreetmap.org/images/mapicons/place_of_worship_unknown3.p.20.png","visiting_time":30.0,"opening_hours":null,"opening_days":null,"rating":0,"photo_url":null,"description":null,"www":null},{"place_id":"122772249","geometry":{"type":"Point","coordinates":[12.161253807,43.8570681]},"display_name":"Cammino di San Vicinio, Sant'Agata Feltria, RN, EMR, Italia","category":"attractions","type":"place_of_worship","importance":0.001,"icon":"http://nominatim.openstreetmap.org/images/mapicons/place_of_worship_unknown3.p.20.png","visiting_time":30.0,"opening_hours":null,"opening_days":null,"rating":0,"photo_url":null,"description":null,"www":null},{"place_id":"113651405","geometry":{"type":"Point","coordinates":[12.097437943,43.9917185]},"display_name":"Monastero, Strada Valleripa Castagneto, Maiavolo, Mercato Saraceno, FC, EMR, Italia","category":"attractions","type":"place_of_worship","importance":0.001,"icon":"http://nominatim.openstreetmap.org/images/mapicons/place_of_worship_unknown3.p.20.png","visiting_time":30.0,"opening_hours":null,"opening_days":null,"rating":0,"photo_url":null,"description":null,"www":null},{"place_id":"113641221","geometry":{"type":"Point","coordinates":[12.139745941,43.98046915]},"display_name":"Parrocchia Santa Maria in Ciola, Via Ciola Castello, Maiavolo, Mercato Saraceno, FC, EMR, 47025, Italia","category":"attractions","type":"place_of_worship","importance":0.001,"icon":"http://nominatim.openstreetmap.org/images/mapicons/place_of_worship_unknown3.p.20.png","visiting_time":30.0,"opening_hours":null,"opening_days":null,"rating":0,"photo_url":null,"description":null,"www":null},{"place_id":"112694036","geometry":{"type":"Point","coordinates":[12.106327877,43.99408125]},"display_name":"Parrocchia San Giacomo Apostolo, Via Borgo di Linaro, Maiavolo, Mercato Saraceno, FC, EMR, Italia","category":"attractions","type":"place_of_worship","importance":0.001,"icon":"http://nominatim.openstreetmap.org/images/mapicons/place_of_worship_unknown3.p.20.png","visiting_time":30.0,"opening_hours":null,"opening_days":null,"rating":0,"photo_url":null,"description":null,"www":null},{"place_id":"112721817","geometry":{"type":"Point","coordinates":[12.094631417,43.98956695]},"display_name":"Convento, Strada Valleripa Castagneto, Maiavolo, Mercato Saraceno, FC, EMR, Italia","category":"attractions","type":"place_of_worship","importance":0.001,"icon":"http://nominatim.openstreetmap.org/images/mapicons/place_of_worship_unknown3.p.20.png","visiting_time":30.0,"opening_hours":null,"opening_days":null,"rating":0,"photo_url":null,"description":null,"www":null}]