[{"place_id":"19234","geometry":{"type":"Point","coordinates":[12.325247599,44.072434024]},"display_name":"Porta del Girone,from:MIBACT","category":"attractions","type":"Porta","importance":0.4,"icon":"","visiting_time":0.0,"opening_hours":"ok","opening_days":"ok","rating":0,"photo_url":null,"description":null,"www":null},{"place_id":"19233","geometry":{"type":"Point","coordinates":[12.325447336,44.072094615]},"display_name":"Porta Tagliata,from:MIBACT","category":"attractions","type":"Porta","importance":0.7,"icon":"","visiting_time":0.0,"opening_hours":"ok","opening_days":"ok","rating":0,"photo_url":null,"description":null,"www":null},{"place_id":"19232","geometry":{"type":"Point","coordinates":[12.32378831,44.072281246]},"display_name":"Porta del Ponte,from:MIBACT","category":"attractions","type":"Porta","importance":0.4,"icon":"","visiting_time":0.0,"opening_hours":"ok","opening_days":"ok","rating":0,"photo_url":null,"description":null,"www":null},{"place_id":"9012","geometry":{"type":"Point","coordinates":[12.364345419,44.095848112]},"display_name":"\"Villa Ginanni-Fantuzzi detta \"\"Il Gualdo\"\"\",from:MIBACT","category":"attractions","type":"Villa","importance":0.7,"icon":"","visiting_time":0.0,"opening_hours":"ok","opening_days":"ok","rating":0,"photo_url":null,"description":null,"www":"\"http://vincoliinrete.beniculturali.it/VincoliInRete/vir/bene/dettagliobene266306,http://vincoliinrete.beniculturali.it/VincoliInRete/vir/bene/dettagliobene19324\""},{"place_id":"15779","geometry":{"type":"Point","coordinates":[12.326911249,44.074636973]},"display_name":"Teatro Petrella,from:MIBACT","category":"attractions","type":"Teatro","importance":0.7,"icon":"","visiting_time":0.0,"opening_hours":"ok","opening_days":"ok","rating":0,"photo_url":null,"description":null,"www":"\"http://vincoliinrete.beniculturali.it/VincoliInRete/vir/bene/dettagliobene72086,http://vincoliinrete.beniculturali.it/VincoliInRete/vir/bene/dettagliobene231844\""},{"place_id":"19561","geometry":{"type":"Point","coordinates":[12.329349251,44.055954498]},"display_name":"Chiesa di Santa Maria Assunta di Cento e pertinenze,from:MIBACT","category":"attractions","type":"Chiesa","importance":0.7,"icon":"","visiting_time":0.0,"opening_hours":"ok","opening_days":"ok","rating":0,"photo_url":null,"description":null,"www":null},{"place_id":"7846","geometry":{"type":"Point","coordinates":[12.328074648,44.074421887]},"display_name":"Chiesa e convento del SS. Crocefisso e pertinenze,from:MIBACT","category":"attractions","type":"Chiesa","importance":0.7,"icon":"","visiting_time":0.0,"opening_hours":"ok","opening_days":"ok","rating":0,"photo_url":null,"description":null,"www":"http://vincoliinrete.beniculturali.it/VincoliInRete/vir/bene/dettagliobene347284"},{"place_id":"14354","geometry":{"type":"Point","coordinates":[12.326546755,44.073799484]},"display_name":"Chiesa di San Cristoforo Martire,from:MIBACT","category":"attractions","type":"Chiesa","importance":0.7,"icon":"","visiting_time":0.0,"opening_hours":"ok","opening_days":"ok","rating":0,"photo_url":null,"description":null,"www":"\"http://vincoliinrete.beniculturali.it/VincoliInRete/vir/bene/dettagliobene91016,http://vincoliinrete.beniculturali.it/VincoliInRete/vir/bene/dettagliobene274018\""},{"place_id":"15778","geometry":{"type":"Point","coordinates":[12.325059422,44.07306601]},"display_name":"Oratorio barocco di San Giuseppe Nuovo,from:MIBACT","category":"attractions","type":"Chiesa","importance":0.7,"icon":"","visiting_time":0.0,"opening_hours":"ok","opening_days":"ok","rating":0,"photo_url":null,"description":null,"www":"\"http://vincoliinrete.beniculturali.it/VincoliInRete/vir/bene/dettagliobene91020,http://vincoliinrete.beniculturali.it/VincoliInRete/vir/bene/dettagliobene141054\""},{"place_id":"15777","geometry":{"type":"Point","coordinates":[12.32495926,44.07260932]},"display_name":"Rocca,from:MIBACT","category":"attractions","type":"Rocca","importance":0.9,"icon":"","visiting_time":0.0,"opening_hours":"ok","opening_days":"ok","rating":0,"photo_url":null,"description":null,"www":"http://vincoliinrete.beniculturali.it/VincoliInRete/vir/bene/dettagliobene91026"},{"place_id":"15784","geometry":{"type":"Point","coordinates":[12.371605266,44.091917257]},"display_name":"Complesso parrocchiale di San Giovanni in Compito,from:MIBACT","category":"attractions","type":"Chiesa","importance":0.9,"icon":"","visiting_time":0.0,"opening_hours":"ok","opening_days":"ok","rating":0,"photo_url":null,"description":null,"www":"\"http://vincoliinrete.beniculturali.it/VincoliInRete/vir/bene/dettagliobene18858,http://vincoliinrete.beniculturali.it/VincoliInRete/vir/bene/dettagliobene141051\""}]