[{"place_id":"6342","geometry":{"type":"Point","coordinates":[11.387072037,44.271701774]},"display_name":"Chiesa di S. Alessandro e pertinenze,from:MIBACT","category":"attractions","type":"Chiesa","importance":0.7,"icon":"","visiting_time":0.0,"opening_hours":"ok","opening_days":"ok","rating":0,"photo_url":null,"description":null,"www":"\"http://vincoliinrete.beniculturali.it/VincoliInRete/vir/bene/dettagliobene146785,http://vincoliinrete.beniculturali.it/VincoliInRete/vir/bene/dettagliobene578178\""},{"place_id":"6383","geometry":{"type":"Point","coordinates":[11.372256274,44.342757445]},"display_name":"Castello di Zena e pertinenze,from:MIBACT","category":"attractions","type":"Rocca","importance":0.7,"icon":"","visiting_time":0.0,"opening_hours":"ok","opening_days":"ok","rating":0,"photo_url":null,"description":null,"www":"\"http://vincoliinrete.beniculturali.it/VincoliInRete/vir/bene/dettagliobene207288,http://vincoliinrete.beniculturali.it/VincoliInRete/vir/bene/dettagliobene601443\""},{"place_id":"6341","geometry":{"type":"Point","coordinates":[11.389634843,44.275231358]},"display_name":"Oratorio di S. Rocco,from:MIBACT","category":"attractions","type":"Oratorio","importance":0.7,"icon":"","visiting_time":0.0,"opening_hours":"ok","opening_days":"ok","rating":0,"photo_url":null,"description":null,"www":"\"http://vincoliinrete.beniculturali.it/VincoliInRete/vir/bene/dettagliobene227605,http://vincoliinrete.beniculturali.it/VincoliInRete/vir/bene/dettagliobene578130\""},{"place_id":"6335","geometry":{"type":"Point","coordinates":[11.389355679,44.274881797]},"display_name":"Casa Cella ora Manzoni,from:MIBACT","category":"attractions","type":"Casa","importance":0.7,"icon":"","visiting_time":0.0,"opening_hours":"ok","opening_days":"ok","rating":0,"photo_url":null,"description":null,"www":null},{"place_id":"6364","geometry":{"type":"Point","coordinates":[11.422088659,44.366466523]},"display_name":"Chiesa di S.Maria ex abbazia,from:MIBACT","category":"attractions","type":"Chiesa","importance":0.7,"icon":"","visiting_time":0.0,"opening_hours":"ok","opening_days":"ok","rating":0,"photo_url":null,"description":null,"www":"http://vincoliinrete.beniculturali.it/VincoliInRete/vir/bene/dettagliobene214101"}]