[{"place_id":"44,50777255756360","geometry":{"type":"Point","coordinates":[10.726733298,44.507772558]},"display_name":"Comune di Castellarano,from:IBC","category":"attractions","type":"HolderOfArchives","importance":0.0,"icon":"","visiting_time":0.0,"opening_hours":"ok","opening_days":"ok","rating":0,"photo_url":null,"description":null,"www":"http://www.comune.castellarano.re.it"},{"place_id":"44,50828268476120","geometry":{"type":"Point","coordinates":[10.727036619,44.508282685]},"display_name":"Biblioteca comunale Chiavelli,from:IBC","category":"attractions","type":"Library","importance":0.0,"icon":"","visiting_time":0.0,"opening_hours":"ok","opening_days":"ok","rating":0,"photo_url":null,"description":null,"www":"http://biblioteche.provincia.re.it/castellarano"},{"place_id":"44,50828268476120","geometry":{"type":"Point","coordinates":[10.727036619,44.508282685]},"display_name":"Biblioteca comunale Chiavelli,from:IBC","category":"attractions","type":"Library","importance":0.0,"icon":"","visiting_time":0.0,"opening_hours":"ok","opening_days":"ok","rating":0,"photo_url":null,"description":null,"www":"http://www.comune.castellarano.re.it/Sezione.jsp?titolo=BIBLIOTECA&idSezione=215"},{"place_id":"Una Roverella Castellarano Casa de Panini 108","geometry":{"type":"Point","coordinates":[10.73056356,44.51981621]},"display_name":"Una Roverella Castellarano Casa de Panini,from:IBC","category":"tree","type":"tree","importance":0.0,"icon":"","visiting_time":0.0,"opening_hours":"ok","opening_days":"ok","rating":0,"photo_url":"http://online.ibc.regione.emilia-romagna.it/mtrees/image/2401.jpg","description":null,"www":null},{"place_id":"Un filare di 3 Roverelle Scandiano Rondinara 126","geometry":{"type":"Point","coordinates":[10.65664731,44.55248394]},"display_name":"Un filare di 3 Roverelle Scandiano Rondinara,from:IBC","category":"tree","type":"tree","importance":0.0,"icon":"","visiting_time":0.0,"opening_hours":"ok","opening_days":"ok","rating":0,"photo_url":null,"description":null,"www":null},{"place_id":"Due Roverelle Scandiano Rondinara Via della Riva 149","geometry":{"type":"Point","coordinates":[10.67164348,44.54330804]},"display_name":"Due Roverelle Scandiano Rondinara Via della Riva,from:IBC","category":"tree","type":"tree","importance":0.0,"icon":"","visiting_time":0.0,"opening_hours":"ok","opening_days":"ok","rating":0,"photo_url":null,"description":null,"www":null},{"place_id":"Un Bagolaro Castellarano Colombaia 235","geometry":{"type":"Point","coordinates":[10.72372126,44.50412056]},"display_name":"Un Bagolaro Castellarano Colombaia,from:IBC","category":"tree","type":"tree","importance":0.0,"icon":"","visiting_time":0.0,"opening_hours":"ok","opening_days":"ok","rating":0,"photo_url":"http://online.ibc.regione.emilia-romagna.it/mtrees/image/2403.jpg","description":null,"www":null},{"place_id":"Due Farnie Sassuolo San Michele Via del Bacino, 25 509","geometry":{"type":"Point","coordinates":[10.74906089,44.51226939]},"display_name":"Due Farnie Sassuolo San Michele Via del Bacino, 25,from:IBC","category":"tree","type":"tree","importance":0.0,"icon":"","visiting_time":0.0,"opening_hours":"ok","opening_days":"ok","rating":0,"photo_url":"http://online.ibc.regione.emilia-romagna.it/mtrees/image/10336.jpg","description":null,"www":null},{"place_id":"Una Roverella Castellarano S. Valentino Via Telarolo 522","geometry":{"type":"Point","coordinates":[10.68849301,44.52787314]},"display_name":"Una Roverella Castellarano S. Valentino Via Telarolo,from:IBC","category":"tree","type":"tree","importance":0.0,"icon":"","visiting_time":0.0,"opening_hours":"ok","opening_days":"ok","rating":0,"photo_url":"http://online.ibc.regione.emilia-romagna.it/mtrees/image/2395.jpg","description":null,"www":null},{"place_id":"Due Farnie Sassuolo San Michele Via del Bacino, 25 592","geometry":{"type":"Point","coordinates":[10.74888268,44.5122001]},"display_name":"Due Farnie Sassuolo San Michele Via del Bacino, 25,from:IBC","category":"tree","type":"tree","importance":0.0,"icon":"","visiting_time":0.0,"opening_hours":"ok","opening_days":"ok","rating":0,"photo_url":"http://online.ibc.regione.emilia-romagna.it/mtrees/image/10338.jpg","description":null,"www":null},{"place_id":"Un filare di 3 Roverelle Scandiano Rondinara 622","geometry":{"type":"Point","coordinates":[10.65659953,44.55257466]},"display_name":"Un filare di 3 Roverelle Scandiano Rondinara,from:IBC","category":"tree","type":"tree","importance":0.0,"icon":"","visiting_time":0.0,"opening_hours":"ok","opening_days":"ok","rating":0,"photo_url":null,"description":null,"www":null},{"place_id":"Una Roverella Castellarano S. Valentino Via Gavardo 663","geometry":{"type":"Point","coordinates":[10.68864329,44.51913861]},"display_name":"Una Roverella Castellarano S. Valentino Via Gavardo,from:IBC","category":"tree","type":"tree","importance":0.0,"icon":"","visiting_time":0.0,"opening_hours":"ok","opening_days":"ok","rating":0,"photo_url":"http://online.ibc.regione.emilia-romagna.it/mtrees/image/2397.jpg","description":null,"www":null},{"place_id":"Una Roverella Scandiano Rondinara Via del Monte 692","geometry":{"type":"Point","coordinates":[10.66437807,44.56486675]},"display_name":"Una Roverella Scandiano Rondinara Via del Monte,from:IBC","category":"tree","type":"tree","importance":0.0,"icon":"","visiting_time":0.0,"opening_hours":"ok","opening_days":"ok","rating":0,"photo_url":"http://online.ibc.regione.emilia-romagna.it/mtrees/image/2420.jpg","description":null,"www":null},{"place_id":"Due Roverelle Scandiano Rondinara Via della Riva 934","geometry":{"type":"Point","coordinates":[10.67144371,44.54336498]},"display_name":"Due Roverelle Scandiano Rondinara Via della Riva,from:IBC","category":"tree","type":"tree","importance":0.0,"icon":"","visiting_time":0.0,"opening_hours":"ok","opening_days":"ok","rating":0,"photo_url":null,"description":null,"www":null}]