[{"place_id":"4720","geometry":{"type":"Point","coordinates":[10.586807518,44.613990415]},"display_name":"Castello di Albinea,from:MIBACT","category":"attractions","type":"Rocca","importance":0.7,"icon":"","visiting_time":0.0,"opening_hours":"ok","opening_days":"ok","rating":0,"photo_url":null,"description":null,"www":"http://vincoliinrete.beniculturali.it/VincoliInRete/vir/bene/dettagliobene205780"},{"place_id":"6522","geometry":{"type":"Point","coordinates":[10.54986711,44.624191241]},"display_name":"Castello di Muciatella,from:MIBACT","category":"attractions","type":"Rocca","importance":0.7,"icon":"","visiting_time":0.0,"opening_hours":"ok","opening_days":"ok","rating":0,"photo_url":null,"description":null,"www":"\"http://vincoliinrete.beniculturali.it/VincoliInRete/vir/bene/dettagliobene601543,http://vincoliinrete.beniculturali.it/VincoliInRete/vir/bene/dettagliobene205779\""},{"place_id":"6529","geometry":{"type":"Point","coordinates":[10.469966789,44.634877234]},"display_name":"Palazzo S. Anna o Giambellino,from:MIBACT","category":"attractions","type":"Palazzo","importance":0.7,"icon":"","visiting_time":0.0,"opening_hours":"ok","opening_days":"ok","rating":0,"photo_url":null,"description":null,"www":"http://vincoliinrete.beniculturali.it/VincoliInRete/vir/bene/dettagliobene478865"},{"place_id":"6594","geometry":{"type":"Point","coordinates":[10.581852112,44.644044787]},"display_name":"Villa D'Este o Casino della Vasca Corbelli,from:MIBACT","category":"attractions","type":"Villa","importance":0.7,"icon":"","visiting_time":0.0,"opening_hours":"ok","opening_days":"ok","rating":0,"photo_url":null,"description":null,"www":"http://www.giornatefai.it/luoghi/27167"},{"place_id":"6532","geometry":{"type":"Point","coordinates":[10.471589479,44.632069219]},"display_name":"Chiesa di S. Antonino e pertinenze,from:MIBACT","category":"attractions","type":"Chiesa","importance":0.7,"icon":"","visiting_time":0.0,"opening_hours":"ok","opening_days":"ok","rating":0,"photo_url":null,"description":null,"www":"http://vincoliinrete.beniculturali.it/VincoliInRete/vir/bene/dettagliobene601537"},{"place_id":"6530","geometry":{"type":"Point","coordinates":[10.466426073,44.626527937]},"display_name":"\"Quattro Castelli, parco annesso e pertinenze agricolo boschive\",from:MIBACT","category":"attractions","type":"Rocca","importance":0.7,"icon":"","visiting_time":0.0,"opening_hours":"ok","opening_days":"ok","rating":0,"photo_url":null,"description":null,"www":"\"http://vincoliinrete.beniculturali.it/VincoliInRete/vir/bene/dettagliobene205784,http://vincoliinrete.beniculturali.it/VincoliInRete/vir/bene/dettagliobene601520,http://vincoliinrete.beniculturali.it/VincoliInRete/vir/bene/dettagliobene186014\""}]