[{"place_id":"2006","geometry":{"type":"Point","coordinates":[10.783120256,44.653045123]},"display_name":"Oratorio della Santissima Annunziata,from:MIBACT","category":"attractions","type":"Chiesa","importance":0.7,"icon":"","visiting_time":0.0,"opening_hours":"ok","opening_days":"ok","rating":0,"photo_url":null,"description":null,"www":"http://vincoliinrete.beniculturali.it/VincoliInRete/vir/bene/dettagliobene137513"},{"place_id":"7344","geometry":{"type":"Point","coordinates":[10.784400655,44.653024803]},"display_name":"Palazzo ex Municipale,from:MIBACT","category":"attractions","type":"Palazzo","importance":0.7,"icon":"","visiting_time":0.0,"opening_hours":"ok","opening_days":"ok","rating":0,"photo_url":null,"description":null,"www":"http://vincoliinrete.beniculturali.it/VincoliInRete/vir/bene/dettagliobene339637"},{"place_id":"7342","geometry":{"type":"Point","coordinates":[10.783198031,44.653332965]},"display_name":"Palazzo Sacrati,from:MIBACT","category":"attractions","type":"Palazzo","importance":0.7,"icon":"","visiting_time":0.0,"opening_hours":"ok","opening_days":"ok","rating":0,"photo_url":null,"description":null,"www":"http://vincoliinrete.beniculturali.it/VincoliInRete/vir/bene/dettagliobene389647"},{"place_id":"11955","geometry":{"type":"Point","coordinates":[10.789322049,44.660585677]},"display_name":"\"Gruppo di edifici con annessa Chiesa denominato \"\"Corte Ospitale\"\"\",from:MIBACT","category":"attractions","type":"Ospitale","importance":0.7,"icon":"","visiting_time":0.0,"opening_hours":"ok","opening_days":"ok","rating":0,"photo_url":null,"description":null,"www":"http://vincoliinrete.beniculturali.it/VincoliInRete/vir/bene/dettagliobene194711"},{"place_id":"14415","geometry":{"type":"Point","coordinates":[10.78223547,44.660574167]},"display_name":"Palazzo Rainusso,from:MIBACT","category":"attractions","type":"Convento","importance":0.7,"icon":"","visiting_time":0.0,"opening_hours":"ok","opening_days":"ok","rating":0,"photo_url":null,"description":null,"www":"http://vincoliinrete.beniculturali.it/VincoliInRete/vir/bene/dettagliobene224298"},{"place_id":"7345","geometry":{"type":"Point","coordinates":[10.781501296,44.679281856]},"display_name":"Chiesa Parrocchiale di S. Faustino e Giovita,from:MIBACT","category":"attractions","type":"Chiesa","importance":0.7,"icon":"","visiting_time":0.0,"opening_hours":"ok","opening_days":"ok","rating":0,"photo_url":null,"description":null,"www":"http://vincoliinrete.beniculturali.it/VincoliInRete/vir/bene/dettagliobene137644"},{"place_id":"7339","geometry":{"type":"Point","coordinates":[10.781361853,44.653453435]},"display_name":"Avanzi del Castello di Rubiera,from:MIBACT","category":"attractions","type":"Rocca","importance":0.4,"icon":"","visiting_time":0.0,"opening_hours":"ok","opening_days":"ok","rating":0,"photo_url":null,"description":null,"www":"http://vincoliinrete.beniculturali.it/VincoliInRete/vir/bene/dettagliobene278747"}]