[{"place_id":"20071137","geometry":{"type":"Point","coordinates":[9.5317572,45.121922]},"display_name":"Le gabbiane, Frazione Bosco, Chignolo Po, PV, LOM, 27013, Italia","category":"eating","type":"restaurant","importance":0.001,"icon":"http://nominatim.openstreetmap.org/images/mapicons/food_restaurant.p.20.png","visiting_time":60.0,"opening_hours":null,"opening_days":null,"rating":0,"photo_url":null,"description":null,"www":null},{"place_id":"19179699","geometry":{"type":"Point","coordinates":[9.5941245,45.0879603]},"display_name":"Via Giuseppe Mazzini, Vaghinarda, Calendasco, PC, EMR, 29010, Italia","category":"eating","type":"restaurant","importance":0.001,"icon":"http://nominatim.openstreetmap.org/images/mapicons/food_restaurant.p.20.png","visiting_time":60.0,"opening_hours":null,"opening_days":null,"rating":0,"photo_url":null,"description":null,"www":null},{"place_id":"20150561","geometry":{"type":"Point","coordinates":[9.5288906,45.1154596]},"display_name":"Barattino, Via Soncina, Ca' Nizzolaro, Monticelli Pavese, PV, LOM, 27013, Italia","category":"eating","type":"restaurant","importance":0.001,"icon":"http://nominatim.openstreetmap.org/images/mapicons/food_restaurant.p.20.png","visiting_time":60.0,"opening_hours":null,"opening_days":null,"rating":0,"photo_url":null,"description":null,"www":null},{"place_id":"53461025","geometry":{"type":"Point","coordinates":[9.5496753,45.0581225]},"display_name":"Via Emilia Est, Nucleo Industriale, Borghesa Nuova, Rottofreno, PC, EMR, 29010, Italia","category":"eating","type":"restaurant","importance":0.001,"icon":"http://nominatim.openstreetmap.org/images/mapicons/food_restaurant.p.20.png","visiting_time":60.0,"opening_hours":null,"opening_days":null,"rating":0,"photo_url":null,"description":null,"www":null},{"place_id":"41140484","geometry":{"type":"Point","coordinates":[9.6049984,45.0432259]},"display_name":"La Noce, SP7; SP11, Borghesa Nuova, Rottofreno, PC, EMR, 29010, Italia","category":"eating","type":"restaurant","importance":0.001,"icon":"http://nominatim.openstreetmap.org/images/mapicons/food_restaurant.p.20.png","visiting_time":60.0,"opening_hours":null,"opening_days":null,"rating":0,"photo_url":null,"description":null,"www":null},{"place_id":"20071137","geometry":{"type":"Point","coordinates":[9.5317572,45.121922]},"display_name":"Le gabbiane, Frazione Bosco, Chignolo Po, PV, LOM, 27013, Italia","category":"eating","type":"restaurant","importance":0.001,"icon":"http://nominatim.openstreetmap.org/images/mapicons/food_restaurant.p.20.png","visiting_time":60.0,"opening_hours":null,"opening_days":null,"rating":0,"photo_url":null,"description":null,"www":null},{"place_id":"19179699","geometry":{"type":"Point","coordinates":[9.5941245,45.0879603]},"display_name":"Via Giuseppe Mazzini, Vaghinarda, Calendasco, PC, EMR, 29010, Italia","category":"eating","type":"restaurant","importance":0.001,"icon":"http://nominatim.openstreetmap.org/images/mapicons/food_restaurant.p.20.png","visiting_time":60.0,"opening_hours":null,"opening_days":null,"rating":0,"photo_url":null,"description":null,"www":null},{"place_id":"20150561","geometry":{"type":"Point","coordinates":[9.5288906,45.1154596]},"display_name":"Barattino, Via Soncina, Ca' Nizzolaro, Monticelli Pavese, PV, LOM, 27013, Italia","category":"eating","type":"restaurant","importance":0.001,"icon":"http://nominatim.openstreetmap.org/images/mapicons/food_restaurant.p.20.png","visiting_time":60.0,"opening_hours":null,"opening_days":null,"rating":0,"photo_url":null,"description":null,"www":null},{"place_id":"53461025","geometry":{"type":"Point","coordinates":[9.5496753,45.0581225]},"display_name":"Via Emilia Est, Nucleo Industriale, Borghesa Nuova, Rottofreno, PC, EMR, 29010, Italia","category":"eating","type":"restaurant","importance":0.001,"icon":"http://nominatim.openstreetmap.org/images/mapicons/food_restaurant.p.20.png","visiting_time":60.0,"opening_hours":null,"opening_days":null,"rating":0,"photo_url":null,"description":null,"www":null},{"place_id":"41140484","geometry":{"type":"Point","coordinates":[9.6049984,45.0432259]},"display_name":"La Noce, SP7; SP11, Borghesa Nuova, Rottofreno, PC, EMR, 29010, Italia","category":"eating","type":"restaurant","importance":0.001,"icon":"http://nominatim.openstreetmap.org/images/mapicons/food_restaurant.p.20.png","visiting_time":60.0,"opening_hours":null,"opening_days":null,"rating":0,"photo_url":null,"description":null,"www":null},{"place_id":"178814846","geometry":{"type":"Point","coordinates":[9.598227839,45.0878037]},"display_name":"Castello di Calendasco, Via Castello, Vaghinarda, Calendasco, PC, EMR, 29010, Italia","category":"attractions","type":"castle","importance":0.10803387,"icon":"http://nominatim.openstreetmap.org/images/mapicons/tourist_castle.p.20.png","visiting_time":120.0,"opening_hours":null,"opening_days":null,"rating":0,"photo_url":null,"description":null,"www":null},{"place_id":"23755781","geometry":{"type":"Point","coordinates":[9.5524016,45.0630587]},"display_name":"Castello di Rottofreno, Via Castello, Casa Nova, Rottofreno, PC, EMR, Italia","category":"attractions","type":"castle","importance":0.001,"icon":"http://nominatim.openstreetmap.org/images/mapicons/tourist_castle.p.20.png","visiting_time":120.0,"opening_hours":null,"opening_days":null,"rating":0,"photo_url":null,"description":null,"www":null},{"place_id":"19086348","geometry":{"type":"Point","coordinates":[9.5676109,45.0806727]},"display_name":"Castello di Santimento, Via Castello, Rottofreno, PC, EMR, 29010, Italia","category":"attractions","type":"castle","importance":0.001,"icon":"http://nominatim.openstreetmap.org/images/mapicons/tourist_castle.p.20.png","visiting_time":120.0,"opening_hours":null,"opening_days":null,"rating":0,"photo_url":null,"description":null,"www":null},{"place_id":"18873817","geometry":{"type":"Point","coordinates":[9.5976482,45.0856879]},"display_name":"Via Adua, Vaghinarda, Calendasco, PC, EMR, 29010, Italia","category":"lifestyle","type":"bar","importance":0.001,"icon":"http://nominatim.openstreetmap.org/images/mapicons/food_bar.p.20.png","visiting_time":10.0,"opening_hours":null,"opening_days":null,"rating":0,"photo_url":null,"description":null,"www":null},{"place_id":"4410470","geometry":{"type":"Point","coordinates":[9.6050784,45.0433756]},"display_name":"SP7; SP11, Borghesa Nuova, Rottofreno, PC, EMR, 29010, Italia","category":"lifestyle","type":"bar","importance":0.001,"icon":"http://nominatim.openstreetmap.org/images/mapicons/food_bar.p.20.png","visiting_time":10.0,"opening_hours":null,"opening_days":null,"rating":0,"photo_url":null,"description":null,"www":null},{"place_id":"18873817","geometry":{"type":"Point","coordinates":[9.5976482,45.0856879]},"display_name":"Via Adua, Vaghinarda, Calendasco, PC, EMR, 29010, Italia","category":"lifestyle","type":"bar","importance":0.001,"icon":"http://nominatim.openstreetmap.org/images/mapicons/food_bar.p.20.png","visiting_time":90.0,"opening_hours":null,"opening_days":null,"rating":0,"photo_url":null,"description":null,"www":null},{"place_id":"4410470","geometry":{"type":"Point","coordinates":[9.6050784,45.0433756]},"display_name":"SP7; SP11, Borghesa Nuova, Rottofreno, PC, EMR, 29010, Italia","category":"lifestyle","type":"bar","importance":0.001,"icon":"http://nominatim.openstreetmap.org/images/mapicons/food_bar.p.20.png","visiting_time":90.0,"opening_hours":null,"opening_days":null,"rating":0,"photo_url":null,"description":null,"www":null},{"place_id":"180169053","geometry":{"type":"Point","coordinates":[-8.3350726,43.2233149]},"display_name":"Abegondo, Galicia, CAFE, España","category":"lifestyle","type":"postcode","importance":0.2125,"icon":null,"visiting_time":10.0,"opening_hours":null,"opening_days":null,"rating":0,"photo_url":null,"description":null,"www":null},{"place_id":"54751616","geometry":{"type":"Point","coordinates":[9.5858117,45.056622]},"display_name":"Monella Lap Dance, Via Reggio Calabria, Nucleo Industriale, Borghesa Nuova, Rottofreno, PC, EMR, 29010, Italia","category":"lifestyle","type":"nightclub","importance":0.001,"icon":null,"visiting_time":120.0,"opening_hours":null,"opening_days":null,"rating":0,"photo_url":null,"description":null,"www":null},{"place_id":"54806797","geometry":{"type":"Point","coordinates":[9.5761388,45.0566061]},"display_name":"Ragno Gigante, Via Emilia Est, Nucleo Industriale, Borghesa Nuova, Rottofreno, PC, EMR, 29010, Italia","category":"attractions","type":"monument","importance":0.001,"icon":"http://nominatim.openstreetmap.org/images/mapicons/tourist_monument.p.20.png","visiting_time":10.0,"opening_hours":null,"opening_days":null,"rating":0,"photo_url":null,"description":null,"www":null},{"place_id":"20150540","geometry":{"type":"Point","coordinates":[9.5261872,45.1255701]},"display_name":"Museo della bonifica, Frazione Bosco, Chignolo Po, PV, LOM, 27013, Italia","category":"attractions","type":"museum","importance":0.001,"icon":"http://nominatim.openstreetmap.org/images/mapicons/tourist_museum.p.20.png","visiting_time":120.0,"opening_hours":null,"opening_days":null,"rating":0,"photo_url":null,"description":null,"www":null},{"place_id":"157118174","geometry":{"type":"Point","coordinates":[9.592178217,45.08524355]},"display_name":"La Brè, Calendasco, PC, EMR, 29010, Italia","category":"parks","type":"park","importance":0.15,"icon":null,"visiting_time":90.0,"opening_hours":null,"opening_days":null,"rating":0,"photo_url":null,"description":null,"www":null},{"place_id":"123880716","geometry":{"type":"Point","coordinates":[9.61117125,45.05044565]},"display_name":"Rottofreno, PC, EMR, 29010, Italia","category":"parks","type":"park","importance":0.15,"icon":null,"visiting_time":90.0,"opening_hours":null,"opening_days":null,"rating":0,"photo_url":null,"description":null,"www":null},{"place_id":"140738548","geometry":{"type":"Point","coordinates":[9.609606662,45.05405075]},"display_name":"Piazza Togliatti, Rottofreno, PC, EMR, 29010, Italia","category":"parks","type":"park","importance":0.15,"icon":null,"visiting_time":90.0,"opening_hours":null,"opening_days":null,"rating":0,"photo_url":null,"description":null,"www":null},{"place_id":"120997046","geometry":{"type":"Point","coordinates":[9.549771561,45.05420585]},"display_name":"Casa Nova, Rottofreno, PC, EMR, Italia","category":"parks","type":"park","importance":0.15,"icon":null,"visiting_time":90.0,"opening_hours":null,"opening_days":null,"rating":0,"photo_url":null,"description":null,"www":null},{"place_id":"122140504","geometry":{"type":"Point","coordinates":[9.606644442,45.0506222]},"display_name":"Borghesa Nuova, Rottofreno, PC, EMR, 29010, Italia","category":"parks","type":"park","importance":0.15,"icon":null,"visiting_time":90.0,"opening_hours":null,"opening_days":null,"rating":0,"photo_url":null,"description":null,"www":null},{"place_id":"110173794","geometry":{"type":"Point","coordinates":[9.558924395,45.10875975]},"display_name":"Strada di Boscone Cusani, S. Vittoria, Rottofreno, PC, EMR, Italia","category":"attractions","type":"place_of_worship","importance":0.101,"icon":"http://nominatim.openstreetmap.org/images/mapicons/place_of_worship_unknown3.p.20.png","visiting_time":30.0,"opening_hours":null,"opening_days":null,"rating":0,"photo_url":null,"description":null,"www":null},{"place_id":"109710843","geometry":{"type":"Point","coordinates":[9.550556423,45.0573741]},"display_name":"Chiesa San Michele, Via Emilia, Consorzio Agrario Provinciale, Casa Nova, Rottofreno, PC, EMR, 29010, Italia","category":"attractions","type":"place_of_worship","importance":0.101,"icon":"http://nominatim.openstreetmap.org/images/mapicons/place_of_worship_unknown3.p.20.png","visiting_time":30.0,"opening_hours":null,"opening_days":null,"rating":0,"photo_url":null,"description":null,"www":null},{"place_id":"155583364","geometry":{"type":"Point","coordinates":[9.568105939,45.0789729]},"display_name":"Chiesa San Giovanni Battista, Via Belvedere, Rottofreno, PC, EMR, 29010, Italia","category":"attractions","type":"place_of_worship","importance":0.101,"icon":"http://nominatim.openstreetmap.org/images/mapicons/place_of_worship_unknown3.p.20.png","visiting_time":30.0,"opening_hours":null,"opening_days":null,"rating":0,"photo_url":null,"description":null,"www":null},{"place_id":"108368767","geometry":{"type":"Point","coordinates":[9.612625637,45.05576505]},"display_name":"Chiesa di San Nicola di Bari, Via Emilia Pavese, Rottofreno, PC, EMR, 29010, Italia","category":"attractions","type":"place_of_worship","importance":0.101,"icon":"http://nominatim.openstreetmap.org/images/mapicons/place_of_worship_unknown3.p.20.png","visiting_time":30.0,"opening_hours":null,"opening_days":null,"rating":0,"photo_url":null,"description":null,"www":null},{"place_id":"109257590","geometry":{"type":"Point","coordinates":[9.597953056,45.08734265]},"display_name":"Via Castello, Vaghinarda, Calendasco, PC, EMR, 29010, Italia","category":"attractions","type":"place_of_worship","importance":0.001,"icon":"http://nominatim.openstreetmap.org/images/mapicons/place_of_worship_unknown3.p.20.png","visiting_time":30.0,"opening_hours":null,"opening_days":null,"rating":0,"photo_url":null,"description":null,"www":null},{"place_id":"107926278","geometry":{"type":"Point","coordinates":[9.630250607,45.0718626]},"display_name":"Chiesa San Pietro, Strada delle Torri, Colombaia, Calendasco, PC, EMR, 29010, Italia","category":"attractions","type":"place_of_worship","importance":0.001,"icon":"http://nominatim.openstreetmap.org/images/mapicons/place_of_worship_unknown3.p.20.png","visiting_time":30.0,"opening_hours":null,"opening_days":null,"rating":0,"photo_url":null,"description":null,"www":null},{"place_id":"109257590","geometry":{"type":"Point","coordinates":[9.597953056,45.08734265]},"display_name":"Via Castello, Vaghinarda, Calendasco, PC, EMR, 29010, Italia","category":"attractions","type":"place_of_worship","importance":0.001,"icon":"http://nominatim.openstreetmap.org/images/mapicons/place_of_worship_unknown3.p.20.png","visiting_time":30.0,"opening_hours":null,"opening_days":null,"rating":0,"photo_url":null,"description":null,"www":null},{"place_id":"107926278","geometry":{"type":"Point","coordinates":[9.630250607,45.0718626]},"display_name":"Chiesa San Pietro, Strada delle Torri, Colombaia, Calendasco, PC, EMR, 29010, Italia","category":"attractions","type":"place_of_worship","importance":0.001,"icon":"http://nominatim.openstreetmap.org/images/mapicons/place_of_worship_unknown3.p.20.png","visiting_time":30.0,"opening_hours":null,"opening_days":null,"rating":0,"photo_url":null,"description":null,"www":null},{"place_id":"110173794","geometry":{"type":"Point","coordinates":[9.558924395,45.10875975]},"display_name":"Strada di Boscone Cusani, S. Vittoria, Rottofreno, PC, EMR, Italia","category":"attractions","type":"place_of_worship","importance":0.001,"icon":"http://nominatim.openstreetmap.org/images/mapicons/place_of_worship_unknown3.p.20.png","visiting_time":30.0,"opening_hours":null,"opening_days":null,"rating":0,"photo_url":null,"description":null,"www":null},{"place_id":"109710843","geometry":{"type":"Point","coordinates":[9.550556423,45.0573741]},"display_name":"Chiesa San Michele, Via Emilia, Consorzio Agrario Provinciale, Casa Nova, Rottofreno, PC, EMR, 29010, Italia","category":"attractions","type":"place_of_worship","importance":0.001,"icon":"http://nominatim.openstreetmap.org/images/mapicons/place_of_worship_unknown3.p.20.png","visiting_time":30.0,"opening_hours":null,"opening_days":null,"rating":0,"photo_url":null,"description":null,"www":null},{"place_id":"155583364","geometry":{"type":"Point","coordinates":[9.568105939,45.0789729]},"display_name":"Chiesa San Giovanni Battista, Via Belvedere, Rottofreno, PC, EMR, 29010, Italia","category":"attractions","type":"place_of_worship","importance":0.001,"icon":"http://nominatim.openstreetmap.org/images/mapicons/place_of_worship_unknown3.p.20.png","visiting_time":30.0,"opening_hours":null,"opening_days":null,"rating":0,"photo_url":null,"description":null,"www":null},{"place_id":"108368767","geometry":{"type":"Point","coordinates":[9.612625637,45.05576505]},"display_name":"Chiesa di San Nicola di Bari, Via Emilia Pavese, Rottofreno, PC, EMR, 29010, Italia","category":"attractions","type":"place_of_worship","importance":0.001,"icon":"http://nominatim.openstreetmap.org/images/mapicons/place_of_worship_unknown3.p.20.png","visiting_time":30.0,"opening_hours":null,"opening_days":null,"rating":0,"photo_url":null,"description":null,"www":null}]