[{"place_id":"44,28546517584770","geometry":{"type":"Point","coordinates":[11.882833408,44.285465176]},"display_name":"Comune di Faenza,from:IBC","category":"attractions","type":"HolderOfArchives","importance":0.0,"icon":"","visiting_time":0.0,"opening_hours":"ok","opening_days":"ok","rating":0,"photo_url":null,"description":null,"www":"http://www.comune.faenza.ra.it"},{"place_id":"44,28645176536880","geometry":{"type":"Point","coordinates":[11.884136385,44.286451765]},"display_name":"Associazione nazionale fra mutilati e invalidi di guerra - Sezione di Faenza,from:IBC","category":"attractions","type":"HolderOfArchives","importance":0.0,"icon":"","visiting_time":0.0,"opening_hours":"ok","opening_days":"ok","rating":0,"photo_url":null,"description":null,"www":"http://dati.emilia-romagna.it/id/ibc/condition/039010-002"},{"place_id":"44,36003868404760","geometry":{"type":"Point","coordinates":[11.843999205,44.360038684]},"display_name":"Comune di Solarolo,from:IBC","category":"attractions","type":"HolderOfArchives","importance":0.0,"icon":"","visiting_time":0.0,"opening_hours":"ok","opening_days":"ok","rating":0,"photo_url":null,"description":null,"www":"http://www.comune.solarolo.ra.it"},{"place_id":"44,22377794336680","geometry":{"type":"Point","coordinates":[11.772154913,44.223777943]},"display_name":"Comune di Brisighella,from:IBC","category":"attractions","type":"HolderOfArchives","importance":0.0,"icon":"","visiting_time":0.0,"opening_hours":"ok","opening_days":"ok","rating":0,"photo_url":null,"description":null,"www":"http://www.comune.brisighella.ra.it"},{"place_id":"44,23157500821640","geometry":{"type":"Point","coordinates":[12.019005314,44.231575008]},"display_name":"Comune di Forlì,from:IBC","category":"attractions","type":"HolderOfArchives","importance":0.0,"icon":"","visiting_time":0.0,"opening_hours":"ok","opening_days":"ok","rating":0,"photo_url":null,"description":null,"www":"http://www.comune.forli.fc.it"},{"place_id":"44,31889847584290","geometry":{"type":"Point","coordinates":[11.799067942,44.318898476]},"display_name":"Comune di Castel Bolognese,from:IBC","category":"attractions","type":"HolderOfArchives","importance":0.0,"icon":"","visiting_time":0.0,"opening_hours":"ok","opening_days":"ok","rating":0,"photo_url":null,"description":null,"www":"http://www.comune.castelbolognese.ra.it"},{"place_id":"44,28871040403210","geometry":{"type":"Point","coordinates":[11.881819788,44.288710404]},"display_name":"Biblioteca del Museo internazionale delle ceramiche,from:IBC","category":"attractions","type":"Library","importance":0.0,"icon":"","visiting_time":0.0,"opening_hours":"ok","opening_days":"ok","rating":0,"photo_url":null,"description":null,"www":"http://www.micfaenza.org"},{"place_id":"44,30168700006290","geometry":{"type":"Point","coordinates":[11.967701393,44.301687]},"display_name":"Biblioteca comunale Manfrediana. Sede di Reda,from:IBC","category":"attractions","type":"Library","importance":0.0,"icon":"","visiting_time":0.0,"opening_hours":"ok","opening_days":"ok","rating":0,"photo_url":null,"description":null,"www":"http://dati.emilia-romagna.it/id/ibc/condition/IT-RA0074_orari"},{"place_id":"44,29534377531040","geometry":{"type":"Point","coordinates":[11.864528679,44.295343775]},"display_name":"Biblioteca comunale Manfrediana. Sede di Granarolo,from:IBC","category":"attractions","type":"Library","importance":0.0,"icon":"","visiting_time":0.0,"opening_hours":"ok","opening_days":"ok","rating":0,"photo_url":null,"description":null,"www":"http://dati.emilia-romagna.it/id/ibc/condition/IT-RA0119_orari"},{"place_id":"44,22233924609460","geometry":{"type":"Point","coordinates":[11.768837352,44.222339246]},"display_name":"Biblioteca comunale Carlo Pasini,from:IBC","category":"attractions","type":"Library","importance":0.0,"icon":"","visiting_time":0.0,"opening_hours":"ok","opening_days":"ok","rating":0,"photo_url":null,"description":null,"www":"http://dati.emilia-romagna.it/id/ibc/condition/IT-RA0003_orari"},{"place_id":"44,28803095832440","geometry":{"type":"Point","coordinates":[11.877934666,44.288030958]},"display_name":"Biblioteca - Fototeca della Pinacoteca comunale,from:IBC","category":"attractions","type":"Library","importance":0.0,"icon":"","visiting_time":0.0,"opening_hours":"ok","opening_days":"ok","rating":0,"photo_url":null,"description":null,"www":"http://dati.emilia-romagna.it/id/ibc/condition/IT-RA0075_orari"},{"place_id":"44,28436021490470","geometry":{"type":"Point","coordinates":[11.884988361,44.284360215]},"display_name":"Biblioteca comunale Manfrediana per ragazzi,from:IBC","category":"attractions","type":"Library","importance":0.0,"icon":"","visiting_time":0.0,"opening_hours":"ok","opening_days":"ok","rating":0,"photo_url":null,"description":null,"www":"http://dati.emilia-romagna.it/id/ibc/condition/IT-RA0055_orari"},{"place_id":"44,28442682789050","geometry":{"type":"Point","coordinates":[11.885046257,44.284426828]},"display_name":"Biblioteca comunale Manfrediana,from:IBC","category":"attractions","type":"Library","importance":0.0,"icon":"","visiting_time":0.0,"opening_hours":"ok","opening_days":"ok","rating":0,"photo_url":null,"description":null,"www":"http://manfrediana2.racine.ra.it"},{"place_id":"44,35936249631130","geometry":{"type":"Point","coordinates":[11.84431054,44.359362496]},"display_name":"Biblioteca comunale Mario Mariani,from:IBC","category":"attractions","type":"Library","importance":0.0,"icon":"","visiting_time":0.0,"opening_hours":"ok","opening_days":"ok","rating":0,"photo_url":null,"description":null,"www":"http://www.comune.solarolo.ra.it/La-Citta/Biblioteca"},{"place_id":"44,3212615","geometry":{"type":"Point","coordinates":[11.7954257,44.3212615]},"display_name":"Biblioteca comunale Luigi Dal Pane,from:IBC","category":"attractions","type":"Library","importance":0.0,"icon":"","visiting_time":0.0,"opening_hours":"ok","opening_days":"ok","rating":0,"photo_url":null,"description":null,"www":"http://www.comune.castelbolognese.ra.it/cultura/"},{"place_id":"44,23337382381020","geometry":{"type":"Point","coordinates":[12.00764025,44.233373824]},"display_name":"Biblioteca Maestro Antonio Alberti,from:IBC","category":"attractions","type":"Library","importance":0.0,"icon":"","visiting_time":0.0,"opening_hours":"ok","opening_days":"ok","rating":0,"photo_url":null,"description":null,"www":"http://dati.emilia-romagna.it/id/ibc/condition/IT-FC0117_orari"},{"place_id":"44,28842340372030","geometry":{"type":"Point","coordinates":[11.884023955,44.288423404]},"display_name":"Biblioteca dell'Osservatorio geofisico comunale Raffaele Bendandi,from:IBC","category":"attractions","type":"Library","importance":0.0,"icon":"","visiting_time":0.0,"opening_hours":"ok","opening_days":"ok","rating":0,"photo_url":null,"description":null,"www":"http://www.geocities.com/osservatoriobendandi"},{"place_id":"44,28757090305870","geometry":{"type":"Point","coordinates":[11.874462852,44.287570903]},"display_name":"Biblioteca Tecnico-Scientifica Azienda USL di Ravenna,from:IBC","category":"attractions","type":"Library","importance":0.0,"icon":"","visiting_time":0.0,"opening_hours":"ok","opening_days":"ok","rating":0,"photo_url":null,"description":null,"www":"http://www.ausl.ra.it/index.php?option=com_content&view=article&id=107&Itemid=416"},{"place_id":"44,28558482812210","geometry":{"type":"Point","coordinates":[11.885637928,44.285584828]},"display_name":"Museo Diocesano,from:IBC","category":"attractions","type":"Museum","importance":0.0,"icon":"","visiting_time":0.0,"opening_hours":"ok","opening_days":"ok","rating":0,"photo_url":null,"description":null,"www":"http://www.faenza.chiesacattolica.it"},{"place_id":"44,28842340372030","geometry":{"type":"Point","coordinates":[11.884023955,44.288423404]},"display_name":"Casa Museo Raffaele Bendandi,from:IBC","category":"attractions","type":"Museum","importance":0.0,"icon":"","visiting_time":0.0,"opening_hours":"ok","opening_days":"ok","rating":0,"photo_url":null,"description":null,"www":"http://dati.emilia-romagna.it/id/ibc/condition/IT-ER-RA038"},{"place_id":"44,28599860067050","geometry":{"type":"Point","coordinates":[11.879812587,44.285998601]},"display_name":"Pinacoteca Comunale di Faenza,from:IBC","category":"attractions","type":"Museum","importance":0.0,"icon":"","visiting_time":0.0,"opening_hours":"ok","opening_days":"ok","rating":0,"photo_url":null,"description":null,"www":"http://www.pinacotecafaenza.it"},{"place_id":"44,28509817872030","geometry":{"type":"Point","coordinates":[11.878472996,44.285098179]},"display_name":"Museo del Teatro,from:IBC","category":"attractions","type":"Museum","importance":0.0,"icon":"","visiting_time":0.0,"opening_hours":"ok","opening_days":"ok","rating":0,"photo_url":null,"description":null,"www":"http://dati.emilia-romagna.it/id/ibc/condition/IT-ER-RA029"},{"place_id":"44,32046449390300","geometry":{"type":"Point","coordinates":[11.797946263,44.320464494]},"display_name":"Museo Civico,from:IBC","category":"attractions","type":"Museum","importance":0.0,"icon":"","visiting_time":0.0,"opening_hours":"ok","opening_days":"ok","rating":0,"photo_url":null,"description":null,"www":"http://dati.emilia-romagna.it/id/ibc/condition/IT-ER-RA047"},{"place_id":"44,29561668997640","geometry":{"type":"Point","coordinates":[11.875728895,44.29561669]},"display_name":"Museo Civico di Scienze Naturali,from:IBC","category":"attractions","type":"Museum","importance":0.0,"icon":"","visiting_time":0.0,"opening_hours":"ok","opening_days":"ok","rating":0,"photo_url":null,"description":null,"www":"http://www.museoscienzefaenza.it"},{"place_id":"44,28991804411430","geometry":{"type":"Point","coordinates":[11.881065959,44.289918044]},"display_name":"Museo Internazionale delle Ceramiche in Faenza,from:IBC","category":"attractions","type":"Museum","importance":0.0,"icon":"","visiting_time":0.0,"opening_hours":"ok","opening_days":"ok","rating":0,"photo_url":null,"description":null,"www":"http://www.micfaenza.org"},{"place_id":"44,28739203090390","geometry":{"type":"Point","coordinates":[11.886969007,44.287392031]},"display_name":"Museo Carlo Zauli,from:IBC","category":"attractions","type":"Museum","importance":0.0,"icon":"","visiting_time":0.0,"opening_hours":"ok","opening_days":"ok","rating":0,"photo_url":null,"description":null,"www":"http://www.museozauli.it"},{"place_id":"44,28645176536880","geometry":{"type":"Point","coordinates":[11.884136385,44.286451765]},"display_name":"Museo del Risorgimento e dell'Età Contemporanea,from:IBC","category":"attractions","type":"Museum","importance":0.0,"icon":"","visiting_time":0.0,"opening_hours":"ok","opening_days":"ok","rating":0,"photo_url":null,"description":null,"www":"http://dati.emilia-romagna.it/id/ibc/condition/IT-ER-RA014"},{"place_id":"44,28645176536880","geometry":{"type":"Point","coordinates":[11.884136385,44.286451765]},"display_name":"Museo Torricelliano,from:IBC","category":"attractions","type":"Museum","importance":0.0,"icon":"","visiting_time":0.0,"opening_hours":"ok","opening_days":"ok","rating":0,"photo_url":null,"description":null,"www":"http://www.racine.ra.it/torricellianafaenza/index.html"},{"place_id":"44,31811605121600","geometry":{"type":"Point","coordinates":[11.798731029,44.318116051]},"display_name":"Museo Parrocchiale d'Arte Sacra,from:IBC","category":"attractions","type":"Museum","importance":0.0,"icon":"","visiting_time":0.0,"opening_hours":"ok","opening_days":"ok","rating":0,"photo_url":null,"description":null,"www":"http://dati.emilia-romagna.it/id/ibc/condition/IT-ER-RA069"},{"place_id":"44,21234499629200","geometry":{"type":"Point","coordinates":[12.01634527,44.212344996]},"display_name":"Villa Saffi,from:IBC","category":"attractions","type":"Museum","importance":0.0,"icon":"","visiting_time":0.0,"opening_hours":"ok","opening_days":"ok","rating":0,"photo_url":null,"description":null,"www":"http://www.cultura.comune.forli.fc.it"},{"place_id":"44,22364114414820","geometry":{"type":"Point","coordinates":[11.773773699,44.223641144]},"display_name":"Museo Civico G. Ugonia,from:IBC","category":"attractions","type":"Museum","importance":0.0,"icon":"","visiting_time":0.0,"opening_hours":"ok","opening_days":"ok","rating":0,"photo_url":null,"description":null,"www":"http://dati.emilia-romagna.it/id/ibc/condition/IT-ER-RA027"},{"place_id":"44,36833839478240","geometry":{"type":"Point","coordinates":[11.857832867,44.368338395]},"display_name":"Museo della Beata Vergine della Salute,from:IBC","category":"attractions","type":"Museum","importance":0.0,"icon":"","visiting_time":0.0,"opening_hours":"ok","opening_days":"ok","rating":0,"photo_url":null,"description":null,"www":"http://www.terredifaenza.it/scoprire_territorio/arte_cultura/ter_abbazie/pagina15-081.html"},{"place_id":"44,24704158256590","geometry":{"type":"Point","coordinates":[11.799651863,44.247041583]},"display_name":"Museo della Resistenza Ca' Malanca,from:IBC","category":"attractions","type":"Museum","importance":0.0,"icon":"","visiting_time":0.0,"opening_hours":"ok","opening_days":"ok","rating":0,"photo_url":null,"description":null,"www":"http://www.camalanca.it"},{"place_id":"44,36003868404760","geometry":{"type":"Point","coordinates":[11.843999205,44.360038684]},"display_name":"Museo Civico della SS. Annunziata,from:IBC","category":"attractions","type":"Museum","importance":0.0,"icon":"","visiting_time":0.0,"opening_hours":"ok","opening_days":"ok","rating":0,"photo_url":null,"description":null,"www":"http://www.terredifaenza.it/scoprire_territorio/arte_cultura/ter_musei/pagina26-081.html"},{"place_id":"Un Pioppo bianco Solarolo Via Pritella, 6 38","geometry":{"type":"Point","coordinates":[11.85986356,44.37363497]},"display_name":"Un Pioppo bianco Solarolo Via Pritella, 6,from:IBC","category":"tree","type":"tree","importance":0.0,"icon":"","visiting_time":0.0,"opening_hours":"ok","opening_days":"ok","rating":0,"photo_url":"http://online.ibc.regione.emilia-romagna.it/mtrees/image/1350.jpg","description":null,"www":null},{"place_id":"Una Farnia Solarolo Via Donegallia, 8 116","geometry":{"type":"Point","coordinates":[11.84559492,44.32780932]},"display_name":"Una Farnia Solarolo Via Donegallia, 8,from:IBC","category":"tree","type":"tree","importance":0.0,"icon":"","visiting_time":0.0,"opening_hours":"ok","opening_days":"ok","rating":0,"photo_url":"http://online.ibc.regione.emilia-romagna.it/mtrees/image/1348.jpg","description":null,"www":null},{"place_id":"Platano Faenza S. Pier Laguna Via Lugo, 153 316","geometry":{"type":"Point","coordinates":[11.85935248,44.33064326]},"display_name":"Platano Faenza S. Pier Laguna Via Lugo, 153,from:IBC","category":"tree","type":"tree","importance":0.0,"icon":"","visiting_time":0.0,"opening_hours":"ok","opening_days":"ok","rating":0,"photo_url":"http://online.ibc.regione.emilia-romagna.it/mtrees/image/1353.jpg","description":null,"www":null},{"place_id":"Un Pioppo nero Cotignola Barbiano Argine Canale dei Molini 508","geometry":{"type":"Point","coordinates":[11.92253694,44.37728641]},"display_name":"Un Pioppo nero Cotignola Barbiano Argine Canale dei Molini,from:IBC","category":"tree","type":"tree","importance":0.0,"icon":"","visiting_time":0.0,"opening_hours":"ok","opening_days":"ok","rating":0,"photo_url":null,"description":null,"www":null},{"place_id":"Un Pioppo bianco Cotignola Via Canale 512","geometry":{"type":"Point","coordinates":[11.92246441,44.37734228]},"display_name":"Un Pioppo bianco Cotignola Via Canale,from:IBC","category":"tree","type":"tree","importance":0.0,"icon":"","visiting_time":0.0,"opening_hours":"ok","opening_days":"ok","rating":0,"photo_url":"http://online.ibc.regione.emilia-romagna.it/mtrees/image/1214.jpg","description":null,"www":null},{"place_id":"Olmo siberiano Solarolo Via Cavina, 2 545","geometry":{"type":"Point","coordinates":[11.82946603,44.3580264]},"display_name":"Olmo siberiano Solarolo Via Cavina, 2,from:IBC","category":"tree","type":"tree","importance":0.0,"icon":"","visiting_time":0.0,"opening_hours":"ok","opening_days":"ok","rating":0,"photo_url":"http://online.ibc.regione.emilia-romagna.it/mtrees/image/1366.jpg","description":null,"www":null},{"place_id":"Un Pioppo bianco Forlì S. Tomè Via Lughese, 71 560","geometry":{"type":"Point","coordinates":[12.00943764,44.25356572]},"display_name":"Un Pioppo bianco Forlì S. Tomè Via Lughese, 71,from:IBC","category":"tree","type":"tree","importance":0.0,"icon":"","visiting_time":0.0,"opening_hours":"ok","opening_days":"ok","rating":0,"photo_url":"http://online.ibc.regione.emilia-romagna.it/mtrees/image/6682.12.06.pdf","description":null,"www":null},{"place_id":"Una Roverella Faenza Via Castel Raniero 565","geometry":{"type":"Point","coordinates":[11.81370983,44.26133338]},"display_name":"Una Roverella Faenza Via Castel Raniero,from:IBC","category":"tree","type":"tree","importance":0.0,"icon":"","visiting_time":0.0,"opening_hours":"ok","opening_days":"ok","rating":0,"photo_url":"http://online.ibc.regione.emilia-romagna.it/mtrees/image/1197.jpg","description":null,"www":null},{"place_id":"Un Tasso Faenza C.so Baccarini, 15 566","geometry":{"type":"Point","coordinates":[11.88042546,44.28868388]},"display_name":"Un Tasso Faenza C.so Baccarini, 15,from:IBC","category":"tree","type":"tree","importance":0.0,"icon":"","visiting_time":0.0,"opening_hours":"ok","opening_days":"ok","rating":0,"photo_url":"http://online.ibc.regione.emilia-romagna.it/mtrees/image/1287.jpg","description":null,"www":null},{"place_id":"Un Pioppo bianco Cotignola S. Severo Via Barbiana, 10 610","geometry":{"type":"Point","coordinates":[11.90216579,44.3567227]},"display_name":"Un Pioppo bianco Cotignola S. Severo Via Barbiana, 10,from:IBC","category":"tree","type":"tree","importance":0.0,"icon":"","visiting_time":0.0,"opening_hours":"ok","opening_days":"ok","rating":0,"photo_url":"http://online.ibc.regione.emilia-romagna.it/mtrees/image/1217.jpg","description":null,"www":null},{"place_id":"Due esemplari di Pioppo bianco (Populus alba) Cotignola Via S. Severo, 34 778","geometry":{"type":"Point","coordinates":[11.89007277,44.35754277]},"display_name":"Due esemplari di Pioppo bianco (Populus alba) Cotignola Via S. Severo, 34,from:IBC","category":"tree","type":"tree","importance":0.0,"icon":"","visiting_time":0.0,"opening_hours":"ok","opening_days":"ok","rating":0,"photo_url":"http://online.ibc.regione.emilia-romagna.it/mtrees/image/13836.jpg","description":null,"www":null},{"place_id":"Una Roverella Casola Valsenio Castagnolo (Pozzo) 875","geometry":{"type":"Point","coordinates":[11.76717475,44.32703674]},"display_name":"Una Roverella Casola Valsenio Castagnolo (Pozzo),from:IBC","category":"tree","type":"tree","importance":0.0,"icon":"","visiting_time":0.0,"opening_hours":"ok","opening_days":"ok","rating":0,"photo_url":"http://online.ibc.regione.emilia-romagna.it/mtrees/image/6630.12.06.pdf","description":null,"www":null},{"place_id":"Un Cerro Faenza Via Cavaliera, 3 (S. Biagio) 881","geometry":{"type":"Point","coordinates":[11.93939853,44.25539191]},"display_name":"Un Cerro Faenza Via Cavaliera, 3 (S. Biagio),from:IBC","category":"tree","type":"tree","importance":0.0,"icon":"","visiting_time":0.0,"opening_hours":"ok","opening_days":"ok","rating":0,"photo_url":"http://online.ibc.regione.emilia-romagna.it/mtrees/image/5559.jpg","description":null,"www":null},{"place_id":"Due esemplari di Pioppo bianco (Populus alba) Cotignola Via S. Severo, 34 939","geometry":{"type":"Point","coordinates":[11.89007852,44.35765965]},"display_name":"Due esemplari di Pioppo bianco (Populus alba) Cotignola Via S. Severo, 34,from:IBC","category":"tree","type":"tree","importance":0.0,"icon":"","visiting_time":0.0,"opening_hours":"ok","opening_days":"ok","rating":0,"photo_url":"http://online.ibc.regione.emilia-romagna.it/mtrees/image/13838.jpg","description":null,"www":null},{"place_id":"Una Roverella Faenza Via Pergola, 10 952","geometry":{"type":"Point","coordinates":[11.82327377,44.29100355]},"display_name":"Una Roverella Faenza Via Pergola, 10,from:IBC","category":"tree","type":"tree","importance":0.0,"icon":"","visiting_time":0.0,"opening_hours":"ok","opening_days":"ok","rating":0,"photo_url":"http://online.ibc.regione.emilia-romagna.it/mtrees/image/5555.jpg","description":null,"www":null},{"place_id":"Esemplare di Pioppo bianco (Populus alba) Cotignola Via Gaggio 1055","geometry":{"type":"Point","coordinates":[11.87796292,44.37236971]},"display_name":"Esemplare di Pioppo bianco (Populus alba) Cotignola Via Gaggio,from:IBC","category":"tree","type":"tree","importance":0.0,"icon":"","visiting_time":0.0,"opening_hours":"ok","opening_days":"ok","rating":0,"photo_url":"http://online.ibc.regione.emilia-romagna.it/mtrees/image/1158.jpg","description":null,"www":null}]